{"elements":[{"type":"node","id":263260753,"lat":35.3062604,"lon":139.5101242,"tags":{"light_rail":"yes","name":"七里ヶ浜","name:en":"Shichirigahama","name:ja":"七里ヶ浜","name:ja-Hira":"しちりがはま","name:ja_rm":"Shichirigahama","name:ko":"시치리가하마","name:zh":"七里濱","operator":"江ノ島電鉄","public_transport":"stop_position","railway":"stop","ref":"EN-09","source":"KSJ2","wikidata":"Q858960","wikipedia":"ja:七里ヶ浜駅"}},{"type":"node","id":263260766,"lat":35.3128167,"lon":139.541414,"tags":{"name":"由比ヶ浜","name:en":"Yuigahama","name:ja":"由比ヶ浜","name:ja-Hira":"ゆいがはま","name:ja_rm":"Yuigahama","name:ko":"유이가하마","name:zh":"由比濱","operator":"江ノ島電鉄","public_transport":"stop_position","railway":"stop","ref":"EN-13","source":"KSJ2","source_ref":"http://nlftp.mlit.go.jp/ksj/jpgis/datalist/KsjTmplt-N02-v1_1.html","train":"yes","wikidata":"Q859070","wikipedia":"ja:由比ヶ浜駅"}},{"type":"node","id":263260767,"lat":35.3110572,"lon":139.4875577,"tags":{"light_rail":"yes","name":"江ノ島","name:en":"Enoshima","name:ja":"江ノ島","name:ja-Hira":"えのしま","name:ja_rm":"Enoshima","name:ko":"에노시마","name:zh":"江之島","operator":"江ノ島電鉄","public_transport":"stop_position","railway":"stop","ref":"EN-06","source":"KSJ2","toilets:wheelchair":"no","wheelchair":"yes","wikidata":"Q846972","wikipedia":"ja:江ノ島駅"}},{"type":"node","id":263260771,"lat":35.3083598,"lon":139.493193,"tags":{"light_rail":"yes","name":"腰越","name:en":"Koshigoe","name:ja":"腰越","name:ja-Hira":"こしごえ","name:ja_rm":"Koshigoe","name:ko":"고시고에","name:zh":"腰越","operator":"江ノ島電鉄","public_transport":"stop_position","railway":"stop","ref":"EN-07","source":"KSJ2","wikidata":"Q858923","wikipedia":"ja:腰越駅"}},{"type":"node","id":263260790,"lat":35.3093646,"lon":139.5287947,"tags":{"KSJ2:LIN":"江ノ島電鉄線","light_rail":"yes","name":"極楽寺","name:en":"Gokurakuji","name:ja":"極楽寺","name:ja-Hira":"ごくらくじ","name:ja_rm":"Gokurakuji","name:ko":"고쿠라쿠지","name:zh":"極樂寺","note":"National-Land Numerical Information (Railway) 2007, MLIT Japan","note:ja":"国土数値情報（鉄道データ）平成19年 国土交通省","operator":"江ノ島電鉄","public_transport":"stop_position","railway":"stop","ref":"EN-11","source":"KSJ2","source_ref":"http://nlftp.mlit.go.jp/ksj/jpgis/datalist/KsjTmplt-N02-v1_1.html","wikidata":"Q858997","wikipedia":"ja:極楽寺駅"}},{"type":"node","id":263260793,"lat":35.3371845,"lon":139.4872276,"tags":{"KSJ2:LIN":"江ノ島電鉄線","light_rail":"yes","name":"藤沢","name:en":"Fujisawa","name:ja":"藤沢","name:ja-Hira":"ふじさわ","name:ja-Latn":"Fujisawa","name:ko":"후지사와","name:ru":"Фудзисава","name:zh":"藤澤","note":"National-Land Numerical Information (Railway) 2007, MLIT Japan","note:ja":"国土数値情報（鉄道データ）平成19年　国土交通省","operator":"江ノ島電鉄","public_transport":"stop_position","railway":"stop","ref":"EN-01","source":"KSJ2","source_ref":"http://nlftp.mlit.go.jp/ksj/jpgis/datalist/KsjTmplt-N02-v1_1.html","wikidata":"Q1133110","wikipedia":"ja:藤沢駅"}},{"type":"node","id":263260869,"lat":35.3324065,"lon":139.4855708,"tags":{"KSJ2:LIN":"江ノ島電鉄線","light_rail":"yes","name":"石上","name:en":"Ishigami","name:ja":"石上","name:ja-Hira":"いしがみ","name:ja_rm":"Ishigami","name:ko":"이시가미","name:zh":"石上","note":"National-Land Numerical Information (Railway) 2007, MLIT Japan","note:ja":"国土数値情報（鉄道データ）平成19年 国土交通省","operator":"江ノ島電鉄","public_transport":"stop_position","railway":"stop","ref":"EN-02","source":"KSJ2","source_ref":"http://nlftp.mlit.go.jp/ksj/jpgis/datalist/KsjTmplt-N02-v1_1.html","wheelchair":"yes","wikidata":"Q859782","wikipedia":"ja:石上駅"}},{"type":"node","id":263260870,"lat":35.3042536,"lon":139.5221846,"tags":{"KSJ2:LIN":"江ノ島電鉄線","light_rail":"yes","loc_ref":"1","local_ref":"1","name":"稲村ヶ崎","name:en":"Inamuragasaki","name:ja":"稲村ヶ崎","name:ja-Hira":"いなむらがさき","name:ja_rm":"Inamuragasaki","name:ko":"이나무라가사키","name:zh":"稻村崎","note":"National-Land Numerical Information (Railway) 2007, MLIT Japan","note:ja":"国土数値情報（鉄道データ）平成19年 国土交通省","operator":"江ノ島電鉄","public_transport":"stop_position","railway":"stop","ref":"EN-10","source":"KSJ2","source_ref":"http://nlftp.mlit.go.jp/ksj/jpgis/datalist/KsjTmplt-N02-v1_1.html","wikidata":"Q858991","wikipedia":"ja:稲村ヶ崎駅"}},{"type":"node","id":263260871,"lat":35.3112368,"lon":139.536049,"tags":{"image":"https://photos.app.goo.gl/Rmmjg6AoyxLTPrZw8","light_rail":"yes","loc_ref":"1","local_ref":"1","name":"長谷","name:en":"Hase","name:es":"Hase","name:ja":"長谷","name:ja-Hira":"はせ","name:ja_rm":"Hase","name:ko":"하세","name:zh":"長谷 (神奈川縣)","operator":"江ノ島電鉄","public_transport":"stop_position","railway":"stop","ref":"EN-12","source":"KSJ2","source_ref":"http://nlftp.mlit.go.jp/ksj/jpgis/datalist/KsjTmplt-N02-v1_1.html","url":"https://youtu.be/QOE-v_uPn7U","wikidata":"Q858830","wikipedia":"ja:長谷駅 (神奈川県)"}},{"type":"node","id":263260932,"lat":35.3137453,"lon":139.5454869,"tags":{"name":"和田塚","name:en":"Wadazuka","name:ja":"和田塚","name:ja-Hira":"わだづか","name:ja_rm":"Wadazuka","name:ko":"와다즈카","name:zh":"和田塚","operator":"江ノ島電鉄","public_transport":"stop_position","railway":"stop","ref":"EN-14","source":"KSJ2","source_ref":"http://nlftp.mlit.go.jp/ksj/jpgis/datalist/KsjTmplt-N02-v1_1.html","train":"yes","wikidata":"Q858969","wikipedia":"ja:和田塚駅"}},{"type":"node","id":263260958,"lat":35.3066899,"lon":139.5007137,"tags":{"alt_name:ko":"가마쿠라코코마에","light_rail":"yes","name":"鎌倉高校前","name:en":"Kamakurakokomae","name:ja":"鎌倉高校前","name:ja-Hira":"かまくらこうこうまえ","name:ja_rm":"Kamakura kōkō mae","name:ko":"가마쿠라고교앞","name:zh":"鎌倉高校前","operator":"江ノ島電鉄","public_transport":"stop_position","railway":"stop","ref":"EN-08","source":"KSJ2","wikidata":"Q859202","wikipedia":"ja:鎌倉高校前駅"}},{"type":"node","id":263260973,"lat":35.3275316,"lon":139.4852053,"tags":{"KSJ2:LIN":"江ノ島電鉄線","light_rail":"yes","name":"柳小路","name:en":"Yanagikoji","name:ja":"柳小路","name:ja-Hira":"やなぎこうじ","name:ja_rm":"Yanagikōji","name:ko":"야나기코지","name:zh":"柳小路","note":"National-Land Numerical Information (Railway) 2007, MLIT Japan","note:ja":"国土数値情報（鉄道データ）平成19年 国土交通省","operator":"江ノ島電鉄","public_transport":"stop_position","railway":"stop","ref":"EN-03","source":"KSJ2","source_ref":"http://nlftp.mlit.go.jp/ksj/jpgis/datalist/KsjTmplt-N02-v1_1.html","wikidata":"Q859740","wikipedia":"ja:柳小路駅"}},{"type":"node","id":263261015,"lat":35.3211261,"lon":139.4825627,"tags":{"light_rail":"yes","loc_ref":"2","local_ref":"2","name":"鵠沼","name:en":"Kugenuma","name:ja":"鵠沼","name:ja-Hira":"くげぬま","name:ja_rm":"Kugenuma","name:ko":"구게누마","name:zh":"鵠沼","operator":"江ノ島電鉄","public_transport":"stop_position","railway":"stop","ref":"EN-04","source":"KSJ2","wikidata":"Q858839","wikipedia":"ja:鵠沼駅"}},{"type":"node","id":263261069,"lat":35.315043,"lon":139.4834983,"tags":{"light_rail":"yes","name":"湘南海岸公園","name:en":"Shonankaigankoen","name:ja":"湘南海岸公園","name:ja-Hira":"しょうなんかいがんこうえん","name:ja_rm":"Shōnan kaigan kōen","name:ko":"쇼난해안공원","name:zh":"湘南海岸公園","operator":"江ノ島電鉄","public_transport":"stop_position","railway":"stop","ref":"EN-05","source":"KSJ2","wikidata":"Q858964","wikipedia":"ja:湘南海岸公園駅"}},{"type":"node","id":263261171,"lat":35.3182913,"lon":139.5501448,"tags":{"loc_ref":"3;4","local_ref":"3;4","name":"鎌倉","name:en":"Kamakura","name:es":"Kamakura Enoden","name:ja":"鎌倉","name:ja-Hira":"かまくら","name:ja_rm":"Kamakura","name:ko":"가마쿠라","name:zh":"镰仓","operator":"江ノ島電鉄","public_transport":"stop_position","railway":"stop","ref":"EN-15","source":"KSJ2","source_ref":"http://nlftp.mlit.go.jp/ksj/jpgis/datalist/KsjTmplt-N02-v1_1.html","train":"yes","wikidata":"Q932895","wikipedia":"ja:鎌倉駅"}},{"type":"node","id":355845231,"lat":35.4375838,"lon":139.6251269,"tags":{"name":"阪東橋","name:en":"Bandobashi","name:ja":"阪東橋","name:ja-Hira":"ばんどうばし","name:ja_rm":"Bandōbashi","name:ko":"반도바시","network":"横浜市営地下鉄","operator":"横浜市交通局","public_transport":"stop_position","railway":"stop","ref":"B15","source":"KSJ2","source_ref":"http://nlftp.mlit.go.jp/ksj/jpgis/datalist/KsjTmplt-N02-v1_1.html","subway":"yes","wikidata":"Q852854","wikipedia":"ja:阪東橋駅"}},{"type":"node","id":355845235,"lat":35.435398,"lon":139.6186866,"tags":{"name":"吉野町","name:en":"Yoshinocho","name:ja":"吉野町","name:ja-Hira":"よしのちょう","name:ja_rm":"Yoshinochō","name:ko":"요시노초","network":"横浜市営地下鉄","operator":"横浜市交通局","public_transport":"stop_position","railway":"stop","ref":"B14","source":"KSJ2","source_ref":"http://nlftp.mlit.go.jp/ksj/jpgis/datalist/KsjTmplt-N02-v1_1.html","subway":"yes","wikidata":"Q579077","wikipedia":"ja:吉野町駅"}},{"type":"node","id":355845257,"lat":35.4453811,"lon":139.6367414,"tags":{"alt_name":"リスト本社前","name":"関内","name:en":"Kannai","name:es":"Kannai","name:ja":"関内","name:ja-Hira":"かんない","name:ja_rm":"Kan-nai","name:ko":"간나이","network":"横浜市営地下鉄","operator":"横浜市交通局","public_transport":"stop_position","railway":"stop","ref":"B17","source":"KSJ2","source_ref":"http://nlftp.mlit.go.jp/ksj/jpgis/datalist/KsjTmplt-N02-v1_1.html","subway":"yes","wikidata":"Q800982","wikipedia":"ja:関内駅"}},{"type":"node","id":355845288,"lat":35.4298826,"lon":139.6099814,"tags":{"name":"蒔田","name:en":"Maita","name:ja":"蒔田","name:ja-Hira":"まいた","name:ja_rm":"Maita","name:ko":"마이타","network":"横浜市営地下鉄","operator":"横浜市交通局","public_transport":"stop_position","railway":"stop","ref":"B13","source":"KSJ2","source_ref":"http://nlftp.mlit.go.jp/ksj/jpgis/datalist/KsjTmplt-N02-v1_1.html","subway":"yes","wikidata":"Q579091","wikipedia":"ja:蒔田駅"}},{"type":"node","id":355845350,"lat":35.4011711,"lon":139.5910054,"tags":{"name":"港南中央","name:en":"Konan-chuo","name:es":"Konan-chuo","name:ja":"港南中央","name:ja-Hira":"こうなんちゅうおう","operator":"横浜市交通局","public_transport":"stop_position","railway":"stop","source":"KSJ2","source_ref":"http://nlftp.mlit.go.jp/ksj/jpgis/datalist/KsjTmplt-N02-v1_1.html","station":"subway","subway":"yes","wikidata":"Q573434","wikipedia":"ja:港南中央駅"}},{"type":"node","id":355845377,"lat":35.4409636,"lon":139.6327731,"tags":{"name":"伊勢佐木長者町","name:en":"Isezaki-chojamachi","name:ja":"伊勢佐木長者町","name:ja-Hira":"いせざきちょうじゃまち","name:ja_rm":"Isezaki Chōjamachi","name:ko":"이세자키초자마치","network":"横浜市営地下鉄","operator":"横浜市交通局","public_transport":"stop_position","railway":"stop","ref":"B16","source":"KSJ2","source_ref":"http://nlftp.mlit.go.jp/ksj/jpgis/datalist/KsjTmplt-N02-v1_1.html","subway":"yes","wikidata":"Q841434","wikipedia":"ja:伊勢佐木長者町駅"}},{"type":"node","id":355845395,"lat":35.4090257,"lon":139.5959403,"tags":{"name":"上大岡","name:en":"Kamiooka","name:ja":"上大岡","name:ja-Hira":"かみおおおか","name:ja_rm":"Kamiōoka","public_transport":"stop_position","railway":"stop","subway":"yes"}},{"type":"node","id":355845398,"lat":35.4232579,"lon":139.602077,"tags":{"name":"弘明寺","name:en":"Gumyoji","name:es":"Gumyoji","name:ja":"弘明寺","name:ja-Hira":"ぐみょうじ","name:ja_rm":"Gumyōji","name:ko":"구묘지","network":"横浜市営地下鉄","public_transport":"stop_position","railway":"stop","ref":"B12","source":"KSJ2","source_ref":"http://nlftp.mlit.go.jp/ksj/jpgis/datalist/KsjTmplt-N02-v1_1.html","subway":"yes","wikidata":"Q580349","wikipedia":"ja:弘明寺駅 (横浜市営地下鉄)"}},{"type":"node","id":355845432,"lat":35.4057228,"lon":139.5185437,"tags":{"name":"踊場","name:en":"Odoriba","name:ja":"踊場","name:ja_rm":"Odoriba","operator":"横浜市交通局","public_transport":"stop_position","source":"KSJ2","source_ref":"http://nlftp.mlit.go.jp/ksj/jpgis/datalist/KsjTmplt-N02-v1_1.html","subway":"yes"}},{"type":"node","id":355845438,"lat":35.396458,"lon":139.467043,"tags":{"name":"湘南台","name:de":"Shonandai","name:en":"Shonandai","name:ja":"湘南台","name:ja-Hira":"しょうなんだい","name:ja_rm":"Shōnandai","name:ko":"쇼난다이 역","name:ru":"Сёнандай","name:zh":"湘南台站","public_transport":"stop_position","railway":"stop","subway":"yes","train":"no","wheelchair":"limited"}},{"type":"node","id":355845461,"lat":35.4143654,"lon":139.5003365,"tags":{"KSJ2:LIN":"1号線","KSJ2:STN":"立場","name":"立場","name:en":"Tateba","name:ja":"立場","name:ja-Hira":"たてば","name:ja_rm":"Tateba","name:ko":"다테바","operator":"横浜市交通局","public_transport":"stop_position","railway":"stop","source":"KSJ2","source_ref":"http://nlftp.mlit.go.jp/ksj/jpgis/datalist/KsjTmplt-N02-v1_1.html","station":"subway","subway":"yes","wikidata":"Q573441","wikipedia":"ja:立場駅"}},{"type":"node","id":355845510,"lat":35.403512,"lon":139.483257,"tags":{"KSJ2:LIN":"1号線","KSJ2:STN":"下飯田","name":"下飯田","name:en":"Shimoiida","name:ja":"下飯田","name:ja-Hira":"しもいいだ","name:ja_rm":"Shimo Iida","name:ko":"시모이다","operator":"横浜市交通局","public_transport":"stop_position","railway":"stop","source":"KSJ2","source_ref":"http://nlftp.mlit.go.jp/ksj/jpgis/datalist/KsjTmplt-N02-v1_1.html","station":"subway","subway":"yes"}},{"type":"node","id":355845546,"lat":35.4025832,"lon":139.5512842,"tags":{"name":"舞岡","name:en":"Maioka","name:es":"Maioka","name:ja":"舞岡","name:ja-Hira":"まいおか","operator":"横浜市交通局","public_transport":"stop_position","railway":"stop","source":"KSJ2","source_ref":"http://nlftp.mlit.go.jp/ksj/jpgis/datalist/KsjTmplt-N02-v1_1.html","subway":"yes"}},{"type":"node","id":355845555,"lat":35.4026148,"lon":139.5592276,"tags":{"name":"下永谷","name:en":"Shimonagaya","name:es":"Shimonagaya","name:ja":"下永谷","name:ja-Hira":"しもながや","operator":"横浜市交通局","public_transport":"stop_position","railway":"stop","source":"KSJ2","source_ref":"http://nlftp.mlit.go.jp/ksj/jpgis/datalist/KsjTmplt-N02-v1_1.html","subway":"yes"}},{"type":"node","id":355845556,"lat":35.4112554,"lon":139.511248,"tags":{"name":"中田","name:en":"Nakada","name:ja":"中田","name:ja-Hira":"なかだ","name:ja_rm":"Nakada","name:ko":"나카다","operator":"横浜市交通局","public_transport":"stop_position","railway":"stop","source":"KSJ2","source_ref":"http://nlftp.mlit.go.jp/ksj/jpgis/datalist/KsjTmplt-N02-v1_1.html","subway":"yes","wikidata":"Q573641","wikipedia":"ja:中田駅 (神奈川県)"}},{"type":"node","id":355845558,"lat":35.4011604,"lon":139.5349692,"tags":{"name":"戸塚","name:en":"Totsuka","name:es":"Totsuka","name:ja":"戸塚","name:ja-Hira":"とつか","name:ja_rm":"Totsuka","name:ko":"도쓰카","operator":"横浜市交通局","public_transport":"stop_position","railway":"stop","ref":"B06","source":"KSJ2","source_ref":"http://nlftp.mlit.go.jp/ksj/jpgis/datalist/KsjTmplt-N02-v1_1.html","subway":"yes","wikidata":"Q801522","wikipedia":"ja:戸塚駅"}},{"type":"node","id":355847358,"lat":35.5629483,"lon":139.5699281,"tags":{"alt_name":"東京都市大 横浜キャンパス前","name":"中川","name:en":"Nakagawa","name:ja":"中川","name:ja-Hira":"なかがわ","name:ko":"나카가와","network":"横浜市営地下鉄","operator":"横浜市交通局","platforms":"2","public_transport":"stop_position","railway":"stop","ref":"B31","source":"KSJ2","source_ref":"http://nlftp.mlit.go.jp/ksj/jpgis/datalist/KsjTmplt-N02-v1_1.html","subway":"yes","wikidata":"Q573443","wikipedia":"ja:中川駅 (神奈川県)"}},{"type":"node","id":355847363,"lat":35.5353413,"lon":139.5895284,"tags":{"name":"仲町台","name:en":"Nakamachidai","name:ja":"仲町台","name:ja-Hira":"なかまちだい","name:ja_rm":"Nakamachidai","name:ko":"나카마치다이","network":"横浜市営地下鉄","operator":"横浜市交通局","public_transport":"stop_position","railway":"stop","ref":"B28","source":"KSJ2","station":"subway","subway":"yes"}},{"type":"node","id":355847366,"lat":35.5454211,"lon":139.5742039,"tags":{"name":"センター南","name:en":"Center Minami","name:es":"Center Minami","name:ja":"センター南","name:ja-Hira":"せんたーみなみ","name:ja_rm":"Sentā minami","name:ko":"센터미나미","network":"横浜市営地下鉄","operator":"横浜市交通局","public_transport":"stop_position","railway":"stop","ref":"B29","source":"KSJ2","subway":"yes","wheelchair":"yes","wikidata":"Q844629","wikipedia":"ja:センター南駅"}},{"type":"node","id":355847368,"lat":35.5680366,"lon":139.5535417,"tags":{"name":"あざみ野","name:en":"Azamino","name:ja":"あざみ野","name:ja-Hira":"あざみの","name:ja-Latn":"Azamino","name:ko":"아자미노","network":"横浜市営地下鉄","network:wikidata":"Q1341305","operator":"横浜市交通局","operator:type":"public","operator:wikidata":"Q8015416","public_transport":"stop_position","railway":"stop","ref":"B32","source":"KSJ2","source_ref":"http://nlftp.mlit.go.jp/ksj/jpgis/datalist/KsjTmplt-N02-v1_1.html","subway":"yes","toilets:wheelchair":"yes","wheelchair":"yes","wikidata":"Q852232","wikipedia":"ja:あざみ野駅"}},{"type":"node","id":355847686,"lat":35.4765327,"lon":139.6161354,"tags":{"name":"三ツ沢下町","name:en":"Mitsuzawa-shimocho","name:ja":"三ツ沢下町","name:ja-Hira":"みつざわしもちょう","name:ja_rm":"Mitsuzawa shimochō","name:ko":"미쓰자와시모초","network":"横浜市営地下鉄","operator":"横浜市交通局","public_transport":"stop_position","railway":"stop","ref":"B21","source":"KSJ2","source_ref":"http://nlftp.mlit.go.jp/ksj/jpgis/datalist/KsjTmplt-N02-v1_1.html","subway":"yes","wikidata":"Q589920","wikipedia":"ja:三ツ沢下町駅"}},{"type":"node","id":355847857,"lat":35.4764393,"lon":139.6056807,"tags":{"name":"三ツ沢上町","name:en":"Mitsuzawa-kamicho","name:ja":"三ツ沢上町","name:ja-Hira":"みつざわかみちょう","name:ja_rm":"Mitsuzawa kamichō","name:ko":"미쓰자와카미초","network":"横浜市営地下鉄","operator":"横浜市交通局","public_transport":"stop_position","railway":"stop","ref":"B22","source":"KSJ2","source_ref":"http://nlftp.mlit.go.jp/ksj/jpgis/datalist/KsjTmplt-N02-v1_1.html","subway":"yes","wheelchair":"yes","wikidata":"Q903553","wikipedia":"ja:三ツ沢上町駅"}},{"type":"node","id":355847876,"lat":35.5192768,"lon":139.6127537,"tags":{"name":"北新横浜","name:en":"Kita-shin-yokohama","name:ja":"北新横浜","name:ja-Hira":"きたしんよこはま","name:ja_rm":"Kita Shin Yokohama","name:ko":"기타신요코하마","network":"横浜市営地下鉄","operator":"横浜市交通局","public_transport":"stop_position","railway":"stop","ref":"B26","source":"KSJ2","subway":"yes","wikidata":"Q852295","wikipedia":"ja:北新横浜駅"}},{"type":"node","id":355847879,"lat":35.4584811,"lon":139.623871,"tags":{"name":"高島町","name:en":"Takashimacho","name:ja":"高島町","name:ja-Hira":"たかしまちょう","name:ja_rm":"Takashimachō","name:ko":"다카시마초","network":"横浜市営地下鉄","operator":"横浜市交通局","public_transport":"stop_position","railway":"stop","source":"KSJ2","source_ref":"http://nlftp.mlit.go.jp/ksj/jpgis/datalist/KsjTmplt-N02-v1_1.html","subway":"yes","wikidata":"Q850673","wikipedia":"ja:高島町駅"}},{"type":"node","id":355847916,"lat":35.4960983,"lon":139.6168375,"tags":{"alt_name:ko":"기시네코엔","layer":"-1","name":"岸根公園","name:en":"Kishine-koen","name:ja":"岸根公園","name:ja-Hira":"きしねこうえん","name:ja_rm":"Kishine kōen","name:ko":"기시네공원","operator":"横浜市交通局","public_transport":"stop_position","railway":"stop","ref":"B24","source":"KSJ2","subway":"yes","wikidata":"Q589898","wikipedia":"ja:岸根公園駅"}},{"type":"node","id":355847917,"lat":35.4900874,"lon":139.6065331,"tags":{"name":"片倉町","name:en":"Katakuracho","name:ja":"片倉町","name:ja-Hira":"かたくらちょう","name:ja_rm":"Katakurachō","name:ko":"가타쿠라초","operator":"横浜市交通局","public_transport":"stop_position","railway":"stop","ref":"B23","source":"KSJ2","subway":"yes","wikidata":"Q589860","wikipedia":"ja:片倉町駅"}},{"type":"node","id":355847919,"lat":35.508929,"lon":139.6173515,"tags":{"alt_name":"ビックカメラ 新横浜店前","local_ref":"1","name":"新横浜","name:en":"Shin-yokohama","name:ja":"新横浜","name:ja-Hira":"しんよこはま","name:ja_rm":"Shin Yokohama","name:ko":"신요코하마","network":"横浜市営地下鉄","operator":"横浜市交通局","public_transport":"stop_position","railway":"stop","ref":"B25","source":"KSJ2","subway":"yes","wikidata":"Q801437","wikipedia":"ja:新横浜駅"}},{"type":"node","id":355847933,"lat":35.465419,"lon":139.6201866,"tags":{"alt_name":"相鉄ジョイナス前","name":"横浜","name:en":"Yokohama","name:ja":"横浜","name:ja-Hira":"よこはま","name:ja_rm":"Yokohama","name:ko":"요코하마","operator":"横浜市交通局","public_transport":"stop_position","railway":"stop","ref":"B20","source":"KSJ2","source_ref":"http://nlftp.mlit.go.jp/ksj/jpgis/datalist/KsjTmplt-N02-v1_1.html","subway":"yes","wikidata":"Q801658","wikipedia":"ja:横浜駅"}},{"type":"node","id":355848012,"lat":35.4496666,"lon":139.6308191,"tags":{"alt_name":"県民共済プラザ前","name":"桜木町","name:en":"Sakuragicho","name:es":"Sakuragicho","name:ja":"桜木町","name:ja-Hira":"さくらぎちょう","name:ja_rm":"Sakuragicho","name:ko":"사쿠라기초","network":"横浜市営地下鉄","operator":"横浜市交通局","public_transport":"stop_position","railway":"stop","ref":"B18","source":"KSJ2","source_ref":"http://nlftp.mlit.go.jp/ksj/jpgis/datalist/KsjTmplt-N02-v1_1.html","subway":"yes","wikidata":"Q801396","wikipedia":"ja:桜木町駅"}},{"type":"node","id":1735498592,"lat":35.4014738,"lon":139.5724681,"tags":{"name":"上永谷","name:en":"Kaminagaya","name:es":"Kaminagaya","name:ja":"上永谷","name:ja-Hira":"かみながや","name:ko":"가미나가야","operator":"横浜市交通局","public_transport":"stop_position","railway":"stop","ref":"B09","source":"KSJ2","source_ref":"http://nlftp.mlit.go.jp/ksj/jpgis/datalist/KsjTmplt-N02-v1_1.html","subway":"yes","wheelchair":"yes","wikidata":"Q841420","wikipedia":"ja:上永谷駅"}},{"type":"node","id":1735498598,"lat":35.4015626,"lon":139.5725649,"tags":{"name":"上永谷","name:en":"Kaminagaya","name:es":"Kaminagaya","name:ja":"上永谷","name:ko":"가미나가야","operator":"横浜市交通局","public_transport":"stop_position","railway":"stop","ref":"B09","source":"KSJ2","source_ref":"http://nlftp.mlit.go.jp/ksj/jpgis/datalist/KsjTmplt-N02-v1_1.html","subway":"yes","wheelchair":"yes","wikidata":"Q841420","wikipedia":"ja:上永谷駅"}},{"type":"node","id":2482041938,"lat":35.3182868,"lon":139.5500445,"tags":{"loc_ref":"5","local_ref":"5","name":"鎌倉","name:en":"Kamakura","name:es":"Kamakura Enoden","name:ja":"鎌倉","name:ja-Hira":"かまくら","name:ja_rm":"Kamakura","name:ko":"가마쿠라","name:zh":"镰仓","operator":"江ノ島電鉄","public_transport":"stop_position","railway":"stop","ref":"EN-15","source":"KSJ2","source_ref":"http://nlftp.mlit.go.jp/ksj/jpgis/datalist/KsjTmplt-N02-v1_1.html","train":"yes","wikidata":"Q932895","wikipedia":"ja:鎌倉駅"}},{"type":"node","id":2950248490,"lat":35.5274856,"lon":139.611909,"tags":{"name":"新羽","name:en":"Nippa","name:ja":"新羽","name:ja-Hira":"にっぱ","name:ja_rm":"Nippa","name:ko":"닛파","network":"横浜市営地下鉄","operator":"横浜市交通局","public_transport":"stop_position","railway":"stop","ref":"B27","source":"KSJ2","subway":"yes","wheelchair":"yes","wikidata":"Q841479","wikipedia":"ja:新羽駅"}},{"type":"node","id":5248333665,"lat":35.5353197,"lon":139.5895201,"tags":{"name":"仲町台","name:en":"Nakamachidai","name:ja":"仲町台","name:ja-Hira":"なかまちだい","name:ja_rm":"Nakamachidai","name:ko":"나카마치다이","network":"横浜市営地下鉄","operator":"横浜市交通局","public_transport":"stop_position","railway":"stop","ref":"B28","source":"KSJ2","station":"subway","subway":"yes"}},{"type":"node","id":5453206749,"lat":35.4010353,"lon":139.53501,"tags":{"name":"戸塚","name:en":"Totsuka","name:es":"Totsuka","name:ja":"戸塚","name:ja-Hira":"とつか","name:ja_rm":"Totsuka","name:ko":"도쓰카","operator":"横浜市交通局","public_transport":"stop_position","railway":"stop","ref":"B06","source":"KSJ2","source_ref":"http://nlftp.mlit.go.jp/ksj/jpgis/datalist/KsjTmplt-N02-v1_1.html","subway":"yes","wikidata":"Q801522","wikipedia":"ja:戸塚駅"}},{"type":"node","id":5453206775,"lat":35.4025442,"lon":139.5512998,"tags":{"name":"舞岡","name:en":"Maioka","name:es":"Maioka","name:ja":"舞岡","name:ja-Hira":"まいおか","operator":"横浜市交通局","public_transport":"stop_position","railway":"stop","source":"KSJ2","source_ref":"http://nlftp.mlit.go.jp/ksj/jpgis/datalist/KsjTmplt-N02-v1_1.html","subway":"yes"}},{"type":"node","id":5453206786,"lat":35.4025836,"lon":139.5592027,"tags":{"name":"下永谷","name:en":"Shimonagaya","name:es":"Shimonagaya","name:ja":"下永谷","name:ja-Hira":"しもながや","operator":"横浜市交通局","public_transport":"stop_position","railway":"stop","source":"KSJ2","source_ref":"http://nlftp.mlit.go.jp/ksj/jpgis/datalist/KsjTmplt-N02-v1_1.html","subway":"yes"}},{"type":"node","id":5453206813,"lat":35.4011313,"lon":139.5910335,"tags":{"name":"港南中央","name:en":"Konan-chuo","name:es":"Konan-chuo","name:ja-Hira":"こうなんちゅうおう","public_transport":"stop_position","railway":"stop","subway":"yes"}},{"type":"node","id":5453206815,"lat":35.4090238,"lon":139.5959911,"tags":{"name":"上大岡駅","name:ja-Hira":"かみおおおか","operator":"横浜市交通局","public_transport":"stop_position","railway":"stop","subway":"yes"}},{"type":"node","id":5591788443,"lat":35.405648,"lon":139.5184774,"tags":{"name":"踊場","name:en":"Odoriba","name:ja":"踊場","name:ja-Hira":"おどりば","name:ja_rm":"Odoriba","operator":"横浜市交通局","public_transport":"stop_position","railway":"stop","source":"KSJ2","source_ref":"http://nlftp.mlit.go.jp/ksj/jpgis/datalist/KsjTmplt-N02-v1_1.html","subway":"yes"}},{"type":"node","id":7601120733,"lat":35.4142601,"lon":139.5003658,"tags":{"KSJ2:LIN":"1号線","KSJ2:STN":"立場","name":"立場","name:en":"Tateba","name:ja":"立場","name:ja-Hira":"たてば","name:ja_rm":"Tateba","name:ko":"다테바","operator":"横浜市交通局","public_transport":"stop_position","railway":"stop","source":"KSJ2","source_ref":"http://nlftp.mlit.go.jp/ksj/jpgis/datalist/KsjTmplt-N02-v1_1.html","station":"subway","subway":"yes","wikidata":"Q573441","wikipedia":"ja:立場駅"}},{"type":"node","id":7601124724,"lat":35.403448,"lon":139.4832803,"tags":{"KSJ2:LIN":"1号線","KSJ2:STN":"下飯田","name":"下飯田","name:en":"Shimoiida","name:ja":"下飯田","name:ja-Hira":"しもいいだ","name:ja_rm":"Shimo Iida","name:ko":"시모이다","operator":"横浜市交通局","public_transport":"stop_position","railway":"stop","source":"KSJ2","source_ref":"http://nlftp.mlit.go.jp/ksj/jpgis/datalist/KsjTmplt-N02-v1_1.html","station":"subway","subway":"yes"}},{"type":"node","id":7749857149,"lat":35.4111598,"lon":139.5112091,"tags":{"name":"中田","name:en":"Nakada","name:ja":"中田","name:ja-Hira":"なかだ","name:ja_rm":"Nakada","name:ko":"나카다","operator":"横浜市交通局","public_transport":"stop_position","railway":"stop","source":"KSJ2","source_ref":"http://nlftp.mlit.go.jp/ksj/jpgis/datalist/KsjTmplt-N02-v1_1.html","subway":"yes","wikidata":"Q573641","wikipedia":"ja:中田駅 (神奈川県)"}},{"type":"node","id":7749857150,"lat":35.3964229,"lon":139.4670523,"tags":{"name":"湘南台","name:de":"Shonandai","name:en":"Shonandai","name:ja":"湘南台","name:ja-Hira":"しょうなんだい","name:ja_rm":"Shōnandai","name:ko":"쇼난다이 역","name:ru":"Сёнандай","name:zh":"湘南台站","public_transport":"stop_position","railway":"stop","subway":"yes","train":"no","wheelchair":"limited"}},{"type":"node","id":7749865376,"lat":35.5680751,"lon":139.5535482,"tags":{"name":"あざみ野","name:en":"Azamino","name:ja":"あざみ野","name:ja-Hira":"あざみの","name:ja-Latn":"Azamino","name:ko":"아자미노","network":"横浜市営地下鉄","network:wikidata":"Q1341305","operator":"横浜市交通局","operator:type":"public","operator:wikidata":"Q8015416","public_transport":"stop_position","railway":"stop","ref":"B32","source":"KSJ2","source_ref":"http://nlftp.mlit.go.jp/ksj/jpgis/datalist/KsjTmplt-N02-v1_1.html","subway":"yes","toilets:wheelchair":"yes","wheelchair":"yes","wikidata":"Q852232","wikipedia":"ja:あざみ野駅"}},{"type":"node","id":7749869513,"lat":35.5628975,"lon":139.5699158,"tags":{"alt_name":"東京都市大 横浜キャンパス前","name":"中川","name:en":"Nakagawa","name:ja":"中川","name:ja-Hira":"なかがわ","name:ko":"나카가와","network":"横浜市営地下鉄","operator":"横浜市交通局","platforms":"2","public_transport":"stop_position","railway":"stop","ref":"B31","source":"KSJ2","source_ref":"http://nlftp.mlit.go.jp/ksj/jpgis/datalist/KsjTmplt-N02-v1_1.html","subway":"yes","wikidata":"Q573443","wikipedia":"ja:中川駅 (神奈川県)"}},{"type":"node","id":7750138438,"lat":35.4496249,"lon":139.6307358,"tags":{"alt_name":"県民共済プラザ前","name":"桜木町","name:en":"Sakuragicho","name:es":"Sakuragicho","name:ja":"桜木町","name:ja-Hira":"さくらぎちょう","name:ja_rm":"Sakuragicho","name:ko":"사쿠라기초","network":"横浜市営地下鉄","operator":"横浜市交通局","public_transport":"stop_position","railway":"stop","ref":"B18","source":"KSJ2","source_ref":"http://nlftp.mlit.go.jp/ksj/jpgis/datalist/KsjTmplt-N02-v1_1.html","subway":"yes","wikidata":"Q801396","wikipedia":"ja:桜木町駅"}},{"type":"node","id":7750146669,"lat":35.4584539,"lon":139.6238203,"tags":{"name":"高島町","name:en":"Takashimacho","name:ja":"高島町","name:ja-Hira":"たかしまちょう","name:ja_rm":"Takashimachō","name:ko":"다카시마초","network":"横浜市営地下鉄","operator":"横浜市交通局","public_transport":"stop_position","railway":"stop","ref":"B19","source":"KSJ2","source_ref":"http://nlftp.mlit.go.jp/ksj/jpgis/datalist/KsjTmplt-N02-v1_1.html","subway":"yes","wikidata":"Q850673","wikipedia":"ja:高島町駅"}},{"type":"node","id":7750149281,"lat":35.4376269,"lon":139.6250971,"tags":{"name":"阪東橋","name:en":"Bandobashi","name:ja":"阪東橋","name:ja-Hira":"ばんどうばし","name:ja_rm":"Bandōbashi","name:ko":"반도바시","network":"横浜市営地下鉄","operator":"横浜市交通局","public_transport":"stop_position","railway":"stop","ref":"B15","source":"KSJ2","source_ref":"http://nlftp.mlit.go.jp/ksj/jpgis/datalist/KsjTmplt-N02-v1_1.html","subway":"yes","wikidata":"Q852854","wikipedia":"ja:阪東橋駅"}},{"type":"node","id":7750176551,"lat":35.4354451,"lon":139.6186677,"tags":{"name":"吉野町","name:en":"Yoshinocho","name:ja":"吉野町","name:ja-Hira":"よしのちょう","name:ja_rm":"Yoshinochō","name:ko":"요시노초","network":"横浜市営地下鉄","operator":"横浜市交通局","public_transport":"stop_position","railway":"stop","ref":"B14","source":"KSJ2","source_ref":"http://nlftp.mlit.go.jp/ksj/jpgis/datalist/KsjTmplt-N02-v1_1.html","subway":"yes","wikidata":"Q579077","wikipedia":"ja:吉野町駅"}},{"type":"node","id":7750178930,"lat":35.4410058,"lon":139.6327433,"tags":{"name":"伊勢佐木長者町","name:en":"Isezaki-chojamachi","name:ja":"伊勢佐木長者町","name:ja-Hira":"いせざきちょうじゃまち","name:ja_rm":"Isezaki Chōjamachi","name:ko":"이세자키초자마치","network":"横浜市営地下鉄","operator":"横浜市交通局","public_transport":"stop_position","railway":"stop","ref":"B16","source":"KSJ2","source_ref":"http://nlftp.mlit.go.jp/ksj/jpgis/datalist/KsjTmplt-N02-v1_1.html","subway":"yes","wikidata":"Q841434","wikipedia":"ja:伊勢佐木長者町駅"}},{"type":"node","id":7750187058,"lat":35.5275119,"lon":139.6121053,"tags":{"name":"新羽","name:en":"Nippa","name:ja":"新羽","name:ja-Hira":"にっぱ","name:ja_rm":"Nippa","name:ko":"닛파","network":"横浜市営地下鉄","operator":"横浜市交通局","public_transport":"stop_position","railway":"stop","ref":"B27","source":"KSJ2","subway":"yes","wheelchair":"yes","wikidata":"Q841479","wikipedia":"ja:新羽駅"}},{"type":"node","id":7750187060,"lat":35.5453882,"lon":139.5743385,"tags":{"name":"センター南","name:en":"Center Minami","name:es":"Center Minami","name:ja":"センター南","name:ja-Hira":"せんたーみなみ","name:ja_rm":"Sentā minami","name:ko":"센터미나미","network":"横浜市営地下鉄","operator":"横浜市交通局","public_transport":"stop_position","railway":"stop","ref":"B29","source":"KSJ2","subway":"yes","wheelchair":"yes","wikidata":"Q844629","wikipedia":"ja:センター南駅"}},{"type":"node","id":7750187062,"lat":35.5534147,"lon":139.5782317,"tags":{"alt_name":"モザイクモール港北前","name":"センター北","name:en":"Center Kita","name:ja":"センター北","name:ja-Hira":"せんたーきた","name:ja_rm":"Sentā kita","name:ko":"센터기타","network":"横浜市営地下鉄","operator":"横浜市交通局","public_transport":"stop_position","railway":"stop","ref":"B30","subway":"yes","wheelchair":"yes","wikidata":"Q847363","wikipedia":"ja:センター北駅"}},{"type":"node","id":7750192818,"lat":35.4299202,"lon":139.6099419,"tags":{"name":"蒔田","name:en":"Maita","name:ja":"蒔田","name:ja-Hira":"まいた","name:ja_rm":"Maita","name:ko":"마이타","network":"横浜市営地下鉄","operator":"横浜市交通局","public_transport":"stop_position","railway":"stop","ref":"B13","source":"KSJ2","source_ref":"http://nlftp.mlit.go.jp/ksj/jpgis/datalist/KsjTmplt-N02-v1_1.html","subway":"yes","wikidata":"Q579091","wikipedia":"ja:蒔田駅"}},{"type":"node","id":7750195495,"lat":35.4961103,"lon":139.6167786,"tags":{"alt_name:ko":"기시네코엔","layer":"-1","name":"岸根公園","name:en":"Kishine-koen","name:ja":"岸根公園","name:ja-Hira":"きしねこうえん","name:ja_rm":"Kishine kōen","name:ko":"기시네공원","operator":"横浜市交通局","public_transport":"stop_position","railway":"stop","ref":"B24","source":"KSJ2","subway":"yes","wikidata":"Q589898","wikipedia":"ja:岸根公園駅"}},{"type":"node","id":7750198691,"lat":35.4763899,"lon":139.6056813,"tags":{"name":"三ツ沢上町","name:en":"Mitsuzawa-kamicho","name:ja":"三ツ沢上町","name:ja-Hira":"みつざわかみちょう","name:ja_rm":"Mitsuzawa kamichō","name:ko":"미쓰자와카미초","network":"横浜市営地下鉄","operator":"横浜市交通局","public_transport":"stop_position","railway":"stop","ref":"B22","source":"KSJ2","source_ref":"http://nlftp.mlit.go.jp/ksj/jpgis/datalist/KsjTmplt-N02-v1_1.html","subway":"yes","wheelchair":"yes","wikidata":"Q903553","wikipedia":"ja:三ツ沢上町駅"}},{"type":"node","id":7750200257,"lat":35.4232821,"lon":139.602024,"tags":{"name":"弘明寺","name:en":"Gumyoji","name:es":"Gumyoji","name:ja":"弘明寺","name:ja-Hira":"ぐみょうじ","name:ja_rm":"Gumyōji","name:ko":"구묘지","network":"横浜市営地下鉄","public_transport":"stop_position","railway":"stop","ref":"B12","source":"KSJ2","source_ref":"http://nlftp.mlit.go.jp/ksj/jpgis/datalist/KsjTmplt-N02-v1_1.html","subway":"yes","wikidata":"Q580349","wikipedia":"ja:弘明寺駅 (横浜市営地下鉄)"}},{"type":"node","id":7750202216,"lat":35.4654023,"lon":139.6201294,"tags":{"alt_name":"相鉄ジョイナス前","name":"横浜","name:en":"Yokohama","name:ja":"横浜","name:ja-Hira":"よこはま","name:ja_rm":"Yokohama","name:ko":"요코하마","operator":"横浜市交通局","public_transport":"stop_position","railway":"stop","ref":"B20","source":"KSJ2","source_ref":"http://nlftp.mlit.go.jp/ksj/jpgis/datalist/KsjTmplt-N02-v1_1.html","subway":"yes","wikidata":"Q801658","wikipedia":"ja:横浜駅"}},{"type":"node","id":7750203087,"lat":35.4764832,"lon":139.616137,"tags":{"name":"三ツ沢下町","name:en":"Mitsuzawa-shimocho","name:ja":"三ツ沢下町","name:ja-Hira":"みつざわしもちょう","name:ja_rm":"Mitsuzawa shimochō","name:ko":"미쓰자와시모초","network":"横浜市営地下鉄","operator":"横浜市交通局","public_transport":"stop_position","railway":"stop","ref":"B21","source":"KSJ2","source_ref":"http://nlftp.mlit.go.jp/ksj/jpgis/datalist/KsjTmplt-N02-v1_1.html","subway":"yes","wikidata":"Q589920","wikipedia":"ja:三ツ沢下町駅"}},{"type":"node","id":7750203589,"lat":35.4452839,"lon":139.636664,"tags":{"alt_name":"リスト本社前","name":"関内","name:en":"Kannai","name:es":"Kannai","name:ja":"関内","name:ja-Hira":"かんない","name:ja_rm":"Kan-nai","name:ko":"간나이","network":"横浜市営地下鉄","operator":"横浜市交通局","public_transport":"stop_position","railway":"stop","ref":"B17","source":"KSJ2","source_ref":"http://nlftp.mlit.go.jp/ksj/jpgis/datalist/KsjTmplt-N02-v1_1.html","subway":"yes","wikidata":"Q800982","wikipedia":"ja:関内駅"}},{"type":"node","id":7750204087,"lat":35.5088608,"lon":139.6172643,"tags":{"alt_name":"ビックカメラ 新横浜店前","local_ref":"2","name":"新横浜","name:en":"Shin-yokohama","name:ja":"新横浜","name:ja-Hira":"しんよこはま","name:ja_rm":"Shin Yokohama","name:ko":"신요코하마","network":"横浜市営地下鉄","operator":"横浜市交通局","public_transport":"stop_position","railway":"stop","ref":"B25","source":"KSJ2","subway":"yes","wikidata":"Q801437","wikipedia":"ja:新横浜駅"}},{"type":"node","id":7750204088,"lat":35.4901142,"lon":139.606482,"tags":{"name":"片倉町","name:en":"Katakuracho","name:ja":"片倉町","name:ja-Hira":"かたくらちょう","name:ja_rm":"Katakurachō","name:ko":"가타쿠라초","operator":"横浜市交通局","public_transport":"stop_position","railway":"stop","ref":"B23","source":"KSJ2","subway":"yes","wikidata":"Q589860","wikipedia":"ja:片倉町駅"}},{"type":"node","id":7750218992,"lat":35.5533847,"lon":139.5783316,"tags":{"alt_name":"モザイクモール港北前","name":"センター北","name:en":"Center Kita","name:ja":"センター北","name:ja-Hira":"せんたーきた","name:ja_rm":"Sentā kita","name:ko":"센터기타","network":"横浜市営地下鉄","operator":"横浜市交通局","public_transport":"stop_position","railway":"stop","ref":"B30","subway":"yes","wheelchair":"yes","wikidata":"Q847363","wikipedia":"ja:センター北駅"}},{"type":"node","id":7750247046,"lat":35.5192869,"lon":139.6128637,"tags":{"name":"北新横浜","name:en":"Kita-shin-yokohama","name:ja":"北新横浜","name:ja-Hira":"きたしんよこはま","name:ja_rm":"Kita Shin Yokohama","name:ko":"기타신요코하마","network":"横浜市営地下鉄","operator":"横浜市交通局","public_transport":"stop_position","railway":"stop","ref":"B26","source":"KSJ2","subway":"yes","wikidata":"Q852295","wikipedia":"ja:北新横浜駅"}},{"type":"node","id":8062656937,"lat":35.3043323,"lon":139.5221762,"tags":{"KSJ2:LIN":"江ノ島電鉄線","light_rail":"yes","loc_ref":"2","local_ref":"2","name":"稲村ヶ崎","name:en":"Inamuragasaki","name:ja":"稲村ヶ崎","name:ja-Hira":"いなむらがさき","name:ja_rm":"Inamuragasaki","name:ko":"이나무라가사키","name:zh":"稻村崎","note":"National-Land Numerical Information (Railway) 2007, MLIT Japan","note:ja":"国土数値情報（鉄道データ）平成19年 国土交通省","operator":"江ノ島電鉄","public_transport":"stop_position","railway":"stop","ref":"EN-10","source":"KSJ2","source_ref":"http://nlftp.mlit.go.jp/ksj/jpgis/datalist/KsjTmplt-N02-v1_1.html","wikidata":"Q858991","wikipedia":"ja:稲村ヶ崎駅"}},{"type":"node","id":8062865732,"lat":35.3112616,"lon":139.5360379,"tags":{"image":"https://photos.app.goo.gl/Rmmjg6AoyxLTPrZw8","light_rail":"yes","loc_ref":"2","local_ref":"2","name":"長谷","name:en":"Hase","name:es":"Hase","name:ja":"長谷","name:ja-Hira":"はせ","name:ja_rm":"Hase","name:ko":"하세","name:zh":"長谷 (神奈川縣)","operator":"江ノ島電鉄","public_transport":"stop_position","railway":"stop","ref":"EN-12","source":"KSJ2","source_ref":"http://nlftp.mlit.go.jp/ksj/jpgis/datalist/KsjTmplt-N02-v1_1.html","url":"https://youtu.be/QOE-v_uPn7U","wikidata":"Q858830","wikipedia":"ja:長谷駅 (神奈川県)"}},{"type":"node","id":8062865733,"lat":35.3211634,"lon":139.4824748,"tags":{"light_rail":"yes","loc_ref":"1","local_ref":"1","name":"鵠沼","name:en":"Kugenuma","name:ja":"鵠沼","name:ja-Hira":"くげぬま","name:ja_rm":"Kugenuma","name:ko":"구게누마","name:zh":"鵠沼","operator":"江ノ島電鉄","public_transport":"stop_position","railway":"stop","ref":"EN-04","source":"KSJ2","wikidata":"Q858839","wikipedia":"ja:鵠沼駅"}},{"type":"node","id":8062865736,"lat":35.3110329,"lon":139.4875308,"tags":{"light_rail":"yes","loc_ref":"1","local_ref":"1","name":"江ノ島","name:en":"Enoshima","name:ja":"江ノ島","name:ja-Hira":"えのしま","name:ja_rm":"Enoshima","name:ko":"에노시마","name:zh":"江之島","operator":"江ノ島電鉄","public_transport":"stop_position","railway":"stop","ref":"EN-06","source":"KSJ2","wikidata":"Q846972","wikipedia":"ja:江ノ島駅"}},{"type":"node","id":7749857151,"lat":35.3964453,"lon":139.4670779,"tags":{"name":"湘南台","name:de":"Shonandai","name:en":"Shonandai","name:ja":"湘南台","name:ja-Hira":"しょうなんだい","name:ja_rm":"Shōnandai","name:ko":"쇼난다이 역","name:ru":"Сёнандай","name:zh":"湘南台站","platforms":"2","public_transport":"station","railway":"station","ref":"SO37","station":"subway","subway":"yes","wheelchair":"limited","wikidata":"Q126091414"}},{"type":"node","id":8062656936,"lat":35.3043634,"lon":139.5219,"tags":{"KSJ2:LIN":"江ノ島電鉄線","name":"稲村ヶ崎","name:en":"Inamuragasaki","name:ja":"稲村ヶ崎","name:ja-Hira":"いなむらがさき","name:ja_rm":"Inamuragasaki","name:ko":"이나무라가사키","name:zh":"稻村崎","note":"National-Land Numerical Information (Railway) 2007, MLIT Japan","note:ja":"国土数値情報（鉄道データ）平成19年 国土交通省","operator":"江ノ島電鉄","public_transport":"station","railway":"station","ref":"EN-10","source":"KSJ2","source_ref":"http://nlftp.mlit.go.jp/ksj/jpgis/datalist/KsjTmplt-N02-v1_1.html","station":"light_rail","wheelchair":"yes","wikidata":"Q858991","wikipedia":"ja:稲村ヶ崎駅"}},{"type":"node","id":8062865731,"lat":35.3112923,"lon":139.5358669,"tags":{"name":"長谷","name:en":"Hase","name:es":"Hase","name:fr":"Hase","name:ja":"長谷","name:ja-Hira":"はせ","name:ja_rm":"Hase","name:ko":"하세","name:zh":"長谷 (神奈川縣)","operator":"江ノ島電鉄","public_transport":"station","railway":"station","ref":"EN-12","source":"KSJ2","source_ref":"http://nlftp.mlit.go.jp/ksj/jpgis/datalist/KsjTmplt-N02-v1_1.html","station":"light_rail","train":"yes","wheelchair":"yes","wikidata":"Q858830","wikipedia":"ja:長谷駅 (神奈川県)"}},{"type":"node","id":8062865734,"lat":35.3214239,"lon":139.4826015,"tags":{"light_rail":"yes","name":"鵠沼","name:en":"Kugenuma","name:ja":"鵠沼","name:ja-Hira":"くげぬま","name:ja-Latn":"Kugenuma","name:ko":"구게누마","name:zh":"鵠沼","operator":"江ノ島電鉄","public_transport":"station","railway":"station","ref":"EN-04","source":"KSJ2","station":"light_rail","wikidata":"Q858839","wikipedia":"ja:鵠沼駅"}},{"type":"node","id":8062865735,"lat":35.3110438,"lon":139.4875422,"tags":{"loc_ref":"2","local_ref":"2","name":"江ノ島","name:en":"Enoshima","name:ja":"江ノ島","name:ja-Hira":"えのしま","name:ja_rm":"Enoshima","name:ko":"에노시마","name:zh":"江之島","operator":"江ノ島電鉄","public_transport":"station","railway":"station","ref":"EN-06","source":"KSJ2","station":"light_rail","wikidata":"Q846972","wikipedia":"ja:江ノ島駅"}},{"type":"node","id":8062865737,"lat":35.3371805,"lon":139.4871854,"tags":{"KSJ2:LIN":"江ノ島電鉄線","light_rail":"yes","name":"藤沢","name:en":"Fujisawa","name:ja":"藤沢","name:ja-Hira":"ふじさわ","name:ja-Latn":"Fujisawa","name:ko":"후지사와","name:ru":"Фудзисава","name:zh":"藤澤","note":"National-Land Numerical Information (Railway) 2007, MLIT Japan","note:ja":"国土数値情報（鉄道データ）平成19年　国土交通省","operator":"江ノ島電鉄","public_transport":"station","railway":"station","ref":"EN01","source":"KSJ2","source_ref":"http://nlftp.mlit.go.jp/ksj/jpgis/datalist/KsjTmplt-N02-v1_1.html","station":"light_rail","wikidata":"Q1133110","wikipedia":"ja:藤沢駅"}},{"type":"node","id":8063948626,"lat":35.3062815,"lon":139.510117,"tags":{"name":"七里ヶ浜","name:en":"Shichirigahama","name:ja":"七里ヶ浜","name:ja-Hira":"しちりがはま","name:ja_rm":"Shichirigahama","name:ko":"시치리가하마","name:zh":"七里濱","operator":"江ノ島電鉄","public_transport":"station","railway":"station","ref":"EN09","source":"KSJ2","station":"light_rail","wikidata":"Q858960","wikipedia":"ja:七里ヶ浜駅"}},{"type":"node","id":8063948630,"lat":35.3092118,"lon":139.5286725,"tags":{"KSJ2:LIN":"江ノ島電鉄線","name":"極楽寺","name:en":"Gokurakuji","name:ja":"極楽寺","name:ja-Hira":"ごくらくじ","name:ja_rm":"Gokurakuji","name:ko":"고쿠라쿠지","name:zh":"極樂寺","note":"National-Land Numerical Information (Railway) 2007, MLIT Japan","note:ja":"国土数値情報（鉄道データ）平成19年 国土交通省","operator":"江ノ島電鉄","public_transport":"station","railway":"station","ref":"EN11","source":"KSJ2","source_ref":"http://nlftp.mlit.go.jp/ksj/jpgis/datalist/KsjTmplt-N02-v1_1.html","station":"light_rail","wikidata":"Q858997","wikipedia":"ja:極楽寺駅"}},{"type":"node","id":8063951768,"lat":35.3321271,"lon":139.4855196,"tags":{"KSJ2:LIN":"江ノ島電鉄線","name":"石上","name:en":"Ishigami","name:ja":"石上","name:ja-Hira":"いしがみ","name:ja_rm":"Ishigami","name:ko":"이시가미","name:zh":"石上","note":"National-Land Numerical Information (Railway) 2007, MLIT Japan","note:ja":"国土数値情報（鉄道データ）平成19年 国土交通省","operator":"江ノ島電鉄","public_transport":"station","railway":"station","ref":"EN02","source":"KSJ2","source_ref":"http://nlftp.mlit.go.jp/ksj/jpgis/datalist/KsjTmplt-N02-v1_1.html","station":"light_rail","wikidata":"Q859782","wikipedia":"ja:石上駅"}},{"type":"node","id":8063951769,"lat":35.3276307,"lon":139.4851812,"tags":{"KSJ2:LIN":"江ノ島電鉄線","name":"柳小路","name:en":"Yanagikoji","name:ja":"柳小路","name:ja-Hira":"やなぎこうじ","name:ja_rm":"Yanagikōji","name:ko":"야나기코지","name:zh":"柳小路","note":"National-Land Numerical Information (Railway) 2007, MLIT Japan","note:ja":"国土数値情報（鉄道データ）平成19年 国土交通省","operator":"江ノ島電鉄","public_transport":"station","railway":"station","ref":"EN03","source":"KSJ2","source_ref":"http://nlftp.mlit.go.jp/ksj/jpgis/datalist/KsjTmplt-N02-v1_1.html","station":"light_rail","wikidata":"Q859740","wikipedia":"ja:柳小路駅"}},{"type":"node","id":8063964898,"lat":35.3083817,"lon":139.4932077,"tags":{"name":"腰越","name:en":"Koshigoe","name:ja":"腰越","name:ja-Hira":"こしごえ","name:ja_rm":"Koshigoe","name:ko":"고시고에","name:zh":"腰越","operator":"江ノ島電鉄","public_transport":"station","railway":"station","ref":"EN07","source":"KSJ2","station":"light_rail","wheelchair":"no","wikidata":"Q858923","wikipedia":"ja:腰越駅"}},{"type":"node","id":8063964899,"lat":35.3067209,"lon":139.5007098,"tags":{"alt_name:ko":"가마쿠라코코마에","name":"鎌倉高校前","name:en":"Kamakurakokomae","name:ja":"鎌倉高校前","name:ja-Hira":"かまくらこうこうまえ","name:ja_rm":"Kamakura kōkō mae","name:ko":"가마쿠라고교앞","name:zh":"鎌倉高校前","operator":"江ノ島電鉄","public_transport":"station","railway":"station","ref":"EN08","source":"KSJ2","station":"light_rail","wheelchair":"limited","wikidata":"Q859202","wikipedia":"ja:鎌倉高校前駅"}},{"type":"node","id":8063967424,"lat":35.3149457,"lon":139.4836473,"tags":{"name":"湘南海岸公園","name:en":"Shonankaigankoen","name:ja":"湘南海岸公園","name:ja-Hira":"しょうなんかいがんこうえん","name:ja_rm":"Shōnan kaigan kōen","name:ko":"쇼난해안공원","name:zh":"湘南海岸公園","operator":"江ノ島電鉄","public_transport":"station","railway":"station","ref":"EN05","source":"KSJ2","station":"light_rail","wheelchair":"no","wikidata":"Q858964","wikipedia":"ja:湘南海岸公園駅"}}]}