{"elements":[{"type":"node","id":32553623,"lat":45.5136663,"lon":-122.6839292,"tags":{"name":"Southwest Market & Park","network":"Portland Streetcar","network:wikidata":"Q1753708","operator":"TriMet","operator:wikidata":"Q1766623","public_transport":"stop_position","railway":"tram_stop","ref":"11011","short_name":"SW Market & Park","tram":"yes"}},{"type":"node","id":40425091,"lat":45.5031137,"lon":-122.6727618,"tags":{"name":"South Moody & Meade","network":"Portland Streetcar","network:wikidata":"Q1753708","operator":"TriMet","operator:wikidata":"Q1766623","public_transport":"stop_position","railway":"tram_stop","ref":"13601","short_name":"S Moody & Meade","tram":"yes"}},{"type":"node","id":40532724,"lat":45.5106174,"lon":-122.7164982,"tags":{"covered":"yes","light_rail":"yes","name":"Washington Park","network":"TriMet","public_transport":"stop_position","railway":"stop","ref":"10120"}},{"type":"node","id":40533076,"lat":45.5165095,"lon":-122.4611999,"tags":{"light_rail":"yes","name":"Ruby Junction/East 197th Avenue","network":"TriMet","public_transport":"stop_position","railway":"stop","ref":"8362","short_name":"Ruby Junction/E 197th Ave"}},{"type":"node","id":40533100,"lat":45.5082788,"lon":-122.4418794,"tags":{"light_rail":"yes","name":"Civic Drive","network":"TriMet","public_transport":"stop_position","railway":"stop","ref":"13449"}},{"type":"node","id":40533121,"lat":45.502686,"lon":-122.4273701,"tags":{"light_rail":"yes","name":"Gresham Central Transit Center","network":"TriMet","public_transport":"stop_position","railway":"stop","ref":"8360","short_name":"Gresham Central TC"}},{"type":"node","id":40533167,"lat":45.5018736,"lon":-122.4188181,"tags":{"light_rail":"yes","name":"Cleveland Avenue","network":"TriMet","public_transport":"stop_position","railway":"stop","ref":"8359","short_name":"Cleveland Ave"}},{"type":"node","id":297852376,"lat":45.5210792,"lon":-122.68275,"tags":{"name":"Southwest 11th & Alder","network":"Portland Streetcar","network:wikidata":"Q1753708","operator":"TriMet","operator:wikidata":"Q1766623","public_transport":"stop_position","railway":"tram_stop","ref":"9600","short_name":"SW 11th & Alder","tram":"yes","wheelchair":"yes"}},{"type":"node","id":297852393,"lat":45.5306216,"lon":-122.6986695,"tags":{"name":"Northwest 23rd & Marshall","network":"Portland Streetcar","network:wikidata":"Q1753708","operator":"TriMet","operator:wikidata":"Q1766623","public_transport":"stop_position","railway":"tram_stop","ref":"8989","short_name":"NW 23rd & Marshall","tram":"yes"}},{"type":"node","id":320097133,"lat":45.4989149,"lon":-122.6707251,"tags":{"alt_name":"OHSU Plaza","name":"OHSU Commons","network":"Portland Streetcar","network:wikidata":"Q1753708","operator":"TriMet","operator:wikidata":"Q1766623","public_transport":"stop_position","railway":"tram_stop","ref":"12883","tram":"yes","wheelchair":"yes"}},{"type":"node","id":333781819,"lat":45.5059811,"lon":-122.436359,"tags":{"light_rail":"yes","name":"Gresham City Hall","network":"TriMet","public_transport":"stop_position","railway":"stop","ref":"8361"}},{"type":"node","id":333785472,"lat":45.5024953,"lon":-122.4265935,"tags":{"light_rail":"yes","name":"Gresham Central Transit Center","network":"TriMet","public_transport":"stop_position","railway":"stop","ref":"8357","short_name":"Gresham Central TC"}},{"type":"node","id":333786228,"lat":45.5056902,"lon":-122.4357808,"tags":{"light_rail":"yes","name":"Gresham City Hall","network":"TriMet","public_transport":"stop_position","railway":"stop","ref":"8356","wheelchair":"yes"}},{"type":"node","id":333786233,"lat":45.507979,"lon":-122.4412645,"tags":{"light_rail":"yes","name":"Civic Drive","network":"TriMet","public_transport":"stop_position","railway":"stop","ref":"13450"}},{"type":"node","id":333795725,"lat":45.5155967,"lon":-122.4591496,"tags":{"light_rail":"yes","name":"Ruby Junction/East 197th Avenue","network":"TriMet","public_transport":"stop_position","railway":"stop","ref":"8355","short_name":"Ruby Junction/E 197th Ave"}},{"type":"node","id":333795827,"lat":45.5207119,"lon":-122.471131,"tags":{"light_rail":"yes","name":"Rockwood/East 188th Avenue","network":"TriMet","public_transport":"stop_position","railway":"stop","ref":"8363","short_name":"Rockwood/E 188th Ave"}},{"type":"node","id":333795935,"lat":45.520414,"lon":-122.4705329,"tags":{"light_rail":"yes","name":"Rockwood/East 188th Avenue","network":"TriMet","public_transport":"stop_position","railway":"stop","ref":"8354","short_name":"Rockwood/E 188th Ave"}},{"type":"node","id":333796035,"lat":45.5220386,"lon":-122.4781331,"tags":{"light_rail":"yes","name":"East 181st Avenue","network":"TriMet","public_transport":"stop_position","railway":"stop","ref":"8364","short_name":"E 181st Ave"}},{"type":"node","id":333796139,"lat":45.5219432,"lon":-122.4761009,"tags":{"light_rail":"yes","name":"East 181st Avenue","network":"TriMet","public_transport":"stop_position","railway":"stop","ref":"8353","short_name":"E 181st Ave"}},{"type":"node","id":333796208,"lat":45.5221182,"lon":-122.4871669,"tags":{"light_rail":"yes","name":"East 172nd Avenue","network":"TriMet","public_transport":"stop_position","railway":"stop","ref":"8365","short_name":"E 172nd Ave"}},{"type":"node","id":333796310,"lat":45.5220622,"lon":-122.4851323,"tags":{"light_rail":"yes","name":"East 172nd Avenue","network":"TriMet","public_transport":"stop_position","railway":"stop","ref":"8352","short_name":"E 172nd Ave"}},{"type":"node","id":333796478,"lat":45.5222019,"lon":-122.4974721,"tags":{"light_rail":"yes","name":"East 162nd Avenue","network":"TriMet","public_transport":"stop_position","railway":"stop","ref":"8366","short_name":"E 162nd Ave"}},{"type":"node","id":333796505,"lat":45.5221456,"lon":-122.4954385,"tags":{"light_rail":"yes","name":"East 162nd Avenue","network":"TriMet","public_transport":"stop_position","railway":"stop","ref":"8351","short_name":"E 162nd Ave","wheelchair":"yes"}},{"type":"node","id":333796551,"lat":45.5222656,"lon":-122.5096304,"tags":{"light_rail":"yes","name":"East 148th Avenue","network":"TriMet","public_transport":"stop_position","railway":"stop","ref":"8350","short_name":"E 148th Ave"}},{"type":"node","id":333796580,"lat":45.5223203,"lon":-122.5116708,"tags":{"light_rail":"yes","name":"East 148th Avenue","network":"TriMet","public_transport":"stop_position","railway":"stop","ref":"8367","short_name":"E 148th Ave"}},{"type":"node","id":333796739,"lat":45.5225254,"lon":-122.5387741,"tags":{"light_rail":"yes","name":"East 122nd Avenue","network":"TriMet","public_transport":"stop_position","railway":"stop","ref":"8368","short_name":"E 122nd Ave"}},{"type":"node","id":333796742,"lat":45.5224706,"lon":-122.5367518,"tags":{"light_rail":"yes","name":"East 122nd Avenue","network":"TriMet","public_transport":"stop_position","railway":"stop","ref":"8349","short_name":"E 122nd Ave"}},{"type":"node","id":333796874,"lat":45.5226169,"lon":-122.5572972,"tags":{"light_rail":"yes","name":"East 102nd Avenue","network":"TriMet","public_transport":"stop_position","railway":"stop","ref":"8348","short_name":"E 102nd Ave"}},{"type":"node","id":333796953,"lat":45.5226689,"lon":-122.5593249,"tags":{"light_rail":"yes","name":"East 102nd Avenue","network":"TriMet","public_transport":"stop_position","railway":"stop","railway:signal":"main","railway:signal:direction":"forward","railway:signal:form":"sign","railway:signal:position":"left","ref":"8369","short_name":"E 102nd Ave"}},{"type":"node","id":333797586,"lat":45.5322852,"lon":-122.5637881,"tags":{"light_rail":"yes","name":"Gateway North","network":"TriMet","public_transport":"stop_position","railway":"stop","ref":"14250","short_name":"Gateway/NE 99th Ave TC","wheelchair":"yes"}},{"type":"node","id":333799454,"lat":45.5592095,"lon":-122.5653428,"tags":{"light_rail":"yes","name":"Parkrose/Sumner Transit Center","network":"TriMet","public_transport":"stop_position","railway":"stop","ref":"10572","short_name":"Parkrose/Sumner TC"}},{"type":"node","id":333799868,"lat":45.558832,"lon":-122.5659114,"tags":{"light_rail":"yes","name":"Parkrose/Sumner Transit Center","network":"TriMet","public_transport":"stop_position","railway":"stop","ref":"10573","short_name":"Parkrose/Sumner TC"}},{"type":"node","id":333800306,"lat":45.5723953,"lon":-122.5583446,"tags":{"light_rail":"yes","name":"Cascades","network":"TriMet","public_transport":"stop_position","railway":"stop","ref":"10574"}},{"type":"node","id":333800338,"lat":45.5720958,"lon":-122.5576943,"tags":{"light_rail":"yes","name":"Cascades","network":"TriMet","public_transport":"stop_position","railway":"stop","ref":"10575"}},{"type":"node","id":333800893,"lat":45.5773749,"lon":-122.5671997,"tags":{"light_rail":"yes","name":"Mount Hood Avenue","network":"TriMet","public_transport":"stop_position","railway":"stop","ref":"10576","short_name":"Mount Hood Ave"}},{"type":"node","id":333801079,"lat":45.5768523,"lon":-122.5671144,"tags":{"light_rail":"yes","name":"Mount Hood Avenue","network":"TriMet","public_transport":"stop_position","railway":"stop","ref":"10577","short_name":"Mount Hood Ave"}},{"type":"node","id":333801795,"lat":45.587561,"lon":-122.5930581,"tags":{"light_rail":"yes","name":"Portland International Airport","network":"TriMet","public_transport":"stop_position","railway":"stop","ref":"10579","toilets:wheelchair":"yes","wheelchair":"yes"}},{"type":"node","id":333801818,"lat":45.5874973,"lon":-122.5931319,"tags":{"light_rail":"yes","name":"Portland International Airport","network":"TriMet","public_transport":"stop_position","railway":"stop","ref":"10579","toilets:wheelchair":"yes","wheelchair":"yes"}},{"type":"node","id":333802767,"lat":45.5303485,"lon":-122.5635845,"tags":{"light_rail":"yes","name":"Gateway/Northeast 99th Avenue Transit Center","network":"TriMet","public_transport":"stop_position","railway":"stop","ref":"8347","short_name":"Gateway/NE 99th Ave TC","wheelchair":"yes"}},{"type":"node","id":333802848,"lat":45.5309769,"lon":-122.5636426,"tags":{"light_rail":"yes","name":"Gateway/Northeast 99th Avenue Transit Center","network":"TriMet","public_transport":"stop_position","railway":"stop","ref":"8370","short_name":"Gateway/NE 99th Ave TC","wheelchair":"yes"}},{"type":"node","id":333804708,"lat":45.5332433,"lon":-122.5779217,"tags":{"light_rail":"yes","name":"Northeast 82nd Avenue","network":"TriMet","public_transport":"stop_position","railway":"stop","ref":"8346","short_name":"NE 82nd Ave"}},{"type":"node","id":333804808,"lat":45.5334955,"lon":-122.578419,"tags":{"light_rail":"yes","name":"Northeast 82nd Avenue","network":"TriMet","public_transport":"stop_position","railway":"stop","ref":"8371","short_name":"NE 82nd Ave"}},{"type":"node","id":333807469,"lat":45.5285627,"lon":-122.6032494,"tags":{"light_rail":"yes","name":"Northeast 60th Avenue","network":"TriMet","public_transport":"stop_position","railway":"stop","ref":"8372","short_name":"NE 60th Ave","wheelchair":"yes"}},{"type":"node","id":333809901,"lat":45.5286977,"lon":-122.6028026,"tags":{"light_rail":"yes","name":"Northeast 60th Avenue","network":"TriMet","public_transport":"stop_position","railway":"stop","ref":"8345","short_name":"NE 60th Ave","wheelchair":"yes"}},{"type":"node","id":333814451,"lat":45.532972,"lon":-122.6213187,"tags":{"light_rail":"yes","name":"Hollywood/Northeast 42nd Avenue","network":"TriMet","public_transport":"stop_position","railway":"stop","ref":"8373"}},{"type":"node","id":333820588,"lat":45.5327577,"lon":-122.620706,"tags":{"light_rail":"yes","name":"Hollywood/Northeast 42nd Avenue","network":"TriMet","public_transport":"stop_position","railway":"stop","ref":"8344","short_name":"Hollywood/NE 42nd Ave TC"}},{"type":"node","id":333833187,"lat":45.5300461,"lon":-122.6536285,"tags":{"light_rail":"yes","name":"Lloyd Center/Northeast 11th Avenue","network":"TriMet","public_transport":"stop_position","railway":"stop","ref":"8343","short_name":"Lloyd Center/NE 11th Ave"}},{"type":"node","id":333833430,"lat":45.5301076,"lon":-122.6543415,"tags":{"light_rail":"yes","name":"Lloyd Center/Northeast 11th Avenue","network":"TriMet","public_transport":"stop_position","railway":"stop","ref":"8374","short_name":"Lloyd Center/NE 11th Ave"}},{"type":"node","id":333839080,"lat":45.5301138,"lon":-122.6584162,"tags":{"light_rail":"yes","name":"Northeast 7th Avenue","network":"TriMet","public_transport":"stop_position","railway":"stop","ref":"8375","short_name":"NE 7th Ave"}},{"type":"node","id":333839350,"lat":45.5300792,"lon":-122.6577672,"tags":{"light_rail":"yes","name":"Northeast 7th Avenue","network":"TriMet","public_transport":"stop_position","railway":"stop","ref":"8342","short_name":"NE 7th Ave"}},{"type":"node","id":333841406,"lat":45.5301105,"lon":-122.6625721,"tags":{"light_rail":"yes","name":"Convention Center","network":"TriMet","public_transport":"stop_position","railway":"stop","ref":"8376"}},{"type":"node","id":333847449,"lat":45.5302024,"lon":-122.6655724,"tags":{"light_rail":"yes","name":"Rose Quarter Transit Center","network":"TriMet","public_transport":"stop_position","railway":"stop","ref":"8377","short_name":"Rose Quarter TC"}},{"type":"node","id":333847636,"lat":45.5300852,"lon":-122.6648965,"tags":{"light_rail":"yes","name":"Rose Quarter Transit Center","network":"TriMet","public_transport":"stop_position","railway":"stop","ref":"8340","short_name":"Rose Quarter TC"}},{"type":"node","id":333847855,"lat":45.5300748,"lon":-122.6618967,"tags":{"light_rail":"yes","name":"Convention Center","network":"TriMet","public_transport":"stop_position","railway":"stop","ref":"8341"}},{"type":"node","id":333852042,"lat":45.5300412,"lon":-122.6675526,"tags":{"light_rail":"yes","name":"Interstate/Rose Quarter","network":"TriMet","public_transport":"stop_position","railway":"stop","ref":"11507"}},{"type":"node","id":333852447,"lat":45.5303297,"lon":-122.6681089,"tags":{"light_rail":"yes","name":"Interstate/Rose Quarter","network":"TriMet","public_transport":"stop_position","railway":"stop","ref":"11508"}},{"type":"node","id":333855728,"lat":45.5397237,"lon":-122.6757599,"tags":{"light_rail":"yes","name":"Albina/Mississippi","network":"TriMet","public_transport":"stop_position","railway":"stop","ref":"11509","wheelchair":"yes"}},{"type":"node","id":333856194,"lat":45.5393698,"lon":-122.6752159,"tags":{"light_rail":"yes","name":"Albina/Mississippi","network":"TriMet","public_transport":"stop_position","railway":"stop","ref":"11506","wheelchair":"yes"}},{"type":"node","id":333858697,"lat":45.5483196,"lon":-122.6809843,"tags":{"light_rail":"yes","name":"Overlook Park","network":"TriMet","public_transport":"stop_position","railway":"stop","ref":"11510","wheelchair":"yes"}},{"type":"node","id":333859146,"lat":45.5489651,"lon":-122.6810318,"tags":{"light_rail":"yes","name":"Overlook Park","network":"TriMet","public_transport":"stop_position","railway":"stop","ref":"11505","wheelchair":"yes"}},{"type":"node","id":333862542,"lat":45.5553864,"lon":-122.6822689,"tags":{"light_rail":"yes","name":"North Prescott Street","network":"TriMet","public_transport":"stop_position","railway":"stop","ref":"11511","short_name":"N Prescott St"}},{"type":"node","id":333863128,"lat":45.5549336,"lon":-122.682337,"tags":{"light_rail":"yes","name":"North Prescott Street","network":"TriMet","public_transport":"stop_position","railway":"stop","ref":"11504","short_name":"N Prescott St"}},{"type":"node","id":333866341,"lat":45.5630892,"lon":-122.6822047,"tags":{"light_rail":"yes","name":"North Killingsworth Street","network":"TriMet","public_transport":"stop_position","railway":"stop","ref":"11512","short_name":"N Killingsworth St"}},{"type":"node","id":333866420,"lat":45.562283,"lon":-122.6822693,"tags":{"light_rail":"yes","name":"North Killingsworth Street","network":"TriMet","public_transport":"stop_position","railway":"stop","ref":"11503","short_name":"N Killingsworth St"}},{"type":"node","id":333867119,"lat":45.5693917,"lon":-122.6821921,"tags":{"light_rail":"yes","name":"Rosa Parks","network":"TriMet","public_transport":"stop_position","railway":"stop","ref":"11502"}},{"type":"node","id":333867280,"lat":45.5703766,"lon":-122.6821259,"tags":{"light_rail":"yes","name":"Rosa Parks","network":"TriMet","public_transport":"stop_position","railway":"stop","ref":"11513"}},{"type":"node","id":333868734,"lat":45.5775982,"lon":-122.6820703,"tags":{"light_rail":"yes","name":"North Lombard Transit Center","network":"TriMet","public_transport":"stop_position","railway":"stop","ref":"11514","short_name":"N Lombard TC"}},{"type":"node","id":333869351,"lat":45.5766723,"lon":-122.6821326,"tags":{"light_rail":"yes","name":"North Lombard Transit Center","network":"TriMet","public_transport":"stop_position","railway":"stop","ref":"11501","short_name":"N Lombard TC"}},{"type":"node","id":333870658,"lat":45.5839853,"lon":-122.6861672,"tags":{"light_rail":"yes","name":"Kenton/North Denver Avenue","network":"TriMet","public_transport":"stop_position","railway":"stop","ref":"11515","short_name":"Kenton/N Denver Ave"}},{"type":"node","id":333870918,"lat":45.5837254,"lon":-122.6856516,"tags":{"light_rail":"yes","name":"Kenton/North Denver Avenue","network":"TriMet","public_transport":"stop_position","railway":"stop","ref":"11500","short_name":"Kenton/N Denver Ave"}},{"type":"node","id":333872400,"lat":45.5961156,"lon":-122.6856087,"tags":{"light_rail":"yes","name":"Delta Park/Vanport","network":"TriMet","public_transport":"stop_position","railway":"stop","ref":"11516"}},{"type":"node","id":333877490,"lat":45.596122,"lon":-122.6856654,"tags":{"light_rail":"yes","name":"Delta Park/Vanport","network":"TriMet","public_transport":"stop_position","railway":"stop","ref":"11499"}},{"type":"node","id":333879047,"lat":45.6054031,"lon":-122.6855042,"tags":{"light_rail":"yes","name":"Expo Center","network":"TriMet","public_transport":"stop_position","railway":"stop","ref":"11498"}},{"type":"node","id":333879054,"lat":45.6054332,"lon":-122.685588,"tags":{"light_rail":"yes","name":"Expo Center","network":"TriMet","public_transport":"stop_position","railway":"stop","ref":"11498"}},{"type":"node","id":333911380,"lat":45.5246834,"lon":-122.6714258,"tags":{"light_rail":"yes","name":"Old Town/Chinatown","network":"TriMet","public_transport":"stop_position","railway":"stop","ref":"8378"}},{"type":"node","id":333912016,"lat":45.5251934,"lon":-122.671387,"tags":{"light_rail":"yes","name":"Old Town/Chinatown","network":"TriMet","public_transport":"stop_position","railway":"stop","ref":"8339"}},{"type":"node","id":333918852,"lat":45.519839,"lon":-122.6724913,"tags":{"light_rail":"yes","name":"Oak Street/Southwest 1st Avenue","network":"TriMet","public_transport":"stop_position","railway":"stop","ref":"8380","short_name":"Oak St/SW 1st Ave"}},{"type":"node","id":333921716,"lat":45.5181943,"lon":-122.6753829,"tags":{"light_rail":"yes","name":"Morrison/Southwest 3rd Avenue","network":"TriMet","public_transport":"stop_position","railway":"stop","ref":"8381","short_name":"Morrison/SW 3rd Ave"}},{"type":"node","id":333923000,"lat":45.5192841,"lon":-122.6794569,"tags":{"light_rail":"yes","name":"Pioneer Square North","network":"TriMet","public_transport":"stop_position","railway":"stop","ref":"8383"}},{"type":"node","id":333923433,"lat":45.5199472,"lon":-122.681936,"tags":{"light_rail":"yes","name":"Galleria/Southwest 10th Avenue","network":"TriMet","public_transport":"stop_position","railway":"stop","ref":"8384","short_name":"Galleria/SW 10th Ave","wheelchair":"yes"}},{"type":"node","id":333925868,"lat":45.5192216,"lon":-122.6819412,"tags":{"light_rail":"yes","name":"Library/Southwest 9th Avenue","network":"TriMet","public_transport":"stop_position","railway":"stop","ref":"8333","short_name":"Library/SW 9th Ave","wheelchair":"yes"}},{"type":"node","id":333926110,"lat":45.5184781,"lon":-122.6791592,"tags":{"light_rail":"yes","name":"Pioneer Square South","network":"TriMet","public_transport":"stop_position","railway":"stop","ref":"8334"}},{"type":"node","id":333927243,"lat":45.5171255,"lon":-122.6741576,"tags":{"light_rail":"yes","name":"Yamhill District","network":"TriMet","public_transport":"stop_position","railway":"stop","ref":"8336","wheelchair":"yes"}},{"type":"node","id":333929139,"lat":45.5218036,"lon":-122.6898104,"tags":{"light_rail":"yes","name":"Providence Park","network":"TriMet","public_transport":"stop_position","railway":"stop","ref":"9757"}},{"type":"node","id":333932359,"lat":45.5213493,"lon":-122.6898549,"tags":{"light_rail":"yes","name":"Providence Park","network":"TriMet","public_transport":"stop_position","railway":"stop","ref":"9758","wheelchair":"yes"}},{"type":"node","id":333933672,"lat":45.5179982,"lon":-122.6934793,"tags":{"light_rail":"yes","name":"Goose Hollow/Southwest Jefferson Street","network":"TriMet","public_transport":"stop_position","railway":"stop","ref":"10118","short_name":"Goose Hollow/SW Jefferson St","wheelchair":"yes"}},{"type":"node","id":333934146,"lat":45.5181937,"lon":-122.694061,"tags":{"light_rail":"yes","name":"Goose Hollow/Southwest Jefferson Street","network":"TriMet","public_transport":"stop_position","railway":"stop","ref":"10117","short_name":"Goose Hollow/SW Jefferson St","wheelchair":"yes"}},{"type":"node","id":333940404,"lat":45.510707,"lon":-122.7172282,"tags":{"covered":"yes","light_rail":"yes","name":"Washington Park","network":"TriMet","public_transport":"stop_position","railway":"stop","ref":"10121"}},{"type":"node","id":333946786,"lat":45.510383,"lon":-122.7813197,"tags":{"light_rail":"yes","name":"Sunset Transit Center","network":"TriMet","public_transport":"stop_position","railway":"stop","ref":"9624","short_name":"Sunset TC","wheelchair":"yes"}},{"type":"node","id":333946868,"lat":45.5101367,"lon":-122.7807627,"tags":{"light_rail":"yes","name":"Sunset Transit Center","network":"TriMet","public_transport":"stop_position","railway":"stop","ref":"9969","short_name":"Sunset TC","wheelchair":"yes"}},{"type":"node","id":333960551,"lat":45.4916554,"lon":-122.801156,"tags":{"light_rail":"yes","name":"Beaverton Transit Center","network":"TriMet","public_transport":"stop_position","railway":"stop","ref":"9821","short_name":"Beaverton TC"}},{"type":"node","id":333960690,"lat":45.4913274,"lon":-122.8017213,"tags":{"light_rail":"yes","name":"Beaverton Transit Center","network":"TriMet","public_transport":"stop_position","railway":"stop","ref":"9818","short_name":"Beaverton TC"}},{"type":"node","id":333962035,"lat":45.4904013,"lon":-122.807472,"tags":{"light_rail":"yes","name":"Beaverton Central","network":"TriMet","public_transport":"stop_position","railway":"stop","ref":"9823"}},{"type":"node","id":333962170,"lat":45.4905288,"lon":-122.8067948,"tags":{"light_rail":"yes","name":"Beaverton Central","network":"TriMet","public_transport":"stop_position","railway":"stop","ref":"9824"}},{"type":"node","id":333988103,"lat":45.4954067,"lon":-122.8218331,"tags":{"light_rail":"yes","name":"Millikan Way","network":"TriMet","public_transport":"stop_position","railway":"stop","ref":"9825","wheelchair":"yes"}},{"type":"node","id":333988312,"lat":45.4951264,"lon":-122.8212449,"tags":{"light_rail":"yes","name":"Millikan Way","network":"TriMet","public_transport":"stop_position","railway":"stop","ref":"9826","wheelchair":"yes"}},{"type":"node","id":333989754,"lat":45.500603,"lon":-122.8333101,"tags":{"light_rail":"yes","name":"Beaverton Creek","network":"TriMet","public_transport":"stop_position","railway":"stop","ref":"9819"}},{"type":"node","id":333991524,"lat":45.5002671,"lon":-122.8328523,"tags":{"light_rail":"yes","name":"Beaverton Creek","network":"TriMet","public_transport":"stop_position","railway":"stop","ref":"9822"}},{"type":"node","id":333999364,"lat":45.5053516,"lon":-122.8422882,"tags":{"light_rail":"yes","name":"Merlo Road/Southwest 158th Avenue","network":"TriMet","public_transport":"stop_position","railway":"stop","ref":"9827","short_name":"Merlo Rd/SW 158th Ave"}},{"type":"node","id":333999377,"lat":45.5051263,"lon":-122.8420421,"tags":{"light_rail":"yes","name":"Merlo Road/Southwest 158th Avenue","network":"TriMet","public_transport":"stop_position","railway":"stop","ref":"9828","short_name":"Merlo Rd/SW 158th Ave"}},{"type":"node","id":334005217,"lat":45.510129,"lon":-122.8517551,"tags":{"light_rail":"yes","name":"Elmonica/Southwest 170th Avenue","network":"TriMet","public_transport":"stop_position","railway":"stop","ref":"9829","short_name":"Elmonica/SW 170th Ave","wheelchair":"yes"}},{"type":"node","id":334005342,"lat":45.509804,"lon":-122.8511914,"tags":{"light_rail":"yes","name":"Elmonica/Southwest 170th Avenue","network":"TriMet","public_transport":"stop_position","railway":"stop","ref":"9830","short_name":"Elmonica/SW 170th Ave","wheelchair":"yes"}},{"type":"node","id":334024408,"lat":45.5173963,"lon":-122.87052,"tags":{"light_rail":"yes","name":"Willow Creek/Southwest 185th Avenue Transit Center","network":"TriMet","public_transport":"stop_position","railway":"stop","ref":"9832","short_name":"Willow Creek/SW 185th Ave TC"}},{"type":"node","id":334024781,"lat":45.5171118,"lon":-122.869916,"tags":{"light_rail":"yes","name":"Willow Creek/Southwest 185th Avenue Transit Center","network":"TriMet","public_transport":"stop_position","railway":"stop","ref":"9831","short_name":"Willow Creek/SW 185th Ave TC"}},{"type":"node","id":334026144,"lat":45.5233279,"lon":-122.889073,"tags":{"light_rail":"yes","name":"Quatama","network":"TriMet","public_transport":"stop_position","railway":"stop","ref":"9833"}},{"type":"node","id":334027206,"lat":45.5230649,"lon":-122.8885302,"tags":{"light_rail":"yes","name":"Quatama","network":"TriMet","public_transport":"stop_position","railway":"stop","ref":"9834"}},{"type":"node","id":334031346,"lat":45.5303215,"lon":-122.9162048,"tags":{"light_rail":"yes","name":"Orenco","network":"TriMet","public_transport":"stop_position","railway":"stop","ref":"9836"}},{"type":"node","id":334033324,"lat":45.5302437,"lon":-122.9155065,"tags":{"light_rail":"yes","name":"Orenco","network":"TriMet","public_transport":"stop_position","railway":"stop","ref":"9835"}},{"type":"node","id":334039306,"lat":45.5299535,"lon":-122.9310986,"tags":{"light_rail":"yes","name":"Hawthorn Farm","network":"TriMet","public_transport":"stop_position","railway":"stop","ref":"9840"}},{"type":"node","id":334039338,"lat":45.5300065,"lon":-122.9303847,"tags":{"light_rail":"yes","name":"Hawthorn Farm","network":"TriMet","public_transport":"stop_position","railway":"stop","ref":"9839"}},{"type":"node","id":334048012,"lat":45.5270257,"lon":-122.9457867,"tags":{"light_rail":"yes","name":"Hillsboro Airport/Fairgrounds","network":"TriMet","public_transport":"stop_position","railway":"stop","ref":"9838"}},{"type":"node","id":334048191,"lat":45.526941,"lon":-122.9465521,"tags":{"light_rail":"yes","name":"Hillsboro Airport/Fairgrounds","network":"TriMet","public_transport":"stop_position","railway":"stop","ref":"9837"}},{"type":"node","id":334055506,"lat":45.521225,"lon":-122.9698897,"tags":{"light_rail":"yes","name":"Washington/Southeast 12th Avenue","network":"TriMet","public_transport":"stop_position","railway":"stop","ref":"9842","short_name":"Washington/SE 12th Ave"}},{"type":"node","id":334056001,"lat":45.5211295,"lon":-122.9691442,"tags":{"light_rail":"yes","name":"Washington/Southeast 12th Avenue","network":"TriMet","public_transport":"stop_position","railway":"stop","ref":"9841","short_name":"Washington/SE 12th Ave"}},{"type":"node","id":334057889,"lat":45.5213393,"lon":-122.978766,"tags":{"light_rail":"yes","name":"Hillsboro Health District","network":"TriMet","public_transport":"stop_position","railway":"stop","ref":"9844"}},{"type":"node","id":334058358,"lat":45.5212703,"lon":-122.9780044,"tags":{"light_rail":"yes","name":"Hillsboro Health District","network":"TriMet","public_transport":"stop_position","railway":"stop","ref":"9843"}},{"type":"node","id":334062033,"lat":45.5214092,"lon":-122.9856851,"tags":{"light_rail":"yes","name":"Hillsboro Central/Southeast 3rd Avenue Transit Center","network":"TriMet","public_transport":"stop_position","railway":"stop","ref":"9845","short_name":"Hillsboro Central/SE 3rd Ave TC"}},{"type":"node","id":334062117,"lat":45.5213388,"lon":-122.9849415,"tags":{"light_rail":"yes","name":"Hillsboro Central/Southeast 3rd Avenue Transit Center","network":"TriMet","public_transport":"stop_position","railway":"stop","ref":"9846","short_name":"Hillsboro Central/SE 3rd Ave TC"}},{"type":"node","id":334067531,"lat":45.5218854,"lon":-122.9911014,"tags":{"direction":"forward","light_rail":"yes","name":"Hatfield Government Center","network":"TriMet","public_transport":"stop_position","railway":"stop","ref":"9848"}},{"type":"node","id":334067575,"lat":45.5219378,"lon":-122.9910065,"tags":{"direction":"backward","light_rail":"yes","name":"Hatfield Government Center","network":"TriMet","public_transport":"stop_position","railway":"stop","ref":"9848"}},{"type":"node","id":495927375,"lat":45.4913532,"lon":-122.5661853,"tags":{"light_rail":"yes","name":"Southeast Holgate Boulevard","network":"TriMet","public_transport":"stop_position","railway":"stop","ref":"13136","short_name":"SE Holgate Blvd","wikidata":"Q7569347"}},{"type":"node","id":495927571,"lat":45.5035682,"lon":-122.5665819,"tags":{"light_rail":"yes","name":"Southeast Division Street","network":"TriMet","public_transport":"stop_position","railway":"stop","ref":"13138","short_name":"SE Division St","wikidata":"Q7569326"}},{"type":"node","id":495930712,"lat":45.5032218,"lon":-122.566703,"tags":{"light_rail":"yes","name":"Southeast Division Street","network":"TriMet","public_transport":"stop_position","railway":"stop","ref":"13125","short_name":"SE Division St","wikidata":"Q7569326"}},{"type":"node","id":495931080,"lat":45.490903,"lon":-122.5663504,"tags":{"light_rail":"yes","name":"Southeast Holgate Boulevard","network":"TriMet","public_transport":"stop_position","railway":"stop","ref":"13127","short_name":"SE Holgate Blvd","wikidata":"Q7569347"}},{"type":"node","id":495973206,"lat":45.5144473,"lon":-122.5643774,"tags":{"light_rail":"yes","name":"Southeast Main Street","network":"TriMet","public_transport":"stop_position","railway":"stop","ref":"13139","short_name":"SE Main St"}},{"type":"node","id":495973304,"lat":45.4959456,"lon":-122.5661578,"tags":{"light_rail":"yes","name":"Southeast Powell Boulevard","network":"TriMet","public_transport":"stop_position","railway":"stop","ref":"13137","short_name":"SE Powell Blvd","wikidata":"Q7569381"}},{"type":"node","id":495984003,"lat":45.4806965,"lon":-122.5667194,"tags":{"light_rail":"yes","name":"Lents Town Center/Southeast Foster Road","network":"TriMet","public_transport":"stop_position","railway":"stop","ref":"13135","short_name":"Lents Town Center/SE Foster Rd","wikidata":"Q6523402"}},{"type":"node","id":495984021,"lat":45.4680712,"lon":-122.566512,"tags":{"light_rail":"yes","name":"Southeast Flavel Street","network":"TriMet","public_transport":"stop_position","railway":"stop","ref":"13134","short_name":"SE Flavel St","wikidata":"Q7569331"}},{"type":"node","id":542893656,"lat":45.4536468,"lon":-122.5736306,"tags":{"light_rail":"yes","name":"Southeast Fuller Road","network":"TriMet","public_transport":"stop_position","railway":"stop","ref":"13133","short_name":"SE Fuller Rd"}},{"type":"node","id":542893657,"lat":45.4531907,"lon":-122.5736332,"tags":{"light_rail":"yes","name":"Southeast Fuller Road","network":"TriMet","public_transport":"stop_position","railway":"stop","ref":"13130","short_name":"SE Fuller Rd"}},{"type":"node","id":542893658,"lat":45.4676865,"lon":-122.5667675,"tags":{"light_rail":"yes","name":"Southeast Flavel Street","network":"TriMet","public_transport":"stop_position","railway":"stop","ref":"13134","short_name":"SE Flavel St","wikidata":"Q7569331"}},{"type":"node","id":542893659,"lat":45.4801615,"lon":-122.5669137,"tags":{"light_rail":"yes","name":"Lents Town Center/Southeast Foster Road","network":"TriMet","public_transport":"stop_position","railway":"stop","ref":"13128","short_name":"Lents Town Center/SE Foster Rd","wikidata":"Q6523402"}},{"type":"node","id":542893660,"lat":45.4955523,"lon":-122.5662109,"tags":{"light_rail":"yes","name":"Southeast Powell Boulevard","network":"TriMet","public_transport":"stop_position","railway":"stop","ref":"13126","short_name":"SE Powell Blvd"}},{"type":"node","id":662765028,"lat":45.5312793,"lon":-122.6813959,"tags":{"name":"Northwest 10th & Northrup","network":"Portland Streetcar","network:wikidata":"Q1753708","operator":"TriMet","operator:wikidata":"Q1766623","public_transport":"stop_position","railway":"tram_stop","ref":"13604","short_name":"NW 10th & Northrup","tram":"yes"}},{"type":"node","id":663797564,"lat":45.5298101,"lon":-122.6968508,"tags":{"name":"Northwest Lovejoy & 22nd","network":"Portland Streetcar","network:wikidata":"Q1753708","operator":"TriMet","operator:wikidata":"Q1766623","public_transport":"stop_position","railway":"tram_stop","ref":"3596","short_name":"NW Lovejoy & 22nd","tram":"yes"}},{"type":"node","id":664997680,"lat":45.5140685,"lon":-122.564499,"tags":{"light_rail":"yes","name":"Southeast Main Street","network":"TriMet","public_transport":"stop_position","railway":"stop","ref":"13124","short_name":"SE Main St"}},{"type":"node","id":672315498,"lat":45.5095767,"lon":-122.6836597,"tags":{"light_rail":"yes","name":"PSU South/Southwest 6th & College","network":"TriMet","public_transport":"stop_position","railway":"stop","ref":"10293","short_name":"PSU South/SW 6th & College"}},{"type":"node","id":672315819,"lat":45.5115859,"lon":-122.6826041,"tags":{"light_rail":"yes","name":"PSU Urban Center/Southwest 6th & Montgomery","network":"TriMet","public_transport":"stop_position","railway":"stop","ref":"7774","short_name":"PSU Urban Ctr/SW 6th & Montgomery"}},{"type":"node","id":672315951,"lat":45.5116422,"lon":-122.6815168,"tags":{"light_rail":"yes","name":"PSU Urban Center/Southwest 5th & Mill","network":"TriMet","public_transport":"stop_position","railway":"stop","ref":"7618","short_name":"PSU Urban Ctr/SW 5th & Mill"}},{"type":"node","id":672316752,"lat":45.5155406,"lon":-122.6804618,"tags":{"light_rail":"yes","name":"Southwest 6th & Madison","network":"TriMet","public_transport":"stop_position","railway":"stop","ref":"13123","short_name":"SW 6th & Madison","wheelchair":"yes"}},{"type":"node","id":672316925,"lat":45.5149165,"lon":-122.6797061,"tags":{"light_rail":"yes","name":"City Hall/Southwest 5th & Jefferson","network":"TriMet","public_transport":"stop_position","railway":"stop","ref":"7608","short_name":"City Hall/SW 5th & Jefferson","wheelchair":"yes"}},{"type":"node","id":672318134,"lat":45.5189446,"lon":-122.6786563,"tags":{"light_rail":"yes","name":"Pioneer Courthouse/Southwest 6th Avenue","network":"TriMet","public_transport":"stop_position","railway":"stop","ref":"7777","short_name":"Pioneer Courthouse/SW 6th"}},{"type":"node","id":672318277,"lat":45.5182539,"lon":-122.6779261,"tags":{"light_rail":"yes","name":"Pioneer Place/Southwest 5th Avenue","network":"TriMet","public_transport":"stop_position","railway":"stop","ref":"7646","short_name":"Pioneer Place/SW 5th","toilets:wheelchair":"no","wheelchair":"yes"}},{"type":"node","id":672318947,"lat":45.5222731,"lon":-122.6768462,"tags":{"light_rail":"yes","name":"Southwest 6th & Pine","network":"TriMet","public_transport":"stop_position","railway":"stop","ref":"7787","short_name":"SW 6th & Pine","wheelchair":"yes"}},{"type":"node","id":672319067,"lat":45.5243985,"lon":-122.6764612,"tags":{"light_rail":"yes","name":"Northwest 6th & Davis","network":"TriMet","public_transport":"stop_position","railway":"stop","ref":"9299","short_name":"NW 6th & Davis"}},{"type":"node","id":672319076,"lat":45.5216063,"lon":-122.6761052,"tags":{"light_rail":"yes","name":"Southwest 5th & Oak","network":"TriMet","public_transport":"stop_position","railway":"stop","ref":"7627","short_name":"SW 5th & Oak","wheelchair":"yes"}},{"type":"node","id":672319124,"lat":45.5238968,"lon":-122.675456,"tags":{"light_rail":"yes","name":"Northwest 5th & Couch","network":"TriMet","public_transport":"stop_position","railway":"stop","ref":"9303","short_name":"NW 5th & Couch"}},{"type":"node","id":672319137,"lat":45.527248,"lon":-122.6765626,"tags":{"light_rail":"yes","name":"Union Station/Northwest 6th & Hoyt","network":"TriMet","public_transport":"stop_position","railway":"stop","ref":"7763","short_name":"Union Station/NW 6th & Hoyt"}},{"type":"node","id":672319175,"lat":45.5267322,"lon":-122.6755619,"tags":{"bus":"yes","light_rail":"yes","mapillary":"CsnHK5N3ReEymgc7I0km5w","name":"Union Station/Northwest 5th & Glisan","network":"TriMet","public_transport":"stop_position","railway":"stop","ref":"7601","shelter":"yes","short_name":"Union Station/NW 5th & Glisan","survey:date":"2018-07-03"}},{"type":"node","id":757361854,"lat":45.5299421,"lon":-122.6896237,"tags":{"name":"Northwest Lovejoy & 18th","network":"Portland Streetcar","network:wikidata":"Q1753708","operator":"TriMet","operator:wikidata":"Q1766623","public_transport":"stop_position","railway":"tram_stop","ref":"10751","short_name":"NW Lovejoy & 18th","tram":"yes"}},{"type":"node","id":757361961,"lat":45.515091,"lon":-122.6859906,"tags":{"name":"Southwest 11th & Clay","network":"Portland Streetcar","network:wikidata":"Q1753708","operator":"TriMet","operator:wikidata":"Q1766623","public_transport":"stop_position","railway":"tram_stop","ref":"10760","short_name":"SW 11th & Clay","tram":"yes"}},{"type":"node","id":757361978,"lat":45.5298501,"lon":-122.6946997,"tags":{"name":"Northwest Lovejoy & 21st","network":"Portland Streetcar","network:wikidata":"Q1753708","operator":"TriMet","operator:wikidata":"Q1766623","public_transport":"stop_position","railway":"tram_stop","ref":"3595","short_name":"NW Lovejoy & 21st","tram":"yes"}},{"type":"node","id":757361979,"lat":45.5266225,"lon":-122.68228,"tags":{"name":"Northwest 11th & Glisan","network":"Portland Streetcar","network:wikidata":"Q1753708","operator":"TriMet","operator:wikidata":"Q1766623","public_transport":"stop_position","railway":"tram_stop","ref":"10754","short_name":"NW 11th & Glisan","tram":"yes","wheelchair":"yes"}},{"type":"node","id":757361982,"lat":45.5287545,"lon":-122.6823608,"tags":{"name":"Northwest 11th & Johnson","network":"Portland Streetcar","network:wikidata":"Q1753708","operator":"TriMet","operator:wikidata":"Q1766623","public_transport":"stop_position","railway":"tram_stop","ref":"10753","short_name":"NW 11th & Johnson","tram":"yes"}},{"type":"node","id":757361999,"lat":45.5190589,"lon":-122.683838,"tags":{"name":"Southwest 11th & Taylor","network":"Portland Streetcar","network:wikidata":"Q1753708","operator":"TriMet","operator:wikidata":"Q1766623","public_transport":"stop_position","railway":"tram_stop","ref":"9633","short_name":"SW 11th & Alder","tram":"yes","wheelchair":"yes"}},{"type":"node","id":757362007,"lat":45.530022,"lon":-122.6846472,"tags":{"name":"Northwest Lovejoy & 13th","network":"Portland Streetcar","network:wikidata":"Q1753708","operator":"TriMet","operator:wikidata":"Q1766623","public_transport":"stop_position","railway":"tram_stop","ref":"10752","shelter":"yes","short_name":"NW Lovejoy & 13th","tram":"yes"}},{"type":"node","id":757362034,"lat":45.5237922,"lon":-122.682175,"tags":{"name":"Northwest 11th & Couch","network":"Portland Streetcar","network:wikidata":"Q1753708","operator":"TriMet","operator:wikidata":"Q1766623","public_transport":"stop_position","railway":"tram_stop","ref":"10756","short_name":"NW 11th & Couch","tram":"yes","wheelchair":"yes"}},{"type":"node","id":1319523650,"lat":45.5089345,"lon":-122.6830149,"tags":{"light_rail":"yes","name":"PSU South/Southwest 5th & Jackson","network":"TriMet","public_transport":"stop_position","railway":"stop","ref":"7606","short_name":"PSU South/SW 5th & Jackson"}},{"type":"node","id":1319642932,"lat":45.5129127,"lon":-122.6811008,"tags":{"name":"Southwest Market & 5th","network":"Portland Streetcar","network:wikidata":"Q1753708","operator":"TriMet","operator:wikidata":"Q1766623","public_transport":"stop_position","railway":"tram_stop","ref":"10762","short_name":"SW Market & 5th","tram":"yes"}},{"type":"node","id":1321040831,"lat":45.5315127,"lon":-122.6833071,"tags":{"name":"Northwest Northrup & 12th","network":"Portland Streetcar","network:wikidata":"Q1753708","operator":"TriMet","operator:wikidata":"Q1766623","public_transport":"stop_position","railway":"tram_stop","ref":"12796","short_name":"NW Northrup & 12th","tram":"yes"}},{"type":"node","id":1322768353,"lat":45.5087955,"lon":-122.6766055,"tags":{"name":"Southwest Harrison Street","network":"Portland Streetcar","network:wikidata":"Q1753708","operator":"TriMet","operator:wikidata":"Q1766623","public_transport":"stop_position","railway":"tram_stop","ref":"12377","short_name":"SW Harrison St","tram":"yes"}},{"type":"node","id":1322768921,"lat":45.5089518,"lon":-122.6764987,"tags":{"name":"Southwest Harrison Street","network":"Portland Streetcar","network:wikidata":"Q1753708","operator":"TriMet","operator:wikidata":"Q1766623","public_transport":"stop_position","railway":"tram_stop","ref":"12380","short_name":"SW Harrison St","tram":"yes"}},{"type":"node","id":1360131340,"lat":45.5130257,"lon":-122.6845646,"tags":{"name":"Southwest Mill & Park","network":"Portland Streetcar","network:wikidata":"Q1753708","operator":"TriMet","operator:wikidata":"Q1766623","public_transport":"stop_position","railway":"tram_stop","ref":"10766","short_name":"SW Mill & Park","tram":"yes"}},{"type":"node","id":1396503203,"lat":45.4355487,"lon":-122.5677808,"tags":{"light_rail":"yes","name":"Clackamas Town Center Transit Center","network":"TriMet","public_transport":"stop_position","railway":"stop","ref":"13132","short_name":"Clackamas Town Center TC"}},{"type":"node","id":1396503204,"lat":45.4359115,"lon":-122.567766,"tags":{"light_rail":"yes","name":"Clackamas Town Center Transit Center","network":"TriMet","public_transport":"stop_position","railway":"stop","ref":"13132","short_name":"Clackamas Town Center TC"}},{"type":"node","id":1400506514,"lat":45.5306946,"lon":-122.658664,"tags":{"name":"Northeast 7th & Holladay","network":"Portland Streetcar","network:wikidata":"Q1753708","operator":"TriMet","operator:wikidata":"Q1766623","public_transport":"stop_position","railway":"tram_stop","ref":"13611","short_name":"NE 7th & Holladay","tram":"yes"}},{"type":"node","id":1400506589,"lat":45.5344717,"lon":-122.6695239,"tags":{"name":"North Broadway & Ross","network":"Portland Streetcar","public_transport":"stop_position","railway":"tram_stop","ref":"13619","short_name":"N Broadway & Ross","tram":"yes"}},{"type":"node","id":1410412542,"lat":45.5233663,"lon":-122.6618203,"tags":{"name":"Northeast Martin Luther King & East Burnside","network":"Portland Streetcar","network:wikidata":"Q1753708","operator":"TriMet","operator:wikidata":"Q1766623","public_transport":"stop_position","railway":"tram_stop","ref":"5901","short_name":"NE MLK & E Burnside","tram":"yes"}},{"type":"node","id":1490941684,"lat":45.5032588,"lon":-122.6727539,"tags":{"name":"South Moody & Meade","network":"Portland Streetcar","network:wikidata":"Q1753708","operator":"TriMet","operator:wikidata":"Q1766623","public_transport":"stop_position","railway":"tram_stop","ref":"13602","short_name":"S Moody & Meade","tram":"yes"}},{"type":"node","id":1563025716,"lat":45.5145512,"lon":-122.6850152,"tags":{"name":"Southwest 10th & Clay","network":"Portland Streetcar","network:wikidata":"Q1753708","operator":"TriMet","operator:wikidata":"Q1766623","public_transport":"stop_position","railway":"tram_stop","ref":"10765","short_name":"SW 10th & Clay","tram":"yes"}},{"type":"node","id":1563025721,"lat":45.5165293,"lon":-122.683944,"tags":{"name":"Art Museum","network":"Portland Streetcar","network:wikidata":"Q1753708","operator":"TriMet","operator:wikidata":"Q1766623","public_transport":"stop_position","railway":"tram_stop","ref":"6493","tram":"yes"}},{"type":"node","id":1563025723,"lat":45.5192303,"lon":-122.682482,"tags":{"name":"Central Library","network":"Portland Streetcar","network:wikidata":"Q1753708","operator":"TriMet","operator:wikidata":"Q1766623","public_transport":"stop_position","railway":"tram_stop","ref":"10767","tram":"yes","wheelchair":"yes"}},{"type":"node","id":1663754774,"lat":45.5096608,"lon":-122.6619515,"tags":{"name":"Southeast Martin Luther King & Mill","network":"Portland Streetcar","network:wikidata":"Q1753708","operator":"TriMet","operator:wikidata":"Q1766623","public_transport":"stop_position","railway":"tram_stop","ref":"5933","short_name":"SE MLK & Mill","tram":"yes"}},{"type":"node","id":1663754886,"lat":45.5128376,"lon":-122.6607273,"tags":{"name":"Southeast Grand & Hawthorne","network":"Portland Streetcar","network:wikidata":"Q1753708","operator":"TriMet","operator:wikidata":"Q1766623","public_transport":"stop_position","railway":"tram_stop","ref":"13616","short_name":"SE Grand & Hawthorne","tram":"yes"}},{"type":"node","id":1663754909,"lat":45.5149926,"lon":-122.6607149,"tags":{"name":"Southeast Grand & Taylor","network":"Portland Streetcar","network:wikidata":"Q1753708","operator":"TriMet","operator:wikidata":"Q1766623","public_transport":"stop_position","railway":"tram_stop","ref":"11483","short_name":"SE Grand & Taylor","tram":"yes"}},{"type":"node","id":1663754910,"lat":45.5146794,"lon":-122.6618858,"tags":{"name":"Southeast Martin Luther King & Taylor","network":"Portland Streetcar","network:wikidata":"Q1753708","operator":"TriMet","operator:wikidata":"Q1766623","public_transport":"stop_position","railway":"tram_stop","ref":"13585","short_name":"SE MLK & Taylor","tram":"yes"}},{"type":"node","id":1663755010,"lat":45.5169499,"lon":-122.6618988,"tags":{"name":"Southeast Martin Luther King & Morrison","network":"Portland Streetcar","network:wikidata":"Q1753708","operator":"TriMet","operator:wikidata":"Q1766623","public_transport":"stop_position","railway":"tram_stop","ref":"13584","short_name":"SE MLK & Morrison","tram":"yes"}},{"type":"node","id":1663755011,"lat":45.5168643,"lon":-122.6606727,"tags":{"name":"Southeast Grand & Belmont","network":"Portland Streetcar","network:wikidata":"Q1753708","operator":"TriMet","operator:wikidata":"Q1766623","public_transport":"stop_position","railway":"tram_stop","ref":"11484","short_name":"SE Grand & Belmont","tram":"yes"}},{"type":"node","id":1663755125,"lat":45.527527,"lon":-122.660633,"tags":{"name":"Northeast Grand & Hoyt","network":"Portland Streetcar","public_transport":"stop_position","railway":"tram_stop","ref":"2169","short_name":"NE Grand & Hoyt","tram":"yes"}},{"type":"node","id":1663755383,"lat":45.5297387,"lon":-122.6606151,"tags":{"name":"Northeast Grand & Holladay","network":"Portland Streetcar","public_transport":"stop_position","railway":"tram_stop","ref":"2175","short_name":"NE Grand & Holladay","tram":"yes","wheelchair":"yes"}},{"type":"node","id":1663755427,"lat":45.5318619,"lon":-122.6605979,"tags":{"name":"Northeast Grand & Multnomah","network":"Portland Streetcar","public_transport":"stop_position","railway":"tram_stop","ref":"9343","short_name":"NE Grand & Multnomah","tram":"yes"}},{"type":"node","id":1703213395,"lat":45.5205607,"lon":-122.681762,"tags":{"name":"Southwest 10th & Alder","network":"Portland Streetcar","network:wikidata":"Q1753708","operator":"TriMet","operator:wikidata":"Q1766623","public_transport":"stop_position","railway":"tram_stop","ref":"10768","short_name":"SW 10th & Alder","tram":"yes"}},{"type":"node","id":1703229069,"lat":45.5235961,"lon":-122.681118,"tags":{"name":"Northwest 10th & Couch","network":"Portland Streetcar","network:wikidata":"Q1753708","operator":"TriMet","operator:wikidata":"Q1766623","public_transport":"stop_position","railway":"tram_stop","ref":"10770","short_name":"NW 10th & Couch","tram":"yes"}},{"type":"node","id":1703250163,"lat":45.5264486,"lon":-122.681223,"tags":{"name":"Northwest 10th & Glisan","network":"Portland Streetcar","network:wikidata":"Q1753708","operator":"TriMet","operator:wikidata":"Q1766623","public_transport":"stop_position","railway":"tram_stop","ref":"10772","short_name":"NW 10th & Glisan","tram":"yes"}},{"type":"node","id":1703250173,"lat":45.5285765,"lon":-122.681298,"tags":{"name":"Northwest 10th & Johnson","network":"Portland Streetcar","network:wikidata":"Q1753708","operator":"TriMet","operator:wikidata":"Q1766623","public_transport":"stop_position","railway":"tram_stop","ref":"10773","short_name":"NW 10th & Johnson","tram":"yes"}},{"type":"node","id":1703287998,"lat":45.5314745,"lon":-122.6853485,"tags":{"name":"Northwest Northrup & 14th","network":"Portland Streetcar","network:wikidata":"Q1753708","operator":"TriMet","operator:wikidata":"Q1766623","public_transport":"stop_position","railway":"tram_stop","ref":"10775","short_name":"NW Northrup & 14th","tram":"yes"}},{"type":"node","id":1703288000,"lat":45.5314,"lon":-122.6894137,"tags":{"name":"Northwest Northrup & 18th","network":"Portland Streetcar","network:wikidata":"Q1753708","operator":"TriMet","operator:wikidata":"Q1766623","public_transport":"stop_position","railway":"tram_stop","ref":"10776","short_name":"NW Northrup & 18th","tram":"yes"}},{"type":"node","id":1703302523,"lat":45.5313102,"lon":-122.6944699,"tags":{"name":"Northwest Northrup & 21st","network":"Portland Streetcar","network:wikidata":"Q1753708","operator":"TriMet","operator:wikidata":"Q1766623","public_transport":"stop_position","railway":"tram_stop","ref":"10777","short_name":"NW Northrup & 21st","tram":"yes"}},{"type":"node","id":1703374519,"lat":45.5312717,"lon":-122.6964589,"tags":{"name":"Northwest Northrup & 22nd","network":"Portland Streetcar","network:wikidata":"Q1753708","operator":"TriMet","operator:wikidata":"Q1766623","public_transport":"stop_position","railway":"tram_stop","ref":"10778","short_name":"NW Northrup & 22nd","tram":"yes"}},{"type":"node","id":1703503379,"lat":45.516453,"lon":-122.6852511,"tags":{"name":"Southwest 11th & Jefferson","network":"Portland Streetcar","network:wikidata":"Q1753708","operator":"TriMet","operator:wikidata":"Q1766623","public_transport":"stop_position","railway":"tram_stop","ref":"10759","short_name":"SW 11th & Jefferson","tram":"yes"}},{"type":"node","id":1703571047,"lat":45.5117699,"lon":-122.6813427,"tags":{"name":"Southwest 5th & Montgomery","network":"Portland Streetcar","network:wikidata":"Q1753708","operator":"TriMet","operator:wikidata":"Q1766623","public_transport":"stop_position","railway":"tram_stop","ref":"10763","short_name":"SW 5th & Montgomery","tram":"yes"}},{"type":"node","id":1703574108,"lat":45.5122201,"lon":-122.6821135,"tags":{"name":"PSU Urban Center","network":"Portland Streetcar","network:wikidata":"Q1753708","operator":"TriMet","operator:wikidata":"Q1766623","public_transport":"stop_position","railway":"tram_stop","ref":"10764","tram":"yes","wheelchair":"yes","wikidata":"Q7120773"}},{"type":"node","id":1703605520,"lat":45.5101927,"lon":-122.6796412,"tags":{"name":"Southwest Harrison & 3rd","network":"Portland Streetcar","network:wikidata":"Q1753708","operator":"TriMet","operator:wikidata":"Q1766623","public_transport":"stop_position","railway":"tram_stop","ref":"12375","short_name":"SW Harrison & 3rd","tram":"yes"}},{"type":"node","id":1703605522,"lat":45.5102988,"lon":-122.6798079,"tags":{"name":"Southwest Harrison & 3rd","network":"Portland Streetcar","network:wikidata":"Q1753708","operator":"TriMet","operator:wikidata":"Q1766623","public_transport":"stop_position","railway":"tram_stop","ref":"12382","short_name":"SW Harrison & 3rd","tram":"yes","wheelchair":"yes"}},{"type":"node","id":1709349974,"lat":45.4993155,"lon":-122.6717981,"tags":{"name":"South Moody & Gibbs","network":"Portland Streetcar","network:wikidata":"Q1753708","operator":"TriMet","operator:wikidata":"Q1766623","public_transport":"stop_position","railway":"tram_stop","ref":"12760","short_name":"S Moody & Gibbs","tram":"yes","website":"https://portlandstreetcar.org","wheelchair":"yes"}},{"type":"node","id":1709349975,"lat":45.5070458,"lon":-122.6739266,"tags":{"name":"South River Parkway & Moody","network":"Portland Streetcar","network:wikidata":"Q1753708","operator":"TriMet","operator:wikidata":"Q1766623","public_transport":"stop_position","railway":"tram_stop","ref":"12378","short_name":"S River Pkwy & Moody","tram":"yes"}},{"type":"node","id":1709349976,"lat":45.5071599,"lon":-122.6741259,"tags":{"name":"South River Parkway & Moody","network":"Portland Streetcar","network:wikidata":"Q1753708","operator":"TriMet","operator:wikidata":"Q1766623","public_transport":"stop_position","railway":"tram_stop","ref":"12379","short_name":"S River Pkwy & Moody","tram":"yes"}},{"type":"node","id":1709355508,"lat":45.4955959,"lon":-122.6709111,"tags":{"name":"South Bond & Lane","network":"Portland Streetcar","network:wikidata":"Q1753708","operator":"TriMet","operator:wikidata":"Q1766623","public_transport":"stop_position","railway":"tram_stop","ref":"12882","short_name":"S Bond & Lane","tram":"yes","website":"https://portlandstreetcar.org","wheelchair":"yes"}},{"type":"node","id":1709355509,"lat":45.493915,"lon":-122.6713768,"tags":{"name":"South Lowell & Bond","network":"Portland Streetcar","network:wikidata":"Q1753708","operator":"TriMet","operator:wikidata":"Q1766623","public_transport":"stop_position","railway":"tram_stop","ref":"12881","short_name":"S Lowell & Bond","tram":"yes","website":"https://portlandstreetcar.org","wheelchair":"yes"}},{"type":"node","id":1709355510,"lat":45.4961849,"lon":-122.671918,"tags":{"name":"South Moody & Gaines","network":"Portland Streetcar","network:wikidata":"Q1753708","operator":"TriMet","operator:wikidata":"Q1766623","public_transport":"stop_position","railway":"tram_stop","ref":"12880","short_name":"S Moody & Gaines","tram":"yes","website":"https://portlandstreetcar.org","wheelchair":"yes"}},{"type":"node","id":1930611816,"lat":45.5273566,"lon":-122.6617844,"tags":{"name":"Northeast Martin Luther King & Hoyt","network":"Portland Streetcar","public_transport":"stop_position","railway":"tram_stop","ref":"5912","short_name":"NE MLK & Hoyt","tram":"yes"}},{"type":"node","id":1930611819,"lat":45.5286472,"lon":-122.6605214,"tags":{"name":"Northeast Oregon & Grand","network":"Portland Streetcar","public_transport":"stop_position","railway":"tram_stop","ref":"13612","short_name":"NE Oregon & Grand","tram":"yes","wheelchair":"yes"}},{"type":"node","id":1930611822,"lat":45.5227887,"lon":-122.6606633,"tags":{"name":"Southeast Grand & East Burnside","network":"Portland Streetcar","network:wikidata":"Q1753708","operator":"TriMet","operator:wikidata":"Q1766623","public_transport":"stop_position","railway":"tram_stop","ref":"2167","short_name":"SE Grand & E Burnside","tram":"yes"}},{"type":"node","id":1931216411,"lat":45.5191123,"lon":-122.6618535,"tags":{"name":"Southeast Martin Luther King & Stark","network":"Portland Streetcar","network:wikidata":"Q1753708","operator":"TriMet","operator:wikidata":"Q1766623","public_transport":"stop_position","railway":"tram_stop","ref":"13613","short_name":"SE MLK & Stark","tram":"yes"}},{"type":"node","id":1931216415,"lat":45.5333282,"lon":-122.6586373,"tags":{"name":"Northeast 7th & Halsey","network":"Portland Streetcar","public_transport":"stop_position","railway":"tram_stop","ref":"13610","short_name":"NE 7th & Halsey","tram":"yes"}},{"type":"node","id":1931216527,"lat":45.5350568,"lon":-122.6635296,"tags":{"name":"Northeast Broadway & 2nd","network":"Portland Streetcar","public_transport":"stop_position","railway":"tram_stop","ref":"13618","short_name":"NE Broadway & 2nd","tram":"yes"}},{"type":"node","id":1931216545,"lat":45.5343909,"lon":-122.6602728,"tags":{"name":"Northeast Weidler & Grand","network":"Portland Streetcar","public_transport":"stop_position","railway":"tram_stop","ref":"13609","short_name":"NE Weidler & Grand","tram":"yes"}},{"type":"node","id":1931216552,"lat":45.534797,"lon":-122.6605783,"tags":{"name":"Northeast Grand & Broadway","network":"Portland Streetcar","public_transport":"stop_position","railway":"tram_stop","ref":"13617","short_name":"NE Grand & Broadway","tram":"yes"}},{"type":"node","id":1931216566,"lat":45.5125138,"lon":-122.661939,"tags":{"name":"Southeast Martin Luther King & Hawthorne","network":"Portland Streetcar","network:wikidata":"Q1753708","operator":"TriMet","operator:wikidata":"Q1766623","public_transport":"stop_position","railway":"tram_stop","ref":"13614","short_name":"SE MLK & Hawthorne","tram":"yes"}},{"type":"node","id":1931216587,"lat":45.5099863,"lon":-122.660738,"tags":{"name":"Southeast Grand & Mill","network":"Portland Streetcar","network:wikidata":"Q1753708","operator":"TriMet","operator:wikidata":"Q1766623","public_transport":"stop_position","railway":"tram_stop","ref":"2171","short_name":"SE Grand & Mill","tram":"yes"}},{"type":"node","id":1957284975,"lat":45.5309149,"lon":-122.6824383,"tags":{"name":"Northwest 11th & Marshall","network":"Portland Streetcar","network:wikidata":"Q1753708","operator":"TriMet","operator:wikidata":"Q1766623","public_transport":"stop_position","railway":"tram_stop","ref":"13620","short_name":"NW 11th & Marshall","tram":"yes"}},{"type":"node","id":1957284983,"lat":45.5300778,"lon":-122.680515,"tags":{"name":"Northwest Lovejoy & 9th","network":"Portland Streetcar","network:wikidata":"Q1753708","operator":"TriMet","operator:wikidata":"Q1766623","public_transport":"stop_position","railway":"tram_stop","ref":"13606","short_name":"NW Lovejoy & 9th","tram":"yes"}},{"type":"node","id":1957295354,"lat":45.5344103,"lon":-122.6692235,"tags":{"name":"North Weidler & Ross","network":"Portland Streetcar","public_transport":"stop_position","railway":"tram_stop","ref":"13607","short_name":"N Weidler & Ross","tram":"yes"}},{"type":"node","id":1957320769,"lat":45.534406,"lon":-122.6638298,"tags":{"name":"Northeast Weidler & 2nd","network":"Portland Streetcar","public_transport":"stop_position","railway":"tram_stop","ref":"13608","short_name":"NE Weidler & 2nd","tram":"yes"}},{"type":"node","id":1957365042,"lat":45.5196266,"lon":-122.660686,"tags":{"name":"Southeast Grand & Stark","network":"Portland Streetcar","network:wikidata":"Q1753708","operator":"TriMet","operator:wikidata":"Q1766623","public_transport":"stop_position","railway":"tram_stop","ref":"13597","short_name":"SE Grand & Stark","tram":"yes"}},{"type":"node","id":2825599584,"lat":45.4751329,"lon":-122.6400263,"tags":{"light_rail":"yes","name":"Southeast Bybee Boulevard","network":"TriMet","operator":"TriMet","public_transport":"stop_position","railway":"stop","ref":"13723","short_name":"SE Bybee Blvd","wikidata":"Q20861665"}},{"type":"node","id":2825600065,"lat":45.4911591,"lon":-122.6484452,"tags":{"light_rail":"yes","name":"Southeast 17th Avenue & Holgate Boulevard","network":"TriMet","operator":"TriMet","public_transport":"stop_position","railway":"stop","ref":"13724","short_name":"SE 17th Ave & Holgate Blvd","wikidata":"Q20967691"}},{"type":"node","id":2825601233,"lat":45.5066415,"lon":-122.6630209,"tags":{"light_rail":"yes","name":"OMSI/Southeast Water","network":"TriMet","operator":"TriMet","public_transport":"stop_position","railway":"stop","ref":"13727","short_name":"OMSI/SE Water","wheelchair":"yes"}},{"type":"node","id":3411122112,"lat":45.5064613,"lon":-122.6625046,"tags":{"light_rail":"yes","name":"OMSI/Southeast Water","network":"TriMet","operator":"TriMet","operator:wikidata":"Q1766623","public_transport":"stop_position","railway":"stop","ref":"13712","short_name":"OMSI/SE Water"}},{"type":"node","id":3411122113,"lat":45.5070744,"lon":-122.6633303,"tags":{"name":"Southeast Water/OMSI","network":"Portland Streetcar","network:wikidata":"Q1753708","operator":"TriMet","operator:wikidata":"Q1766623","public_transport":"stop_position","railway":"tram_stop","ref":"13615","short_name":"SE Water/OMSI","tram":"yes"}},{"type":"node","id":3411122114,"lat":45.5069873,"lon":-122.6634103,"tags":{"name":"Southeast Water/OMSI","network":"Portland Streetcar","network:wikidata":"Q1753708","operator":"TriMet","operator:wikidata":"Q1766623","public_transport":"stop_position","railway":"tram_stop","ref":"13709","short_name":"SE Water/OMSI","tram":"yes"}},{"type":"node","id":3415126977,"lat":45.4976197,"lon":-122.6482231,"tags":{"light_rail":"yes","name":"Southeast 17th Avenue & Rhine Street","network":"TriMet","operator":"TriMet","public_transport":"stop_position","railway":"stop","ref":"13714","short_name":"SE 17th Ave & Rhine St"}},{"type":"node","id":3416337825,"lat":45.4906281,"lon":-122.6485869,"tags":{"light_rail":"yes","name":"Southeast 17th Avenue & Holgate Boulevard","network":"TriMet","operator":"TriMet","public_transport":"stop_position","railway":"stop","ref":"13715","short_name":"SE 17th Ave & Holgate Blvd"}},{"type":"node","id":3741857969,"lat":45.5079666,"lon":-122.6808632,"tags":{"light_rail":"yes","name":"Lincoln Street/Southwest 3rd Avenue","network":"TriMet","public_transport":"stop_position","railway":"stop","ref":"13729","short_name":"Lincoln St/SW 3rd Ave"}},{"type":"node","id":3741857970,"lat":45.5078845,"lon":-122.6801806,"tags":{"light_rail":"yes","name":"Lincoln Street/Southwest 3rd Avenue","network":"TriMet","public_transport":"stop_position","railway":"stop","ref":"13710","short_name":"Lincoln St/SW 3rd Ave"}},{"type":"node","id":3742183367,"lat":45.5027382,"lon":-122.6715628,"tags":{"light_rail":"yes","name":"South Waterfront/South Moody","network":"TriMet","public_transport":"stop_position","railway":"stop","ref":"13728","short_name":"South Waterfront/S Moody"}},{"type":"node","id":3742183368,"lat":45.5026822,"lon":-122.6711177,"tags":{"light_rail":"yes","name":"South Waterfront/South Moody","network":"TriMet","public_transport":"stop_position","railway":"stop","ref":"13711","short_name":"South Waterfront/S Moody"}},{"type":"node","id":3743105671,"lat":45.4625944,"lon":-122.637416,"tags":{"light_rail":"yes","name":"Southeast Tacoma/Johnson Creek","network":"TriMet","operator":"TriMet","public_transport":"stop_position","railway":"stop","ref":"13717","short_name":"SE Tacoma/Johnson Creek","wikidata":"Q19877749"}},{"type":"node","id":3743105672,"lat":45.4409633,"lon":-122.640122,"tags":{"light_rail":"yes","name":"Milwaukie/Main Street","network":"TriMet","operator":"TriMet","public_transport":"stop_position","railway":"stop","ref":"13718","short_name":"Milwaukie/Main St","wikidata":"Q20992427"}},{"type":"node","id":3743105673,"lat":45.4630266,"lon":-122.6378647,"tags":{"light_rail":"yes","name":"Southeast Tacoma/Johnson Creek","network":"TriMet","operator":"TriMet","public_transport":"stop_position","railway":"stop","ref":"13722","short_name":"SE Tacoma/Johnson Creek","wikidata":"Q19877749"}},{"type":"node","id":3743105674,"lat":45.4307419,"lon":-122.6350371,"tags":{"light_rail":"yes","name":"Southeast Park Avenue","network":"TriMet","operator":"TriMet","public_transport":"stop_position","railway":"stop","ref":"13720","short_name":"SE Park Ave"}},{"type":"node","id":3743105675,"lat":45.5025888,"lon":-122.6530073,"tags":{"light_rail":"yes","name":"Clinton Street/Southeast 12th Avenue","network":"TriMet","operator":"TriMet","public_transport":"stop_position","railway":"stop","ref":"13713","short_name":"Clinton St/SE 12th Ave"}},{"type":"node","id":3743105676,"lat":45.5029833,"lon":-122.6535249,"tags":{"light_rail":"yes","name":"Clinton Street/Southeast 12th Avenue","network":"TriMet","operator":"TriMet","public_transport":"stop_position","railway":"stop","ref":"13726","short_name":"Clinton St/SE 12th Ave","wikidata":"Q20967589"}},{"type":"node","id":3743105677,"lat":45.498151,"lon":-122.6481198,"tags":{"light_rail":"yes","name":"Southeast 17th Avenue & Rhine Street","network":"TriMet","operator":"TriMet","public_transport":"stop_position","railway":"stop","ref":"13725","short_name":"SE 17th Ave & Rhine St","wikidata":"Q20967692"}},{"type":"node","id":3743105678,"lat":45.4746345,"lon":-122.6400239,"tags":{"light_rail":"yes","name":"Southeast Bybee Boulevard","network":"TriMet","operator":"TriMet","public_transport":"stop_position","railway":"stop","ref":"13716","short_name":"SE Bybee Blvd","wikidata":"Q20861665"}},{"type":"node","id":3743105680,"lat":45.4307417,"lon":-122.6351311,"tags":{"light_rail":"yes","name":"Southeast Park Avenue","network":"TriMet","operator":"TriMet","public_transport":"stop_position","railway":"stop","ref":"13720","short_name":"SE Park Ave"}},{"type":"node","id":3743105681,"lat":45.4414379,"lon":-122.6397779,"tags":{"light_rail":"yes","name":"Milwaukie/Main Street","network":"TriMet","operator":"TriMet","public_transport":"stop_position","railway":"stop","ref":"13721","short_name":"Milwaukie/Main St"}},{"type":"node","id":4868430205,"lat":45.501679,"lon":-122.4181878,"tags":{"light_rail":"yes","name":"Cleveland Avenue","network":"TriMet","public_transport":"stop_position","railway":"stop","ref":"8359","short_name":"Cleveland Ave"}},{"type":"node","id":5227169495,"lat":45.5202954,"lon":-122.6721817,"tags":{"light_rail":"yes","name":"Oak Street/Southwest 1st Avenue","network":"TriMet","public_transport":"stop_position","railway":"stop","ref":"8337","short_name":"Oak St/SW 1st Ave"}},{"type":"node","id":1491831374,"lat":45.4929924,"lon":-122.6720978,"tags":{"name":"Bancroft Street","operator":"Willamette Shore Trolley","public_transport":"stop_position","railway":"tram_stop","tram":"yes","website":"https://wst.oregontrolley.com/"}},{"type":"node","id":1491831375,"lat":45.4187834,"lon":-122.6627274,"tags":{"name":"Willamette Shore Trolley Lake Oswego Station","operator":"Willamette Shore Trolley","public_transport":"stop_position","railway":"tram_stop","tram":"yes","website":"https://wst.oregontrolley.com/"}},{"type":"node","id":7120424838,"lat":45.4914684,"lon":-122.8014368,"tags":{"light_rail":"yes","name":"Beaverton Transit Center","network":"TriMet","public_transport":"station","railway":"halt","ref":"13066","short_name":"Beaverton TC","station":"light_rail","wikidata":"Q4878275","wikipedia":"en:Beaverton Transit Center"}},{"type":"node","id":8522734688,"lat":45.5223016,"lon":-122.5106658,"tags":{"light_rail":"yes","name":"East 148th Avenue","network":"TriMet","public_transport":"station","railway":"halt","short_name":"E 148th Ave","station":"light_rail"}},{"type":"node","id":8522734689,"lat":45.5099691,"lon":-122.8514852,"tags":{"light_rail":"yes","name":"Elmonica/Southwest 170th Avenue","network":"TriMet","public_transport":"station","railway":"halt","short_name":"Elmonica/SW 170th Ave","station":"light_rail","wheelchair":"yes","wikidata":"Q5366864","wikipedia":"en:Elmonica/Southwest 170th Avenue station"}},{"type":"node","id":8522734690,"lat":45.5172238,"lon":-122.6745525,"tags":{"light_rail":"yes","name":"Yamhill District","network":"TriMet","public_transport":"station","railway":"halt","station":"light_rail","wheelchair":"yes"}},{"type":"node","id":8522734691,"lat":45.5301783,"lon":-122.6678006,"tags":{"light_rail":"yes","name":"Interstate/Rose Quarter","network":"TriMet","public_transport":"station","railway":"halt","station":"light_rail","wheelchair":"yes"}},{"type":"node","id":8522734692,"lat":45.511822,"lon":-122.6814637,"tags":{"bus":"yes","light_rail":"yes","name":"PSU Urban Center/Southwest 5th & Mill","network":"TriMet","public_transport":"station","railway":"halt","short_name":"PSU Urban Ctr/SW 5th & Mill","station":"light_rail"}},{"type":"node","id":8522734693,"lat":45.5300971,"lon":-122.6540363,"tags":{"light_rail":"yes","name":"Lloyd Center/Northeast 11th Avenue","network":"TriMet","public_transport":"station","railway":"halt","short_name":"Lloyd Center/NE 11th Ave","station":"light_rail"}},{"type":"node","id":8522734694,"lat":45.5205475,"lon":-122.4707867,"tags":{"light_rail":"yes","name":"Rockwood/East 188th Avenue","network":"TriMet","public_transport":"station","railway":"halt","short_name":"Rockwood/E 188th Ave","station":"light_rail"}},{"type":"node","id":8522734695,"lat":45.5026025,"lon":-122.4270288,"tags":{"light_rail":"yes","name":"Gresham Central Transit Center","network":"TriMet","public_transport":"station","railway":"halt","short_name":"Gresham Central TC","station":"light_rail"}},{"type":"node","id":8522734696,"lat":45.517249,"lon":-122.8701809,"tags":{"light_rail":"yes","name":"Willow Creek/Southwest 185th Avenue Transit Center","network":"TriMet","public_transport":"station","railway":"halt","short_name":"Willow Creek/SW 185th Ave TC","station":"light_rail","wheelchair":"yes","wikidata":"Q8022288","wikipedia":"en:Willow Creek/Southwest 185th Avenue Transit Center"}},{"type":"node","id":8522734697,"lat":45.5231854,"lon":-122.8887705,"tags":{"light_rail":"yes","name":"Quatama","network":"TriMet","public_transport":"station","railway":"halt","station":"light_rail","wikidata":"Q7269549","wikipedia":"en:Quatama station"}},{"type":"node","id":8522734699,"lat":45.5200893,"lon":-122.6723502,"tags":{"light_rail":"yes","name":"Oak Street/Southwest 1st Avenue","network":"TriMet","public_transport":"station","railway":"halt","short_name":"Oak St/SW 1st Ave","station":"light_rail"}},{"type":"node","id":8522734700,"lat":45.5226426,"lon":-122.5582557,"tags":{"light_rail":"yes","name":"East 102nd Avenue","network":"TriMet","public_transport":"station","railway":"halt","short_name":"E 102nd Ave","station":"light_rail"}},{"type":"node","id":8522734701,"lat":45.5875578,"lon":-122.5930964,"tags":{"light_rail":"yes","name":"Portland International Airport","network":"TriMet","public_transport":"station","railway":"halt","station":"light_rail","toilets:wheelchair":"yes","wheelchair":"yes"}},{"type":"node","id":8522734703,"lat":45.5302858,"lon":-122.9158515,"tags":{"light_rail":"yes","name":"Orenco","network":"TriMet","public_transport":"station","railway":"halt","station":"light_rail","wheelchair":"yes","wikidata":"Q7101572","wikipedia":"en:Orenco station (TriMet)"}},{"type":"node","id":8522734704,"lat":45.5181129,"lon":-122.6938338,"tags":{"light_rail":"yes","name":"Goose Hollow/Southwest Jefferson Street","network":"TriMet","public_transport":"station","railway":"halt","short_name":"Goose Hollow/SW Jefferson St","station":"light_rail","wheelchair":"yes"}},{"type":"node","id":8522734705,"lat":45.526964,"lon":-122.6756135,"tags":{"bus":"yes","light_rail":"yes","name":"Union Station/Northwest 5th & Glisan","network":"TriMet","public_transport":"station","railway":"halt","short_name":"Union Station/NW 5th & Glisan","station":"light_rail"}},{"type":"node","id":8522734706,"lat":45.5185774,"lon":-122.6794297,"tags":{"light_rail":"yes","name":"Pioneer Square South","network":"TriMet","public_transport":"station","railway":"halt","station":"light_rail","wheelchair":"yes"}},{"type":"node","id":8522734707,"lat":45.5301488,"lon":-122.6652951,"tags":{"light_rail":"yes","name":"Rose Quarter Transit Center","network":"TriMet","public_transport":"station","railway":"halt","short_name":"Rose Quarter TC","station":"light_rail"}},{"type":"node","id":8522734708,"lat":45.5052289,"lon":-122.842153,"tags":{"light_rail":"yes","name":"Merlo Road/Southwest 158th Avenue","network":"TriMet","public_transport":"station","railway":"halt","short_name":"Merlo Rd/SW 158th Ave","station":"light_rail","wheelchair":"yes","wikidata":"Q6819818","wikipedia":"en:Merlo Road/Southwest 158th Avenue station"}},{"type":"node","id":8522734709,"lat":45.514286,"lon":-122.564445,"tags":{"light_rail":"yes","name":"Southeast Main Street","network":"TriMet","public_transport":"station","railway":"halt","short_name":"SE Main St","station":"light_rail"}},{"type":"node","id":8522734710,"lat":45.5004065,"lon":-122.8330307,"tags":{"light_rail":"yes","name":"Beaverton Creek","network":"TriMet","public_transport":"station","railway":"halt","station":"light_rail","wikidata":"Q4878269","wikipedia":"en:Beaverton Creek station"}},{"type":"node","id":8522734711,"lat":45.5215881,"lon":-122.6903211,"tags":{"light_rail":"yes","name":"Providence Park","network":"TriMet","public_transport":"station","railway":"halt","station":"light_rail"}},{"type":"node","id":8522734712,"lat":45.5017757,"lon":-122.4185211,"tags":{"light_rail":"yes","name":"Cleveland Avenue","network":"TriMet","public_transport":"station","railway":"halt","short_name":"Cleveland Ave","station":"light_rail"}},{"type":"node","id":8522734713,"lat":45.5220153,"lon":-122.4771042,"tags":{"light_rail":"yes","name":"East 181st Avenue","network":"TriMet","public_transport":"station","railway":"halt","short_name":"E 181st Ave","station":"light_rail"}},{"type":"node","id":8522734714,"lat":45.5102594,"lon":-122.7810347,"tags":{"light_rail":"yes","name":"Sunset Transit Center","network":"TriMet","public_transport":"station","railway":"halt","short_name":"Sunset TC","station":"light_rail","wheelchair":"yes"}},{"type":"node","id":8522734716,"lat":45.4910846,"lon":-122.5662811,"tags":{"light_rail":"yes","name":"Southeast Holgate Boulevard","network":"TriMet","public_transport":"station","railway":"halt","short_name":"SE Holgate Blvd","station":"light_rail","wikidata":"Q7569347"}},{"type":"node","id":8522750822,"lat":45.6054076,"lon":-122.685619,"tags":{"light_rail":"yes","name":"Expo Center","network":"TriMet","public_transport":"station","railway":"halt","ref":"11498","station":"light_rail","wheelchair":"yes"}},{"type":"node","id":8522750823,"lat":45.59612,"lon":-122.6856392,"tags":{"light_rail":"yes","name":"Delta Park/Vanport","network":"TriMet","public_transport":"station","railway":"halt","ref":"11499","station":"light_rail"}},{"type":"node","id":8522750824,"lat":45.5838473,"lon":-122.6858936,"tags":{"light_rail":"yes","name":"Kenton/North Denver Avenue","network":"TriMet","public_transport":"station","railway":"halt","ref":"11500","short_name":"Kenton/N Denver Ave","station":"light_rail"}},{"type":"node","id":8522750825,"lat":45.5771387,"lon":-122.6820983,"tags":{"light_rail":"yes","name":"North Lombard Transit Center","network":"TriMet","public_transport":"station","railway":"halt","ref":"11501","short_name":"N Lombard TC","station":"light_rail"}},{"type":"node","id":8522750826,"lat":45.5698861,"lon":-122.6821419,"tags":{"light_rail":"yes","name":"Rosa Parks","network":"TriMet","public_transport":"station","railway":"halt","ref":"11502","station":"light_rail"}},{"type":"node","id":8522750827,"lat":45.5626619,"lon":-122.6822277,"tags":{"light_rail":"yes","name":"North Killingsworth Street","network":"TriMet","public_transport":"station","railway":"halt","ref":"11503","short_name":"N Killingsworth St","station":"light_rail"}},{"type":"node","id":8522750828,"lat":45.5551864,"lon":-122.6823153,"tags":{"light_rail":"yes","name":"North Prescott Street","network":"TriMet","public_transport":"station","railway":"halt","ref":"11504","short_name":"N Prescott St","station":"light_rail"}},{"type":"node","id":8522750829,"lat":45.5486865,"lon":-122.6810043,"tags":{"light_rail":"yes","name":"Overlook Park","network":"TriMet","public_transport":"station","railway":"halt","ref":"11510","station":"light_rail","wheelchair":"yes"}},{"type":"node","id":8522750830,"lat":45.5395397,"lon":-122.6754713,"tags":{"light_rail":"yes","name":"Albina/Mississippi","network":"TriMet","public_transport":"station","railway":"halt","ref":"11506","station":"light_rail","wheelchair":"yes"}},{"type":"node","id":8522750831,"lat":45.5079286,"lon":-122.6805238,"tags":{"light_rail":"yes","name":"Lincoln Street/Southwest 3rd Avenue","network":"TriMet","public_transport":"station","railway":"halt","ref":"13729","short_name":"Lincoln St/SW 3rd Ave","station":"light_rail"}},{"type":"node","id":8522750832,"lat":45.5027234,"lon":-122.6713386,"tags":{"bus":"yes","light_rail":"yes","name":"South Waterfront/South Moody","network":"TriMet","public_transport":"station","railway":"halt","ref":"13711","short_name":"South Waterfront/S Moody","station":"light_rail","wheelchair":"yes"}},{"type":"node","id":8522750833,"lat":45.5065607,"lon":-122.662761,"tags":{"bus":"yes","light_rail":"yes","name":"OMSI/Southeast Water","network":"TriMet","not:network:wikidata":"Q12072781","operator":"TriMet","operator:wikidata":"Q1766623","public_transport":"station","railway":"halt","ref":"13712","short_name":"OMSI/SE Water","station":"light_rail"}},{"type":"node","id":8522750834,"lat":45.5027857,"lon":-122.6532679,"tags":{"light_rail":"yes","name":"Clinton Street/Southeast 12th Avenue","network":"TriMet","operator":"TriMet","public_transport":"station","railway":"halt","ref":"13713","short_name":"Clinton St/SE 12th Ave","station":"light_rail"}},{"type":"node","id":8522750835,"lat":45.4978716,"lon":-122.6481703,"tags":{"light_rail":"yes","name":"Southeast 17th Avenue & Rhine Street","network":"TriMet","operator":"TriMet","public_transport":"station","railway":"halt","ref":"13714","short_name":"SE 17th Ave & Rhine St","station":"light_rail","wheelchair":"limited"}},{"type":"node","id":8522750836,"lat":45.4908939,"lon":-122.6485136,"tags":{"light_rail":"yes","name":"Southeast 17th Avenue & Holgate Boulevard","network":"TriMet","operator":"TriMet","public_transport":"station","railway":"halt","ref":"13715","short_name":"SE 17th Ave & Holgate Blvd","station":"light_rail","wikidata":"Q20967691"}},{"type":"node","id":8522750837,"lat":45.4749011,"lon":-122.6400384,"tags":{"light_rail":"yes","name":"Southeast Bybee Boulevard","network":"TriMet","operator":"TriMet","public_transport":"station","railway":"halt","ref":"13716","short_name":"SE Bybee Blvd","station":"light_rail","wheelchair":"yes","wikidata":"Q20861665"}},{"type":"node","id":8522750838,"lat":45.4627969,"lon":-122.6376223,"tags":{"light_rail":"yes","name":"Southeast Tacoma/Johnson Creek","network":"TriMet","operator":"TriMet","public_transport":"station","railway":"halt","ref":"13717","short_name":"SE Tacoma/Johnson Creek","station":"light_rail","wikidata":"Q19877749"}},{"type":"node","id":8522750839,"lat":45.4412187,"lon":-122.6399512,"tags":{"light_rail":"yes","name":"Milwaukie/Main Street","network":"TriMet","operator":"TriMet","public_transport":"station","railway":"halt","ref":"13718","short_name":"Milwaukie/Main St","station":"light_rail","wheelchair":"yes","wikidata":"Q20992427"}},{"type":"node","id":8522750840,"lat":45.4307177,"lon":-122.6351348,"tags":{"light_rail":"yes","name":"Southeast Park Avenue","network":"TriMet","operator":"TriMet","public_transport":"station","railway":"halt","ref":"13720","short_name":"SE Park Ave","station":"light_rail"}},{"type":"node","id":8522750841,"lat":45.5093347,"lon":-122.6836838,"tags":{"light_rail":"yes","name":"PSU South/Southwest 6th & College","network":"TriMet","public_transport":"station","railway":"halt","short_name":"PSU South/SW 6th & College","station":"light_rail","wheelchair":"yes"}},{"type":"node","id":8522750842,"lat":45.5113882,"lon":-122.6826686,"tags":{"light_rail":"yes","name":"PSU Urban Center/Southwest 6th & Montgomery","network":"TriMet","public_transport":"station","railway":"halt","short_name":"PSU Urban Ctr/SW 6th & Montgomery","station":"light_rail","wheelchair":"yes"}},{"type":"node","id":8522750843,"lat":45.5153766,"lon":-122.6805121,"tags":{"light_rail":"yes","name":"Southwest 6th & Madison","network":"TriMet","public_transport":"station","railway":"halt","short_name":"SW 6th & Madison","station":"light_rail","wheelchair":"yes"}},{"type":"node","id":8522750844,"lat":45.5220404,"lon":-122.6769415,"tags":{"light_rail":"yes","name":"Southwest 6th & Pine","network":"TriMet","public_transport":"station","railway":"halt","short_name":"SW 6th & Pine","station":"light_rail","wheelchair":"yes"}},{"type":"node","id":8522750845,"lat":45.5241361,"lon":-122.6764324,"tags":{"light_rail":"yes","name":"Northwest 6th & Davis","network":"TriMet","public_transport":"station","railway":"halt","short_name":"NW 6th & Davis","station":"light_rail","wheelchair":"yes"}},{"type":"node","id":8522750846,"lat":45.5269774,"lon":-122.6765277,"tags":{"light_rail":"yes","name":"Union Station/Northwest 6th & Hoyt","network":"TriMet","public_transport":"station","railway":"halt","short_name":"Union Station/NW 6th & Hoyt","station":"light_rail"}},{"type":"node","id":8522750847,"lat":45.5187201,"lon":-122.6787432,"tags":{"light_rail":"yes","name":"Pioneer Courthouse/Southwest 6th Avenue","network":"TriMet","public_transport":"station","railway":"halt","short_name":"Pioneer Courthouse/SW 6th","station":"light_rail","toilets:wheelchair":"no","wheelchair":"yes"}},{"type":"node","id":8522750850,"lat":45.5333436,"lon":-122.5781045,"tags":{"light_rail":"yes","name":"Northeast 82nd Avenue","network":"TriMet","public_transport":"station","railway":"halt","short_name":"NE 82nd Ave","station":"light_rail"}},{"type":"node","id":8522750851,"lat":45.5218211,"lon":-122.6760259,"tags":{"bus":"yes","light_rail":"yes","name":"Southwest 5th & Oak","network":"TriMet","public_transport":"station","railway":"halt","short_name":"SW 5th & Oak","station":"light_rail","wheelchair":"yes"}},{"type":"node","id":8522750853,"lat":45.5722455,"lon":-122.5580194,"tags":{"light_rail":"yes","name":"Cascades","network":"TriMet","public_transport":"station","railway":"halt","station":"light_rail","wheelchair":"yes"}},{"type":"node","id":8522750854,"lat":45.5328529,"lon":-122.6209596,"tags":{"light_rail":"yes","name":"Hollywood/Northeast 42nd Avenue","network":"Metropolitan Area Express","network:short":"MAX","network:wikidata":"Q2584009","operator":"TriMet","operator:wikidata":"Q1766623","public_transport":"station","railway":"halt","station":"light_rail","wheelchair":"yes","wikidata":"Q5882579"}},{"type":"node","id":8522750855,"lat":45.5224963,"lon":-122.5377687,"tags":{"light_rail":"yes","name":"East 122nd Avenue","network":"TriMet","public_transport":"station","railway":"halt","short_name":"E 122nd Ave","station":"light_rail"}},{"type":"node","id":8522750856,"lat":45.522985,"lon":-122.6713234,"tags":{"disused:light_rail":"yes","disused:public_transport":"station","disused:railway":"station","light_rail":"yes","name":"Skidmore Fountain","network":"Westside Express Service","network:short":"WES","network:wikidata":"Q12072781","operator":"TriMet","operator:wikidata":"Q1766623","station":"light_rail","train":"yes"}},{"type":"node","id":8522750858,"lat":45.5106697,"lon":-122.7168841,"tags":{"level":"-1","light_rail":"yes","location":"underground","name":"Washington Park","network":"TriMet","public_transport":"station","railway":"halt","station":"light_rail"}},{"type":"node","id":8522750859,"lat":45.4533743,"lon":-122.5736291,"tags":{"light_rail":"yes","name":"Southeast Fuller Road","network":"TriMet","public_transport":"station","railway":"halt","short_name":"SE Fuller Rd","station":"light_rail"}},{"type":"node","id":8522750860,"lat":45.5192418,"lon":-122.6819312,"tags":{"light_rail":"yes","name":"Library/Southwest 9th Avenue","network":"TriMet","network:wikidata":"Q1766623","public_transport":"station","railway":"halt","short_name":"Library/SW 9th Ave","station":"light_rail","wheelchair":"yes"}},{"type":"node","id":8522750861,"lat":45.5184844,"lon":-122.6778355,"tags":{"bus":"yes","light_rail":"yes","name":"Pioneer Place/Southwest 5th Avenue","network":"TriMet","public_transport":"station","railway":"halt","short_name":"Pioneer Place/SW 5th","station":"light_rail","toilets:wheelchair":"no","wheelchair":"yes"}},{"type":"node","id":8522750862,"lat":45.5180978,"lon":-122.6750804,"tags":{"light_rail":"yes","name":"Morrison/Southwest 3rd Avenue","network":"TriMet","public_transport":"station","railway":"halt","short_name":"Morrison/SW 3rd Ave","station":"light_rail"}},{"type":"node","id":8522750863,"lat":45.5241535,"lon":-122.6755164,"tags":{"bus":"yes","light_rail":"yes","name":"Northwest 5th & Couch","network":"TriMet","public_transport":"station","railway":"halt","short_name":"NW 5th & Couch","station":"light_rail","wheelchair":"yes"}},{"type":"node","id":8522750864,"lat":45.5590207,"lon":-122.5656271,"tags":{"light_rail":"yes","name":"Parkrose/Sumner Transit Center","network":"TriMet","public_transport":"station","railway":"halt","short_name":"Parkrose/Sumner TC","station":"light_rail"}},{"type":"node","id":8522750865,"lat":45.5249329,"lon":-122.6714221,"tags":{"light_rail":"yes","name":"Old Town/Chinatown","network":"TriMet","public_transport":"station","railway":"halt","station":"light_rail"}},{"type":"node","id":8522750866,"lat":45.5034003,"lon":-122.5666259,"tags":{"light_rail":"yes","name":"Southeast Division Street","network":"TriMet","public_transport":"station","railway":"halt","short_name":"SE Division St","station":"light_rail","wikidata":"Q7569326"}},{"type":"node","id":8522750867,"lat":45.5191648,"lon":-122.6791425,"tags":{"light_rail":"yes","name":"Pioneer Square North","network":"TriMet","public_transport":"station","railway":"halt","station":"light_rail","wheelchair":"yes"}},{"type":"node","id":8522750868,"lat":45.5300939,"lon":-122.662272,"tags":{"light_rail":"yes","name":"Convention Center","network":"TriMet","public_transport":"station","railway":"halt","station":"light_rail"}},{"type":"node","id":8522750869,"lat":45.5306249,"lon":-122.5635843,"tags":{"light_rail":"yes","name":"Gateway/Northeast 99th Avenue Transit Center","network":"TriMet","public_transport":"station","railway":"halt","short_name":"Gateway/NE 99th Ave TC","station":"light_rail","wheelchair":"yes"}},{"type":"node","id":8522750871,"lat":45.5198438,"lon":-122.6816566,"tags":{"light_rail":"yes","name":"Galleria/Southwest 10th Avenue","network":"TriMet","network:wikidata":"Q1766623","public_transport":"station","railway":"halt","short_name":"Galleria/SW 10th Ave","station":"light_rail","wheelchair":"yes","wikidata":"Q6542486"}},{"type":"node","id":8522750872,"lat":45.522176,"lon":-122.4964503,"tags":{"light_rail":"yes","name":"East 162nd Avenue","network":"TriMet","public_transport":"station","railway":"halt","short_name":"E 162nd Ave","station":"light_rail"}},{"type":"node","id":8522750873,"lat":45.5300933,"lon":-122.6580476,"tags":{"light_rail":"yes","name":"Northeast 7th Avenue","network":"TriMet","public_transport":"station","railway":"halt","short_name":"NE 7th Ave","station":"light_rail"}},{"type":"node","id":8522750874,"lat":45.4804378,"lon":-122.5668025,"tags":{"light_rail":"yes","name":"Lents Town Center/Southeast Foster Road","network":"TriMet","public_transport":"station","railway":"halt","short_name":"Lents Town Center/SE Foster Rd","station":"light_rail","wikidata":"Q6523402"}},{"type":"node","id":8522750876,"lat":45.4678298,"lon":-122.5666534,"tags":{"light_rail":"yes","name":"Southeast Flavel Street","network":"TriMet","public_transport":"station","railway":"halt","short_name":"SE Flavel St","station":"light_rail","wikidata":"Q7569331"}},{"type":"node","id":8522750877,"lat":45.5151414,"lon":-122.6796477,"tags":{"bus":"yes","light_rail":"yes","name":"City Hall/Southwest 5th & Jefferson","network":"TriMet","public_transport":"station","railway":"halt","short_name":"City Hall/SW 5th & Jefferson","station":"light_rail","wheelchair":"yes"}},{"type":"node","id":8522750878,"lat":45.4904681,"lon":-122.8070937,"tags":{"addr:city":"Beaverton","addr:housenumber":"4055","addr:postcode":"97005","addr:street":"Southwest Watson Avenue","light_rail":"yes","name":"Beaverton Central","network":"TriMet","public_transport":"station","railway":"halt","station":"light_rail","wheelchair":"yes","wikidata":"Q4878268","wikipedia":"en:Beaverton Central station"}},{"type":"node","id":8522750879,"lat":45.4952746,"lon":-122.8215708,"tags":{"light_rail":"yes","name":"Millikan Way","network":"TriMet","public_transport":"station","railway":"halt","station":"light_rail","wheelchair":"yes","wikidata":"Q14709071"}},{"type":"node","id":8522750880,"lat":45.5286278,"lon":-122.6030394,"tags":{"light_rail":"yes","name":"Northeast 60th Avenue","network":"TriMet","public_transport":"station","railway":"halt","short_name":"NE 60th Ave","station":"light_rail","wheelchair":"yes"}},{"type":"node","id":8522750881,"lat":45.5160519,"lon":-122.4601487,"tags":{"light_rail":"yes","name":"Ruby Junction/East 197th Avenue","network":"TriMet","public_transport":"station","railway":"halt","short_name":"Ruby Junction/E 197th Ave","station":"light_rail"}},{"type":"node","id":8522750882,"lat":45.509166,"lon":-122.6829169,"tags":{"light_rail":"yes","name":"PSU South/Southwest 5th & Jackson","network":"TriMet","public_transport":"station","railway":"halt","short_name":"PSU South/SW 5th & Jackson","station":"light_rail"}},{"type":"node","id":8522750883,"lat":45.5771136,"lon":-122.5671571,"tags":{"light_rail":"yes","name":"Mount Hood Avenue","network":"TriMet","public_transport":"station","railway":"halt","short_name":"Mt Hood Ave","station":"light_rail"}},{"type":"node","id":8522750884,"lat":45.508117,"lon":-122.4415359,"tags":{"light_rail":"yes","name":"Civic Drive","network":"TriMet","public_transport":"station","railway":"halt","station":"light_rail"}},{"type":"node","id":8522750885,"lat":45.5221001,"lon":-122.4861665,"tags":{"light_rail":"yes","name":"East 172nd Avenue","network":"TriMet","public_transport":"station","railway":"halt","short_name":"E 172nd Ave","station":"light_rail"}},{"type":"node","id":8522752917,"lat":45.49571,"lon":-122.5661839,"tags":{"light_rail":"yes","name":"Southeast Powell Boulevard","network":"TriMet","public_transport":"station","railway":"halt","short_name":"SE Powell Blvd","station":"light_rail","wikidata":"Q7569381"}},{"type":"node","id":8522752918,"lat":45.435718,"lon":-122.5677679,"tags":{"light_rail":"yes","name":"Clackamas Town Center Transit Center","network":"TriMet","public_transport":"station","railway":"halt","short_name":"Clackamas Town Center TC","station":"light_rail"}},{"type":"node","id":8522752919,"lat":45.5058296,"lon":-122.4360702,"tags":{"light_rail":"yes","name":"Gresham City Hall","network":"TriMet","public_transport":"station","railway":"halt","station":"light_rail"}},{"type":"node","id":11698082301,"lat":45.5323856,"lon":-122.5637564,"tags":{"light_rail":"yes","name":"Gateway North","network":"TriMet","public_transport":"station","railway":"halt","short_name":"Gateway North","station":"light_rail","wheelchair":"yes"}}]}