{"elements":[{"type":"node","id":30524137,"lat":49.8369167,"lon":24.0348445,"tags":{"bus":"yes","description":"вул. І. Франка, 8","highway":"bus_stop","name":"Шухевича","name:en":"Shukhevycha","name:ru":"Шухевыча","name:tr":"Shukhevycha Tranvay","name:uk":"Шухевича","public_transport":"platform","railway":"tram_stop","ref":"30","tram":"yes"}},{"type":"node","id":370027203,"lat":49.8335899,"lon":24.0518673,"tags":{"name":"Личаківський цвинтар","name:en":"Lychakivske cemetery","name:ru":"Лычаковское кладбище","name:uk":"Личаківський цвинтар","public_transport":"stop_position","railway":"tram_stop","tram":"yes"}},{"type":"node","id":373166243,"lat":49.8134182,"lon":24.0007793,"tags":{"bench":"yes","bin":"yes","description":"вул. Княгині Ольги, 42","lit":"yes","name":"Бойчука, Кіноцентр","name:en":"Boichuka; Film Center","name:ru":"Бойчука, Центр кино","name:uk":"Бойчука, Кіноцентр","public_transport":"platform","railway":"tram_stop","ref":"516","shelter":"yes","tram":"yes"}},{"type":"node","id":983702950,"lat":49.8642038,"lon":24.0443784,"tags":{"description":"вул. Промислова (перехрестя з вул. Городницькою)","name":"Липинського","name:en":"Lypynskoho","name:ru":"Липинского","name:uk":"Липинського","public_transport":"stop_position","railway":"tram_stop","ref":"678","tram":"yes"}},{"type":"node","id":1271152840,"lat":49.8351948,"lon":24.0679021,"tags":{"name":"Пасічна","name:ru":"Пасечная","name:uk":"Пасічна","public_transport":"stop_position","railway":"tram_stop","tram":"yes"}},{"type":"node","id":1306100347,"lat":49.8071659,"lon":23.9989634,"tags":{"name":"Аквапарк","name:en":"Aquapark","name:uk":"Аквапарк","public_transport":"stop_position","railway":"tram_stop","ref":"519","tram":"yes"}},{"type":"node","id":1636857175,"lat":49.8448439,"lon":24.0277037,"tags":{"bench":"yes","bin":"yes","bus":"yes","description":"пл. Ярослава Осмомисла, (Добробут)","highway":"bus_stop","lit":"yes","name":"Театральна","name:en":"Teatralna","name:pl":"Teatralna","name:uk":"Театральна","public_transport":"platform","ref":"40","shelter":"yes"}},{"type":"node","id":1728998966,"lat":49.8400486,"lon":23.9950301,"tags":{"description":"пл. Двірцева, 1","highway":"bus_stop","name":"Залізничний вокзал","name:be":"Чыгуначны вакзал","name:en":"Main Railway station","name:uk":"Залізничний вокзал","public_transport":"stop_position","railway":"tram_stop","ref":"0117","tram":"yes"}},{"type":"node","id":1728998999,"lat":49.8540277,"lon":23.986799,"tags":{"description":"вул. Петра Франка (вул. Т. Шевченка, 154)","name":"вулиця Отця Омеляна Ковча","name:uk":"вулиця Отця Омеляна Ковча","public_transport":"stop_position","railway":"tram_stop","ref":"0703","tram":"yes"}},{"type":"node","id":1729428687,"lat":49.8301318,"lon":24.0314082,"tags":{"bench":"yes","bin":"yes","bus":"yes","description":"пл. Франка, 70","highway":"bus_stop","lit":"yes","name":"Площа Франка","name:en":"Franko square","name:uk":"Площа Франка","public_transport":"platform","railway":"tram_stop","ref":"34","shelter":"yes","tram":"yes"}},{"type":"node","id":1730447871,"lat":49.8373016,"lon":24.0349795,"tags":{"bench":"yes","description":"вул. І. Франка, 7","name":"Шухевича","name:en":"Shukhevycha","name:uk":"Шухевича","public_transport":"stop_position","railway":"tram_stop","ref":"29","shelter":"yes","tram":"yes"}},{"type":"node","id":1739576648,"lat":49.8397857,"lon":24.0370899,"tags":{"name":"Площа Митна","name:en":"Mytna sqr.","name:pl":"plac Cłowy","name:ru":"Площадь Таможенная","name:uk":"Площа Митна","public_transport":"stop_position","railway":"tram_stop","tram":"yes"}},{"type":"node","id":1744770083,"lat":49.8292159,"lon":24.0568396,"tags":{"description":"вул. Вахнянина, 27","name":"Погулянка","name:en":"Pohulianka","name:ru":"Погулянка","name:uk":"Погулянка","public_transport":"stop_position","railway":"tram_stop","ref":"0197","tram":"yes"}},{"type":"node","id":1811649581,"lat":49.8400009,"lon":24.0492024,"tags":{"name":"Медичний університет","name:en":"Medical University","name:ru":"Медицинский университет","name:uk":"Медичний університет","old_name":"Обласна клінічна лікарня","old_name:en":"Oblasna Klinichna Likarnia","public_transport":"stop_position","railway":"tram_stop","tram":"yes"}},{"type":"node","id":1845127582,"lat":49.8324364,"lon":24.0118428,"tags":{"name":"Київська вулиця","name:ru":"Киевская улица","name:uk":"Київська вулиця","public_transport":"stop_position","railway":"tram_stop","tram":"yes"}},{"type":"node","id":1845127642,"lat":49.8322655,"lon":24.0125198,"tags":{"description":"вул. І. Котляревського (вул. Генерала Т. Чупринки, 21)","highway":"bus_stop","name":"Київська","name:en":"Kyivska","name:ru":"Киевская","name:uk":"Київська","public_transport":"stop_position","railway":"tram_stop","ref":"0527","tram":"yes"}},{"type":"node","id":1894291627,"lat":49.8373714,"lon":24.0599662,"tags":{"bus":"yes","description":"вул. Личаківська, 112","highway":"bus_stop","name":"Богдана Котика","name:en":"Kotyka","name:ru":"Котика","name:uk":"Богдана Котика","public_transport":"stop_position","railway":"tram_stop","ref":"0248","tram":"yes"}},{"type":"node","id":1894600488,"lat":49.8374202,"lon":24.0595991,"tags":{"name":"Богдана Котика","name:en":"Kotyka","name:ru":"Котика","name:uk":"Богдана Котика","public_transport":"stop_position","railway":"tram_stop","tram":"yes"}},{"type":"node","id":1894629431,"lat":49.8400769,"lon":24.0490335,"tags":{"name":"Медичний університет","name:en":"Medical University","name:uk":"Медичний університет","old_name":"Обласна клінічна лікарня","old_name:en":"Oblasna Klinichna Likarnia","public_transport":"stop_position","railway":"tram_stop","tram":"yes"}},{"type":"node","id":1897328162,"lat":49.8419328,"lon":24.0343081,"tags":{"description":"вул. Руська, 9","name":"Руська","name:be":"Руска вуліца","name:en":"Rus'ka","name:pl":"Ruska","name:ru":"Руськая","name:uk":"Руська","public_transport":"stop_position","railway":"tram_stop","ref":"0058","tram":"yes"}},{"type":"node","id":1897365704,"lat":49.8427512,"lon":24.0349398,"tags":{"bench":"yes","bin":"yes","bus":"yes","description":"вул. Підвальна, 13","highway":"bus_stop","lit":"yes","name":"Підвальна","name:en":"Pidvalna","name:pl":"Podwale","name:ru":"Подвальная","name:uk":"Підвальна","public_transport":"platform","ref":"59","shelter":"yes"}},{"type":"node","id":1911363428,"lat":49.8447916,"lon":24.027749,"tags":{"name":"Театральна","name:en":"Teatralna","name:pl":"Teatralna","name:uk":"Театральна","public_transport":"stop_position","railway":"tram_stop","tram":"yes"}},{"type":"node","id":1928010315,"lat":49.8367388,"lon":24.0042226,"tags":{"bus":"yes","highway":"bus_stop","name":"Площа Кропивницького","name:uk":"Площа Кропивницького","public_transport":"platform"}},{"type":"node","id":1928095503,"lat":49.8427865,"lon":24.0349938,"tags":{"name":"Підвальна","name:en":"Pidvalna str.","name:pl":"Podwale","name:ru":"Подвальная","name:uk":"Підвальна","public_transport":"stop_position","railway":"tram_stop","tram":"yes"}},{"type":"node","id":1963222559,"lat":49.8398754,"lon":24.0495863,"tags":{"bench":"yes","bin":"yes","bus":"yes","description":"вул. Личаківська, 58","highway":"bus_stop","name":"Медичний університет","name:en":"Medical University","name:ru":"Медицинский университет","name:uk":"Медичний університет","public_transport":"platform","ref":"243","shelter":"yes"}},{"type":"node","id":1963222569,"lat":49.84006,"lon":24.0492789,"tags":{"bench":"yes","bin":"yes","bus":"yes","description":"вул. Личаківська, 67","highway":"bus_stop","name":"Медичний університет","name:en":"Medical University","name:ru":"Медицинский университет","name:uk":"Медичний університет","public_transport":"platform","ref":"245","shelter":"yes"}},{"type":"node","id":1963222583,"lat":49.8419839,"lon":24.0348201,"tags":{"name":"Руська","name:uk":"Руська","public_transport":"platform"}},{"type":"node","id":2043750303,"lat":49.8324477,"lon":24.0177001,"tags":{"bench":"no","bus":"yes","description":"вул. І. Нечуя-Левицького ( Сахарова, 2)","highway":"bus_stop","lit":"no","name":"Площа Станіслава Лема","name:en":"Ploshcha Stanislava Lema","name:ru":"Сахарова","name:uk":"Площа Станіслава Лема","public_transport":"platform","railway":"tram_stop","ref":"505","shelter":"no","tram":"yes"}},{"type":"node","id":2043750305,"lat":49.824767,"lon":24.0368831,"tags":{"bench":"yes","bus":"yes","description":"вул. Снопківська (навпроти №47)","highway":"bus_stop","name":"Академія мистецтв","name:en":"Academy of Arts","name:ru":"Академия искусств","name:uk":"Академія мистецтв","public_transport":"platform","ref":"73","shelter":"yes","tram":"yes"}},{"type":"node","id":2043750325,"lat":49.8328248,"lon":24.050342,"tags":{"bus":"yes","description":"вул. Мечникова (Пекарська, 54)","highway":"bus_stop","name":"Інфекційна лікарня","name:en":"Infectious Diseases Hospital","name:ru":"Инфекционная больница","name:uk":"Інфекційна лікарня","public_transport":"platform","ref":"0227"}},{"type":"node","id":2043750637,"lat":49.8403424,"lon":24.0432732,"tags":{"bench":"yes","bin":"yes","bus":"yes","description":"вул. Личаківська, 35","highway":"bus_stop","lit":"yes","name":"Військовий госпіталь","name:en":"Military hospital","name:ru":"Военный госпиталь","name:uk":"Військовий госпіталь","public_transport":"platform","ref":"0242","shelter":"yes"}},{"type":"node","id":2043750691,"lat":49.8480587,"lon":24.0000666,"tags":{"bus":"yes","description":"вул. Т. Шевченка, 77","highway":"bus_stop","name":"Єрошенка","name:en":"Yeroshenka","name:pl":"Jeroszenka","name:uk":"Єрошенка","public_transport":"platform","ref":"183","tram":"yes"}},{"type":"node","id":2043750721,"lat":49.8301917,"lon":24.0079399,"tags":{"bench":"yes","bin":"yes","bus":"yes","description":"вул. Генерала Чупринки, 55а","highway":"bus_stop","name":"Фабрика Левинського","name:en":"Fabryka Levynskoho","name:ru":"Фабрика Левинського","name:uk":"Фабрика Левинського","public_transport":"platform","ref":"0490","shelter":"yes"}},{"type":"node","id":2043750722,"lat":49.8266674,"lon":23.9969011,"tags":{"description":"вул. Коновальця, 100","highway":"bus_stop","name":"Гординських","name:en":"Hordynskykh","name:ru":"Гординских","name:uk":"Гординських","public_transport":"stop_position","railway":"tram_stop","ref":"0503","tram":"yes"}},{"type":"node","id":2043750723,"lat":49.8270168,"lon":23.997385,"tags":{"description":"вул. Коновальця, 97","highway":"bus_stop","name":"Гординських","name:en":"Hordynskykh","name:ru":"Гординских","name:uk":"Гординських","public_transport":"stop_position","railway":"tram_stop","ref":"0502","tram":"yes"}},{"type":"node","id":2043750777,"lat":49.8243878,"lon":23.9931862,"tags":{"description":"вул. Коновальця, 111","highway":"bus_stop","name":"Коновальця, музей Труша","name:en":"Konovaltsia, Ivan Trush Museum","name:ru":"Коновальца, музей Труша","name:uk":"Коновальця, музей Труша","public_transport":"stop_position","railway":"tram_stop","ref":"0504","tram":"yes"}},{"type":"node","id":2043750813,"lat":49.8509675,"lon":23.9918177,"tags":{"bus":"yes","description":"вул. Т. Шевченка, 113","highway":"bus_stop","name":"Крупзавод","name:en":"Krupzavod","name:uk":"Крупзавод","public_transport":"platform","ref":"184","tram":"yes"}},{"type":"node","id":2043750865,"lat":49.8319027,"lon":24.0112255,"tags":{"bench":"yes","bin":"yes","bus":"yes","description":"вул. Генерала Чупринки, 27","highway":"bus_stop","name":"Київська","name:en":"Kyivska","name:ru":"Киевская","name:uk":"Київська","public_transport":"platform","ref":"0487","shelter":"yes"}},{"type":"node","id":2043750875,"lat":49.8323086,"lon":24.0124763,"tags":{"bench":"yes","bin":"yes","bus":"yes","highway":"bus_stop","lit":"yes","name":"Київська","name:en":"Kyivska","name:ru":"Киевская","name:uk":"Київська","public_transport":"platform","shelter":"yes"}},{"type":"node","id":2043750886,"lat":49.8324171,"lon":24.0118241,"tags":{"bench":"no","bin":"no","bus":"yes","check_date:shelter":"2022-06-23","description":"вул. Київська, 1","highway":"bus_stop","lit":"yes","name":"Київська","name:en":"Kyivska","name:ru":"Киевская","name:uk":"Київська","public_transport":"platform","ref":"0511","shelter":"no"}},{"type":"node","id":2043750949,"lat":49.8303818,"lon":24.0494631,"tags":{"description":"вул. Левицького, 122","highway":"bus_stop","name":"Левицького","name:en":"Levytskoho","name:ru":"Левицкого","name:uk":"Левицького","public_transport":"stop_position","railway":"tram_stop","ref":"0239","tram":"yes"}},{"type":"node","id":2043750959,"lat":49.830497,"lon":24.0492943,"tags":{"description":"вул. Левицького, 99","highway":"bus_stop","name":"Левицького","name:en":"Levytskoho","name:ru":"Левицкого","name:uk":"Левицького","public_transport":"stop_position","railway":"tram_stop","ref":"0238","tram":"yes"}},{"type":"node","id":2043750969,"lat":49.8308328,"lon":24.0089015,"tags":{"bus":"yes","description":"вул. Генерала Чупринки, 64","highway":"bus_stop","name":"Фабрика Левинського","name:en":"Fabryka Levynskoho","name:ru":"Фабрика Левинського","name:uk":"Фабрика Левинського","public_transport":"platform","ref":"0489","shelter":"yes"}},{"type":"node","id":2043751032,"lat":49.8344227,"lon":24.0160723,"tags":{"bench":"yes","bus":"yes","description":"вул. Генерала Чупринки, 4","highway":"bus_stop","name":"Львівська політехніка","name:en":"Lviv Polytechnic University","name:ru":"Львовская Политехника","name:uk":"Львівська політехніка","public_transport":"platform","ref":"0011","shelter":"yes"}},{"type":"node","id":2043751038,"lat":49.8345303,"lon":24.0164669,"tags":{"bench":"yes","bus":"yes","covered":"yes","description":"вул. Генерала Чупринки (вул. С. Бандери, 11)","highway":"bus_stop","name":"Львівська політехніка","name:en":"Lviv Polytechnic University","name:ru":"Львовская Политехника","name:uk":"Львівська політехніка","public_transport":"platform","ref":"0012","shelter":"yes"}},{"type":"node","id":2043751042,"lat":49.8346389,"lon":24.0163573,"tags":{"bench":"yes","bin":"yes","bus":"yes","description":"вул. С. Бандери, 15","highway":"bus_stop","lit":"yes","name":"Львівська політехніка","name:en":"Lviv Polytechnic","name:ru":"Львовская Политехника","name:uk":"Львівська політехніка","public_transport":"platform","ref":"0065","shelter":"yes"}},{"type":"node","id":2043751045,"lat":49.8347304,"lon":24.0153038,"tags":{"bench":"yes","bin":"yes","bus":"yes","description":"вул. С. Бандери, 12","highway":"bus_stop","lit":"yes","name":"Львівська політехніка","name:en":"Lviv Polytechnic","name:ru":"Львовская Политехника","name:uk":"Львівська політехніка","public_transport":"platform","ref":"0064","shelter":"yes"}},{"type":"node","id":2043751189,"lat":49.8298125,"lon":24.0053413,"tags":{"alt_name":"Палац спорту \"Україна\"","alt_name:en":"Melnyka","alt_name:ru":"Мельника","alt_name:uk":"Палац спорту \"Україна\"","name":"Мельника","name:en":"Sport palace Ukraine","name:ru":"Дворец спорта Украина","name:uk":"Мельника","public_transport":"stop_position","railway":"tram_stop","tram":"yes"}},{"type":"node","id":2043751202,"lat":49.8306175,"lon":24.0032001,"tags":{"description":"вул. Коновальця, 51","highway":"bus_stop","name":"Мельника","name:en":"Melnyka","name:ru":"Мельника","name:uk":"Мельника","public_transport":"stop_position","railway":"tram_stop","ref":"0499","tram":"yes"}},{"type":"node","id":2043751220,"lat":49.839764,"lon":24.0371842,"tags":{"bus":"yes","description":"вул. Личаківська, 2","highway":"bus_stop","name":"Площа Митна","name:en":"Mytna square","name:pl":"plac Cłowy","name:uk":"Площа Митна","public_transport":"platform","ref":"240","tactile_paving":"no"}},{"type":"node","id":2043751361,"lat":49.8534757,"lon":24.0383808,"tags":{"bench":"no","bin":"no","bus":"yes","description":"вул. Б. Хмельницького, 127","highway":"bus_stop","lit":"yes","name":"Остряниці","name:en":"Ostrianytsi","name:ru":"Остряницы","name:uk":"Остряниці","public_transport":"platform","railway":"tram_stop","ref":"584","shelter":"no","tram":"yes"}},{"type":"node","id":2043751376,"lat":49.8302764,"lon":24.0232934,"tags":{"bench":"yes","bus":"yes","covered":"yes","description":"вул. Д. Вітовського (вхід до парку)","highway":"bus_stop","name":"Парк культури","name:en":"Park of Culture","name:ru":"Парк культуры","name:uk":"Парк культури","public_transport":"platform","ref":"0019","shelter":"yes"}},{"type":"node","id":2043751397,"lat":49.8425435,"lon":24.0352056,"tags":{"bench":"yes","bus":"yes","description":"вул. Підвальна, 2","highway":"bus_stop","name":"Підвальна","name:en":"Pidvalna","name:pl":"Podwale","name:ru":"Подвальная","name:uk":"Підвальна","public_transport":"platform","ref":"57","shelter":"yes","tactile_paving":"no"}},{"type":"node","id":2043751423,"lat":49.8377737,"lon":24.0001261,"tags":{"description":"вул. Чернівецька, 4","name":"Приміський вокзал","name:be":"Прыгарадны вакзал","name:en":"Suburban railway station","name:ru":"Пригородный вокзал","name:uk":"Приміський вокзал","public_transport":"stop_position","railway":"tram_stop","ref":"188","tram":"yes"}},{"type":"node","id":2043751424,"lat":49.8376542,"lon":24.0005328,"tags":{"description":"вул. Чернівецька, 4","name":"Приміський вокзал","name:be":"Прыгарадны вакзал","name:en":"Suburban railway station","name:ru":"Пригородный вокзал","name:uk":"Приміський вокзал","public_transport":"stop_position","railway":"tram_stop","ref":"187","tram":"yes"}},{"type":"node","id":2043751448,"lat":49.8419918,"lon":24.0347726,"tags":{"description":"вул. Руська, 20","name":"Руська","name:be":"Руска вуліца","name:en":"Rus'ka","name:pl":"Ruska","name:ru":"Руськая","name:uk":"Руська","public_transport":"stop_position","railway":"tram_stop","ref":"0063","tram":"yes","wheelchair":"no"}},{"type":"node","id":2043751453,"lat":49.841723,"lon":24.0333514,"tags":{"description":"пл. Ринок, 14","name":"Площа Ринок","name:be":"Плошча Рынак","name:en":"Rynok square","name:pl":"Rynek","name:ru":"Площадь Рынок","name:uk":"Площа Ринок","public_transport":"stop_position","railway":"tram_stop","ref":"0061","tram":"yes","wheelchair":"no"}},{"type":"node","id":2043751471,"lat":49.8341041,"lon":24.0341637,"tags":{"bench":"yes","bin":"yes","bus":"yes","description":"вул. І. Франка (вул. П. Саксаганського, 13)","highway":"bus_stop","name":"Саксаганського","name:en":"Saksahanskoho","name:ru":"Саксаганского","name:uk":"Саксаганського","public_transport":"platform","ref":"36","shelter":"yes","tram":"yes"}},{"type":"node","id":2043751489,"lat":49.8388138,"lon":24.0537317,"tags":{"bench":"yes","bin":"yes","bus":"yes","description":"вул. Личаківська, 74","highway":"bus_stop","name":"Мечникова","name:en":"Mechnykova","name:ru":"Мечникова","name:uk":"Мечникова","public_transport":"platform","ref":"246","shelter":"yes"}},{"type":"node","id":2043751571,"lat":49.8268253,"lon":24.0342332,"tags":{"bench":"yes","bin":"yes","bus":"yes","description":"вул. Іларіона Свєніцкого, 5","highway":"bus_stop","lit":"yes","name":"Стрийський парк","name:en":"Stryiskyi park","name:ru":"Стрыйский парк","name:uk":"Стрийський парк","public_transport":"platform","railway":"tram_stop","ref":"28","shelter":"yes","tram":"yes"}},{"type":"node","id":2043751572,"lat":49.8291934,"lon":24.0323568,"tags":{"bench":"no","bin":"yes","bus":"yes","description":"вул. Франка, 81","highway":"bus_stop","lit":"yes","name":"Стрийський ринок","name:en":"Stryiskyi market","name:uk":"Стрийський ринок","public_transport":"platform","railway":"tram_stop","ref":"32","shelter":"yes","tram":"yes"}},{"type":"node","id":2043751595,"lat":49.8419405,"lon":24.0166473,"tags":{"bench":"yes","bin":"yes","bus":"yes","description":"вул. Городоцька,67","highway":"bus_stop","name":"Церква святої Анни","name:en":"St. Anne Church","name:uk":"Церква святої Анни","public_transport":"platform","ref":"0016","shelter":"yes"}},{"type":"node","id":2043751597,"lat":49.8445344,"lon":24.0315877,"tags":{"description":"пл. Данила Галицького, 1","highway":"bus_stop","name":"Театр ляльок","name:en":"Puppet Theatre","name:pl":"Teatr Lalek","name:ru":"Театр кукол","name:uk":"Театр ляльок","public_transport":"stop_position","railway":"tram_stop","ref":"0021","tram":"yes"}},{"type":"node","id":2043751642,"lat":49.8402868,"lon":24.0121487,"tags":{"bus":"yes","description":"вул. Городоцька, 44","highway":"bus_stop","name":"Цирк","name:de":"Zirkus","name:en":"Circus","name:pl":"Cyrk","name:uk":"Цирк","public_transport":"platform","ref":"17"}},{"type":"node","id":2043751646,"lat":49.8470727,"lon":24.0030638,"tags":{"bus":"yes","description":"вул. Т. Шевченка, 53","highway":"bus_stop","name":"Турянського","name:en":"Turianskoho","name:uk":"Турянського","public_transport":"platform","ref":"182","tram":"yes"}},{"type":"node","id":2043751692,"lat":49.8489485,"lon":23.9967728,"tags":{"bus":"yes","description":"вул. Т. Шевченка, 105","highway":"bus_stop","name":"Янівський цвинтар","name:en":"Yanivskyi cemetery","name:ru":"Яновское кладбище","name:uk":"Янівський цвинтар","public_transport":"platform","ref":"697","tram":"yes"}},{"type":"node","id":2043751764,"lat":49.8524034,"lon":24.0333118,"tags":{"bench":"yes","bin":"yes","bus":"yes","description":"вул. Б. Хмельницького, 87","highway":"bus_stop","name":"Підзамче","name:en":"Pidzamche railway station","name:ru":"Подзамче","name:uk":"Підзамче","public_transport":"platform","ref":"581","shelter":"yes","tram":"yes"}},{"type":"node","id":2046208724,"lat":49.8665311,"lon":24.0445558,"tags":{"name":"Миколайчука","name:en":"Mykolaichuka","name:uk":"Миколайчука","public_transport":"stop_position","railway":"tram_stop","ref":"661","tram":"yes"}},{"type":"node","id":2047257022,"lat":49.8372631,"lon":24.004526,"tags":{"bus":"yes","highway":"bus_stop","name":"Площа Кропивницького","name:en":"Kropyvnytskoho square","name:uk":"Площа Кропивницького","official_name":"Площа Кропивницького","public_transport":"platform","ref":"18","tram":"yes"}},{"type":"node","id":2047263827,"lat":49.8401989,"lon":24.012318,"tags":{"bench":"yes","bus":"yes","covered":"yes","description":"вул. Городоцька (навпроти №44)","highway":"bus_stop","name":"Цирк","name:de":"Zirkus","name:en":"Circus","name:pl":"Cyrk","name:uk":"Цирк","public_transport":"platform","ref":"15","shelter":"yes"}},{"type":"node","id":2047269921,"lat":49.8345276,"lon":24.0164282,"tags":{"name":"Львівська Політехніка","name:en":"Lviv Politechnic University","name:ru":"Университет Львовская Политехника","name:uk":"Львівська Політехніка","public_transport":"stop_position","railway":"tram_stop","tram":"yes"}},{"type":"node","id":2047269924,"lat":49.8344515,"lon":24.0161696,"tags":{"bus":"yes","name":"Львівська Політехніка","name:en":"Lviv Politechnic University","name:uk":"Львівська Політехніка","public_transport":"stop_position","railway":"tram_stop","tram":"yes"}},{"type":"node","id":2050081583,"lat":49.8398496,"lon":24.0380047,"tags":{"bus":"yes","description":"вул. Личаківська, 7","highway":"bus_stop","name":"Площа Митна","name:en":"Mytna square","name:pl":"plac Cłowy","name:ru":"Площадь Таможенная","name:uk":"Площа Митна","public_transport":"platform","ref":"42","tactile_paving":"no"}},{"type":"node","id":2050081598,"lat":49.8401238,"lon":24.042684,"tags":{"name":"Військовий госпіталь","name:en":"Chekhova","name:ru":"Чехова","name:uk":"Військовий госпіталь","public_transport":"stop_position","railway":"tram_stop","tram":"yes"}},{"type":"node","id":2105987133,"lat":49.8445017,"lon":24.031615,"tags":{"bench":"yes","bus":"yes","highway":"bus_stop","name":"Театр ляльок","name:en":"Teatr Lialiok (Puppet Theatre)","name:pl":"Teatr Lalek","name:ru":"Театр кукол","name:uk":"Театр ляльок","public_transport":"platform","shelter":"yes"}},{"type":"node","id":3863695740,"lat":49.8424289,"lon":24.0154379,"tags":{"bench":"yes","bus":"yes","highway":"bus_stop","name":"Церква Анни","name:en":"St. Anna Church","name:uk":"Церква Анни","public_transport":"platform","shelter":"yes","tram":"yes"}},{"type":"node","id":4303506097,"lat":49.8345453,"lon":24.0074026,"tags":{"bench":"yes","bin":"yes","bus":"yes","description":"вул. Русових (вул. С. Бандери, 69)","highway":"bus_stop","lit":"yes","name":"Бандери","name:en":"Bandery","name:ru":"Бандеры","name:uk":"Бандери","public_transport":"platform","ref":"0555","shelter":"no","tactile_paving":"yes"}},{"type":"node","id":4432785911,"lat":49.7855954,"lon":24.0590611,"tags":{"bench":"yes","covered":"yes","description":"пр. Червоної Калини, 94","loc_ref":"222485","name":"Санта Барбара","name:en":"Santa Barbara","name:uk":"Санта Барбара","public_transport":"platform","railway":"tram_stop","ref":"787","tram":"yes"}},{"type":"node","id":4432785912,"lat":49.7857381,"lon":24.0591778,"tags":{"bench":"yes","bin":"yes","covered":"yes","description":"пр. Червоної Калини, 109","loc_ref":"222486","name":"Санта Барбара","name:en":"Santa Barbara","name:uk":"Санта Барбара","public_transport":"platform","railway":"tram_stop","ref":"786","tram":"yes"}},{"type":"node","id":4528980292,"lat":49.7949439,"lon":24.0562372,"tags":{"bench":"yes","bin":"yes","covered":"yes","description":"просп. Червоної Калини (навпроти буд. 81)","loc_ref":"222469","name":"Центр Довженка","name:en":"Dovzhenko Center","name:uk":"Центр Довженка","public_transport":"platform","railway":"tram_stop","ref":"791","tram":"yes"}},{"type":"node","id":4528980293,"lat":49.7950789,"lon":24.0561536,"tags":{"bench":"yes","covered":"yes","description":"пр. Червоної Калини, 81","loc_ref":"222468","name":"Центр Довженка","name:en":"Dovzhenko Center","name:uk":"Центр Довженка","public_transport":"platform","railway":"tram_stop","ref":"790","tram":"yes"}},{"type":"node","id":4590474503,"lat":49.7880011,"lon":24.0589554,"tags":{"bench":"yes","covered":"yes","description":"пр. Червоної Калини, 80","loc_ref":"222500","name":"Коломийська","name:en":"Kolomyiska","name:uk":"Коломийська","public_transport":"platform","railway":"tram_stop","ref":"788","tram":"yes"}},{"type":"node","id":4590474505,"lat":49.7881372,"lon":24.0590736,"tags":{"bench":"yes","covered":"yes","description":"пр. Червоної Калини, 97","loc_ref":"222499","name":"Коломийська","name:en":"Kolomyiska","name:uk":"Коломийська","public_transport":"platform","railway":"tram_stop","ref":"789","tram":"yes"}},{"type":"node","id":4596351481,"lat":49.8296996,"lon":24.0312809,"tags":{"bench":"no","description":"вул. Франка, 78","name":"Площа Франка","name:en":"Franko square","name:uk":"Площа Франка","public_transport":"platform","railway":"tram_stop","ref":"361","shelter":"no","tram":"yes"}},{"type":"node","id":4596351486,"lat":49.8299506,"lon":24.0314678,"tags":{"bench":"no","bin":"yes","lit":"yes","name":"Площа Франка","name:en":"Franko square","name:uk":"Площа Франка","public_transport":"platform","railway":"tram_stop","ref":"311","shelter":"no","tram":"yes"}},{"type":"node","id":4596718584,"lat":49.8427974,"lon":24.0182877,"tags":{"bench":"yes","bin":"yes","bus":"yes","description":"вул. Т. Шевченка, 4","highway":"bus_stop","name":"Церква святої Анни","name:en":"St. Anne Church","name:uk":"Церква святої Анни","public_transport":"platform","ref":"679","share_taxi":"yes","shelter":"yes","tram":"yes"}},{"type":"node","id":4622189448,"lat":49.8347844,"lon":24.0097139,"tags":{"bench":"yes","bin":"yes","bus":"yes","description":"вул. С. Бандери, 26","highway":"bus_stop","name":"Карпінського","name:en":"Karpinskoho","name:uk":"Карпінського","public_transport":"platform","ref":"0066","shelter":"yes"}},{"type":"node","id":4741683643,"lat":49.8176649,"lon":24.003224,"tags":{"bench":"yes","bin":"yes","lit":"yes","name":"Аркаса","name:en":"Arkasa","name:ru":"Аркаса","name:uk":"Аркаса","public_transport":"platform","railway":"tram_stop","ref":"525","shelter":"yes","tram":"yes"}},{"type":"node","id":4742010900,"lat":49.8305367,"lon":24.0031202,"tags":{"bench":"yes","bin":"yes","name":"Мельника","name:en":"Melnyka","name:ru":"Мельника","name:uk":"Мельника","public_transport":"platform","shelter":"yes"}},{"type":"node","id":4742010901,"lat":49.8284356,"lon":23.999768,"tags":{"bench":"yes","bin":"yes","name":"Залізняка","name:en":"Zalizniaka","name:ru":"Железняка","name:uk":"Залізняка","public_transport":"platform","shelter":"yes"}},{"type":"node","id":4742010902,"lat":49.8243224,"lon":23.9932042,"tags":{"bench":"yes","name":"Коновальця","name:en":"Konovaltsia","name:ru":"Коновальца","name:uk":"Коновальця","public_transport":"platform","shelter":"yes"}},{"type":"node","id":4742010903,"lat":49.8266434,"lon":23.9969353,"tags":{"bench":"yes","bin":"yes","lit":"yes","name":"Гординських","name:en":"Hordynskykh","name:ru":"Гординских","name:uk":"Гординських","public_transport":"platform","shelter":"yes"}},{"type":"node","id":4742010904,"lat":49.8290117,"lon":24.0004356,"tags":{"name":"Залізняка","name:en":"Zalizniaka","name:ru":"Железняка","name:uk":"Залізняка","public_transport":"platform"}},{"type":"node","id":4742010905,"lat":49.8298468,"lon":24.0052996,"tags":{"alt_name":"Палац спорту \"Україна\"","alt_name:en":"Melnyka","alt_name:ru":"Мельника","alt_name:uk":"Палац спорту \"Україна\"","name":"Мельника","name:en":"Sport palace Ukraine","name:ru":"Дворец спорта Украина","name:uk":"Мельника","public_transport":"platform","shelter":"yes"}},{"type":"node","id":4742010906,"lat":49.8324651,"lon":24.012132,"tags":{"bench":"no","bin":"yes","check_date:shelter":"2023-07-08","lit":"yes","name":"Київська","name:en":"Kyivska","name:ru":"Киевская","name:uk":"Київська","public_transport":"platform","shelter":"no"}},{"type":"node","id":4742010907,"lat":49.8308188,"lon":24.0089862,"tags":{"bus":"yes","name":"Фабрика Левинського","name:en":"Likarnia #5 (Hospital #5)","name:ru":"5-я городская больница","name:uk":"Фабрика Левинського","public_transport":"stop_position","railway":"tram_stop","tram":"yes"}},{"type":"node","id":4742010908,"lat":49.832442,"lon":24.012162,"tags":{"bus":"yes","description":"вул. Генерала Чупринки, 36","highway":"bus_stop","name":"Київська","name:en":"Kyivska","name:ru":"Киевская","name:uk":"Київська","public_transport":"stop_position","railway":"tram_stop","ref":"0488","tram":"yes"}},{"type":"node","id":4742010909,"lat":49.839831,"lon":24.0380663,"tags":{"name":"Площа Митна","name:en":"Mytna sqr.","name:pl":"plac Cłowy","name:ru":"Площадь Таможенная","name:uk":"Площа Митна","public_transport":"stop_position","railway":"tram_stop","tram":"yes"}},{"type":"node","id":4742010910,"lat":49.8403165,"lon":24.0433524,"tags":{"name":"Військовий госпіталь","name:en":"Chekhova","name:ru":"Чехова","name:uk":"Військовий госпіталь","public_transport":"stop_position","railway":"tram_stop","tram":"yes"}},{"type":"node","id":4742010912,"lat":49.8302432,"lon":24.0079209,"tags":{"name":"Фабрика Левинського","name:en":"Horbachevskoho","name:ru":"Горбачевского","name:uk":"Фабрика Левинського","public_transport":"stop_position","railway":"tram_stop","tram":"yes"}},{"type":"node","id":4742111838,"lat":49.8130929,"lon":24.0004885,"tags":{"bench":"yes","bin":"yes","description":"вул. Княгині Ольги, 49","lit":"yes","name":"Бойчука, Кіноцентр","name:en":"Boichuka; Film Center","name:ru":"Бойчука, Центр кино","name:uk":"Бойчука, Кіноцентр","public_transport":"platform","railway":"tram_stop","ref":"517","shelter":"yes","tram":"yes","wheelchair":"no"}},{"type":"node","id":4742111850,"lat":49.8303439,"lon":24.023188,"tags":{"name":"Парк Культури","name:en":"Park of Culture","name:uk":"Парк Культури","public_transport":"stop_position","railway":"tram_stop","tram":"yes"}},{"type":"node","id":4743061422,"lat":49.8523727,"lon":24.027494,"tags":{"bench":"yes","bin":"yes","bus":"yes","description":"вул. Замарстинівська, 25","highway":"bus_stop","lit":"no","name":"Палац Культури Хоткевича","name:en":"Hnat Khotkevych Palace of Culture","name:ru":"Дом культуры Хоткевича","name:uk":"Палац Культури Хоткевича","public_transport":"platform","railway":"tram_stop","ref":"640","shelter":"yes","tram":"yes"}},{"type":"node","id":4743061433,"lat":49.8569564,"lon":24.0278345,"tags":{"bus":"yes","description":"вул. Замарстинівська, 82","highway":"bus_stop","name":"Реміснича","name:en":"Remisnycha","name:uk":"Реміснича","public_transport":"platform","ref":"643"}},{"type":"node","id":4743061436,"lat":49.8519964,"lon":24.0274189,"tags":{"bench":"yes","bin":"no","bus":"yes","description":"вул. Замарстинівська, 40","highway":"bus_stop","lit":"no","name":"Палац Хоткевича","name:en":"Hnat Khotkevych Palace of Culture","name:ru":"Дом культуры Хоткевича","name:uk":"Палац Хоткевича","public_transport":"platform","railway":"tram_stop","ref":"642","shelter":"no","tram":"yes"}},{"type":"node","id":4743061439,"lat":49.8501899,"lon":24.026867,"tags":{"bench":"yes","bin":"yes","bus":"yes","description":"вул. Замарстинівська, 32","highway":"bus_stop","lit":"yes","name":"Під Дубом","name:en":"Pid Dubom","name:pl":"Pod Dębem","name:uk":"Під Дубом","public_transport":"platform","railway":"tram_stop","ref":"23","shelter":"yes","tram":"yes"}},{"type":"node","id":4743061445,"lat":49.8424972,"lon":24.035192,"tags":{"name":"Підвальна","name:en":"Pidvalna str.","name:pl":"Podwale","name:ru":"Подвальная","name:uk":"Підвальна","public_transport":"stop_position","railway":"tram_stop","tram":"yes"}},{"type":"node","id":4743061449,"lat":49.8267373,"lon":24.0341012,"tags":{"bench":"yes","bin":"yes","bus":"yes","description":"вул. Франка, 108","highway":"bus_stop","lit":"yes","name":"Стрийський парк","name:en":"Stryiskyi park","name:ru":"Стрыйский парк","name:uk":"Стрийський парк","public_transport":"platform","ref":"37","shelter":"yes","tram":"yes"}},{"type":"node","id":4743061453,"lat":49.8255685,"lon":24.0356825,"tags":{"bus":"yes","description":"вул. Свенціцького, 15","highway":"bus_stop","name":"Академія мистецтв","name:en":"Academy of Arts","name:ru":"Академия искусств","name:uk":"Академія мистецтв","old_name":"Мушака","public_transport":"platform","railway":"tram_stop","ref":"4","tram":"yes"}},{"type":"node","id":4743982059,"lat":49.837753,"lon":24.0055525,"tags":{"alt_name":"Кропивницького площа","bus":"yes","description":"вул. Городоцька, 94","highway":"bus_stop","name":"Площа Кропивницького","name:en":"Kropyvnytskoho square","name:ru":"Площадь Кропивницкого","name:uk":"Площа Кропивницького","official_name":"Площа Кропивницького","public_transport":"platform","ref":"94","tram":"yes"}},{"type":"node","id":4743982067,"lat":49.8519829,"lon":24.0293857,"tags":{"bus":"yes","description":"вул. Гайдамацька, 2а","highway":"bus_stop","name":"Гайдамацька","name:en":"Haidamatska","name:ru":"Гайдамацкая","name:uk":"Гайдамацька","public_transport":"platform","railway":"tram_stop","ref":"630","tram":"yes"}},{"type":"node","id":4743982071,"lat":49.8543361,"lon":24.0405166,"tags":{"bench":"no","bus":"yes","description":"вул. Промислова, 19","highway":"bus_stop","name":"Промислова","name:en":"Promyslova","name:ru":"Промышленная","name:uk":"Промислова","public_transport":"platform","railway":"tram_stop","ref":"672","shelter":"no","tram":"yes"}},{"type":"node","id":4743982078,"lat":49.8579832,"lon":24.0427305,"tags":{"bench":"yes","bus":"yes","description":"вул. Промислова (навпроти буд. 29)","highway":"bus_stop","name":"Трамвайне депо","name:en":"Tram depot","name:ru":"Трамвайное депо","name:uk":"Трамвайне депо","public_transport":"platform","railway":"tram_stop","ref":"676","shelter":"yes","tram":"yes"}},{"type":"node","id":4744034823,"lat":49.8548776,"lon":24.040948,"tags":{"bus":"yes","description":"вул. Промислова, 6","highway":"bus_stop","name":"Промислова","name:en":"Promyslova","name:ru":"Промышленная","name:uk":"Промислова","public_transport":"platform","railway":"tram_stop","ref":"671","tram":"yes"}},{"type":"node","id":4744034826,"lat":49.8531417,"lon":24.0364645,"tags":{"bench":"yes","bin":"yes","bus":"yes","description":"вул. Б. Хмельницького, 80","highway":"bus_stop","name":"Остряниці","name:en":"Ostrianytsi","name:ru":"Остряницы","name:uk":"Остряниці","public_transport":"platform","railway":"tram_stop","ref":"580","shelter":"yes","tram":"yes"}},{"type":"node","id":4744034827,"lat":49.8518541,"lon":24.0319377,"tags":{"bench":"yes","bin":"yes","bus":"yes","description":"вул. Б. Хмельницького, 52","highway":"bus_stop","lit":"yes","name":"Підзамче","name:en":"Pidzamche railway station","name:ru":"Подзамче","name:uk":"Підзамче","public_transport":"platform","ref":"579","shelter":"yes","tram":"yes"}},{"type":"node","id":4824664889,"lat":49.8109546,"lon":24.0462591,"tags":{"bench":"yes","bin":"yes","name":"Угорська","name:en":"Uhorska","name:ru":"Венгерская","name:uk":"Угорська","public_transport":"platform","railway":"tram_stop","ref":"796","shelter":"yes","tram":"yes"}},{"type":"node","id":4824664892,"lat":49.8108249,"lon":24.0461567,"tags":{"bench":"yes","bin":"yes","covered":"yes","name":"Угорська","name:en":"Uhorska","name:ru":"Венгерская","name:uk":"Угорська","public_transport":"platform","railway":"tram_stop","ref":"796","tram":"yes"}},{"type":"node","id":4828650439,"lat":49.7824665,"lon":24.0593179,"tags":{"bench":"yes","bin":"yes","covered":"yes","description":"пр. Червоної Калини, 106","lit":"yes","loc_ref":"222498","name":"Вернадського","name:en":"Vernadskoho","name:uk":"Вернадського","public_transport":"platform","railway":"tram_stop","ref":"785","tram":"yes"}},{"type":"node","id":4828650440,"lat":49.7823301,"lon":24.0591971,"tags":{"bench":"yes","bin":"yes","covered":"yes","description":"пр. Червоної Калини, 106","lit":"yes","loc_ref":"222497","name":"Вернадського","name:en":"Vernadskoho","name:uk":"Вернадського","public_transport":"platform","railway":"tram_stop","ref":"784","tram":"yes"}},{"type":"node","id":4940707730,"lat":49.8400998,"lon":24.0427878,"tags":{"alt_name":"Військовий госпіталь","bench":"yes","bin":"yes","bus":"yes","description":"вул. Личаківська, 28","highway":"bus_stop","lit":"yes","name":"Військовий госпіталь","name:en":"Military hospital","name:ru":"Военный госпиталь","name:uk":"Військовий госпіталь","public_transport":"platform","ref":"241","shelter":"yes"}},{"type":"node","id":5364323033,"lat":49.8340467,"lon":24.0521668,"tags":{"bench":"yes","bin":"yes","bus":"yes","check_date:shelter":"2022-05-09","description":"вул. Мечникова, 10","highway":"bus_stop","name":"Личаківський цвинтар","name:en":"Lychakivskyi cemetery","name:ru":"Лычаковское кладбище","name:uk":"Личаківський цвинтар","public_transport":"platform","ref":"0226","shelter":"yes"}},{"type":"node","id":5364351338,"lat":49.833579,"lon":24.0518992,"tags":{"bench":"yes","bin":"no","description":"вул. Мечникова (вхід на цвинтар)","highway":"bus_stop","lit":"yes","name":"Личаківський цвинтар","name:en":"Lychakivskyi cemetery","name:ru":"Лычаковское кладбище","name:uk":"Личаківський цвинтар","public_transport":"platform","ref":"0225","shelter":"yes"}},{"type":"node","id":5607543179,"lat":49.827401,"lon":24.011291,"tags":{"bench":"no","description":"вул. Сахарова, 50","name":"Горбачевського","name:en":"Horbachevskoho","name:ru":"Горбачевского","name:uk":"Горбачевського","public_transport":"platform","railway":"tram_stop","ref":"469","shelter":"no","tram":"yes"}},{"type":"node","id":5613699811,"lat":49.8344266,"lon":24.0343949,"tags":{"bus":"yes","description":"вул. Франка (вул. Зелена, 2)","highway":"bus_stop","name":"Саксаганського","name:en":"Saksahanskoho","name:ru":"Саксаганского","name:uk":"Саксаганського","public_transport":"platform","ref":"35","tram":"yes"}},{"type":"node","id":6205198019,"lat":49.8302197,"lon":24.0239145,"tags":{"description":"вул. Д. Вітовського (навпроти №41)","highway":"bus_stop","name":"Парк культури","name:en":"Park of Culture","name:uk":"Парк культури","public_transport":"stop_position","railway":"tram_stop","ref":"0020","tram":"yes"}},{"type":"node","id":6205199397,"lat":49.8302655,"lon":24.023942,"tags":{"bench":"yes","bus":"yes","highway":"bus_stop","name":"Парк Культури","name:uk":"Парк Культури","public_transport":"platform","shelter":"yes"}},{"type":"node","id":6293115778,"lat":49.8611341,"lon":24.0266645,"tags":{"bench":"no","bin":"yes","bus":"yes","highway":"bus_stop","lit":"no","name":"Торфяна","name:en":"Horodnytska","name:uk":"Торфяна","public_transport":"platform","shelter":"no","tram":"yes"}},{"type":"node","id":6346627546,"lat":49.8186259,"lon":24.0425766,"tags":{"bench":"yes","bin":"yes","covered":"yes","name":"Стадіон „Україна“","name:en":"Ukraina Stadium","name:ru":"стадион \"Украина\"","name:uk":"Стадіон „Україна“","public_transport":"platform","railway":"tram_stop","ref":"793","tram":"yes"}},{"type":"node","id":6346627547,"lat":49.8187509,"lon":24.0424293,"tags":{"bench":"yes","bin":"yes","covered":"yes","name":"Стадіон „Україна“","name:en":"Ukraina Stadium","name:ru":"стадион \"Украина\"","name:uk":"Стадіон „Україна“","public_transport":"platform","railway":"tram_stop","ref":"792","tram":"yes"}},{"type":"node","id":6401884142,"lat":49.7996195,"lon":24.047706,"tags":{"bench":"yes","covered":"yes","description":"пр. Червоної Калини, 36","loc_ref":"222473","name":"Шувар","name:en":"Shuvar","name:ru":"Шувар","name:uk":"Шувар","public_transport":"platform","railway":"tram_stop","ref":"795","tram":"yes"}},{"type":"node","id":6401884143,"lat":49.799461,"lon":24.0477254,"tags":{"bench":"yes","covered":"yes","loc_ref":"222472","name":"Шувар","name:en":"Shuvar","name:uk":"Шувар","old_ref":"794","public_transport":"platform","railway":"tram_stop","tram":"yes"}},{"type":"node","id":6401907495,"lat":49.7969851,"lon":24.0524498,"tags":{"bench":"yes","covered":"yes","description":"пр. Червоної Калини, 59","loc_ref":"222470","name":"Дитяча поліклініка","name:en":"Children's polyclinic","name:uk":"Дитяча поліклініка","public_transport":"platform","railway":"tram_stop","ref":"783","tram":"yes"}},{"type":"node","id":6401907497,"lat":49.7968463,"lon":24.0525345,"tags":{"bench":"yes","covered":"yes","description":"пр. Червоної Калини, 59","name":"Дитяча поліклініка","name:en":"Children's polyclinic","name:uk":"Дитяча поліклініка","public_transport":"platform","railway":"tram_stop","ref":"222471","tram":"yes"}},{"type":"node","id":6409550091,"lat":49.7901767,"lon":24.0590058,"tags":{"bench":"yes","covered":"yes","description":"пр. Червоної Калини, 72","loc_ref":"222483","name":"Поліклініка №4","name:en":"Polyclinic №4","name:uk":"Поліклініка №4","public_transport":"platform","railway":"tram_stop","ref":"754","tram":"yes"}},{"type":"node","id":6409550093,"lat":49.7900486,"lon":24.0588737,"tags":{"bench":"yes","covered":"yes","description":"пр. Червоної Калини, 70","loc_ref":"222484","name":"Поліклініка №4","name:en":"Polyclinic №4","name:uk":"Поліклініка №4","public_transport":"platform","railway":"tram_stop","ref":"753","tram":"yes"}},{"type":"node","id":6539504776,"lat":49.8366407,"lon":24.0221723,"tags":{"bus":"yes","name":"Головна пошта","name:en":"Main Post Office","name:uk":"Головна пошта","public_transport":"stop_position","railway":"tram_stop","ref":"52","tram":"yes"}},{"type":"node","id":6557528401,"lat":49.8441292,"lon":24.0243611,"tags":{"bench":"no","bus":"yes","highway":"bus_stop","name":"ТЦ \"Магнус\"","name:uk":"ТЦ \"Магнус\"","public_transport":"platform","ref":"13","shelter":"no"}},{"type":"node","id":7000747164,"lat":49.8543322,"lon":24.0282513,"tags":{"bench":"no","bin":"no","bus":"yes","description":"вул. Замарстинівська, 54","highway":"bus_stop","name":"Гайдамацька","name:en":"Haidamatska","name:ru":"Гайдамацкая","name:uk":"Гайдамацька","public_transport":"platform","railway":"tram_stop","ref":"244","shelter":"no","tram":"yes"}},{"type":"node","id":7042914924,"lat":49.839541,"lon":23.9955976,"tags":{"name":"Залізничний вокзал","name:be":"Чыгуначны вакзал","name:en":"Zaliznychnyi Vokzal (Railway Station)","name:uk":"Залізничний вокзал Львів","public_transport":"stop_position","railway":"tram_stop","tram":"yes","wikidata":"Q124735422"}},{"type":"node","id":7042914925,"lat":49.839479,"lon":23.9955445,"tags":{"name":"Залізничний вокзал","name:be":"Чыгуначны вакзал","name:en":"Zaliznychnyi Vokzal (Railway Station)","name:uk":"Залізничний вокзал Львів","public_transport":"stop_position","railway":"tram_stop","tram":"yes"}},{"type":"node","id":7077683530,"lat":49.8400309,"lon":23.9951235,"tags":{"name":"Залізничний вокзал","name:be":"Чыгуначны вакзал","name:en":"Zaliznychnyi Vokzal (Railway Station)","name:uk":"Залізничний вокзал Львів","public_transport":"stop_position","railway":"tram_stop","tram":"yes"}},{"type":"node","id":7093387357,"lat":49.8613688,"lon":24.0438727,"tags":{"bus":"yes","description":"вул. Промислова, 52","highway":"bus_stop","name":"Фабрика Світанок","name:en":"Svitanok factory","name:uk":"Фабрика Світанок","public_transport":"platform","ref":"675"}},{"type":"node","id":7093387457,"lat":49.8243242,"lon":23.9930046,"tags":{"bus":"yes","description":"вул. Є. Коновальця, навпроти №109","highway":"bus_stop","name":"Коновальця, музей Труша","name:en":"Konovaltsia, Ivan Trush Museum","name:ru":"Коновальца, музей Труша","name:uk":"Коновальця, музей Труша","public_transport":"platform","ref":"0677"}},{"type":"node","id":7093387470,"lat":49.8464938,"lon":24.0290047,"tags":{"bench":"yes","bin":"yes","description":"вул. Хмельницького, 19","lit":"yes","name":"Площа Старий ринок","name:en":"Staryi Rynok square","name:pl":"Stary Rynek","name:uk":"Площа Старий ринок","public_transport":"stop_position","railway":"tram_stop","ref":"3","shelter":"yes","tram":"yes"}},{"type":"node","id":7129497099,"lat":49.7996076,"lon":24.0476694,"tags":{"name":"Шувар","name:en":"Shuvar","name:uk":"Шувар","public_transport":"stop_position","railway":"tram_stop","ref":"795","tram":"yes"}},{"type":"node","id":8219558985,"lat":49.8401604,"lon":24.0427591,"tags":{"bus":"yes","name":"Військовий госпіталь","name:en":"Military hospital","name:uk":"Військовий госпіталь","public_transport":"stop_position","ref":"241"}},{"type":"node","id":8221888384,"lat":49.8431903,"lon":24.0225399,"tags":{"name":"Наливайка","name:en":"Nalyvaika","name:pl":"Rzeźnicka","name:uk":"Наливайка","public_transport":"stop_position","railway":"tram_stop","ref":"14","tram":"yes"}},{"type":"node","id":8221888385,"lat":49.8431414,"lon":24.0223144,"tags":{"bench":"no","bin":"yes","bus":"yes","highway":"bus_stop","lit":"no","name":"Наливайка","name:en":"Nalyvaika","name:uk":"Наливайка","public_transport":"platform","shelter":"no"}},{"type":"node","id":8221914974,"lat":49.8427481,"lon":24.0181591,"tags":{"bus":"yes","name":"Церква святої Анни","name:en":"St. Anne Church","name:uk":"Церква святої Анни","public_transport":"stop_position","railway":"tram_stop","ref":"679","share_taxi":"yes","tram":"yes"}},{"type":"node","id":8221931650,"lat":49.8424388,"lon":24.0155454,"tags":{"bus":"yes","name":"Церква Анни","name:en":"St. Anna Church","name:uk":"Церква Анни","public_transport":"stop_position","railway":"tram_stop","ref":"60","tram":"yes"}},{"type":"node","id":8221932432,"lat":49.8402426,"lon":24.0121899,"tags":{"bus":"yes","name":"Цирк","name:en":"Circus","name:uk":"Цирк","public_transport":"stop_position","ref":"17","tram":"yes"}},{"type":"node","id":8221932433,"lat":49.8402674,"lon":24.0122542,"tags":{"bus":"yes","name":"Цирк","name:en":"Circus","name:uk":"Цирк","public_transport":"stop_position","ref":"15","tram":"yes"}},{"type":"node","id":8253006455,"lat":49.8369713,"lon":24.034884,"tags":{"bus":"yes","name":"Шухевича","name:en":"Shukhevycha","name:uk":"Шухевича","public_transport":"stop_position","railway":"tram_stop","ref":"30","tram":"yes"}},{"type":"node","id":8253006458,"lat":49.8373287,"lon":24.0349569,"tags":{"bus":"yes","name":"Шухевича","name:en":"Shukhevycha","name:uk":"Шухевича","public_transport":"stop_position","ref":"29","tram":"yes"}},{"type":"node","id":8259819688,"lat":49.834142,"lon":24.0342128,"tags":{"bus":"yes","name":"Саксаганського","name:en":"Saksahanskoho","name:uk":"Саксаганського","public_transport":"stop_position","railway":"tram_stop","ref":"36","tram":"yes"}},{"type":"node","id":8259819689,"lat":49.8344173,"lon":24.0343572,"tags":{"bus":"yes","name":"Саксаганського","name:en":"Saksahanskoho","name:uk":"Саксаганського","public_transport":"stop_position","railway":"tram_stop","ref":"35","tram":"yes"}},{"type":"node","id":8259825381,"lat":49.830608,"lon":24.0322151,"tags":{"bus":"yes","name":"Площа Франка","name:en":"Franko square","name:uk":"Площа Франка","public_transport":"stop_position","railway":"tram_stop","ref":"31","tram":"yes"}},{"type":"node","id":8259861601,"lat":49.8301353,"lon":24.031275,"tags":{"bus":"yes","name":"Площа Франка","name:en":"Franko square","name:uk":"Площа Франка","public_transport":"stop_position","railway":"tram_stop","ref":"34","tram":"yes"}},{"type":"node","id":8259947996,"lat":49.8255282,"lon":24.0356073,"tags":{"bus":"yes","name":"Академія мистецтв","name:en":"Academy of Arts","name:uk":"Академія мистецтв","public_transport":"stop_position","railway":"tram_stop","ref":"4","tram":"yes"}},{"type":"node","id":8259958287,"lat":49.8292384,"lon":24.032162,"tags":{"bus":"yes","name":"Стрийський ринок","name:en":"Stryiskyi market","name:uk":"Стрийський ринок","public_transport":"stop_position","railway":"tram_stop","ref":"32","tram":"yes"}},{"type":"node","id":8259999713,"lat":49.8186467,"lon":24.0425927,"tags":{"name":"Стадіон „Україна“","name:en":"Ukraina Stadium","name:uk":"Стадіон „Україна“","public_transport":"stop_position","railway":"tram_stop","ref":"793","tram":"yes"}},{"type":"node","id":8259999714,"lat":49.8187365,"lon":24.0424186,"tags":{"name":"Стадіон „Україна“","name:en":"Ukraina Stadium","name:uk":"Стадіон „Україна“","public_transport":"stop_position","railway":"tram_stop","ref":"792","tram":"yes"}},{"type":"node","id":8260033669,"lat":49.8108265,"lon":24.0461874,"tags":{"name":"Угорська","name:en":"Uhorska","name:uk":"Угорська","public_transport":"stop_position","railway":"tram_stop","ref":"796","tram":"yes"}},{"type":"node","id":8260033670,"lat":49.8109521,"lon":24.0462318,"tags":{"name":"Угорська","name:en":"Uhorska","name:uk":"Угорська","public_transport":"stop_position","railway":"tram_stop","ref":"796","tram":"yes"}},{"type":"node","id":8260110394,"lat":49.7994736,"lon":24.0477503,"tags":{"name":"Шувар","name:en":"Shuvar","name:uk":"Шувар","public_transport":"stop_position","railway":"tram_stop","tram":"yes"}},{"type":"node","id":8260218178,"lat":49.7900496,"lon":24.0589146,"tags":{"name":"Поліклініка №4","name:en":"Polyclinic №4","name:uk":"Поліклініка №4","public_transport":"stop_position","railway":"tram_stop","ref":"753","tram":"yes"}},{"type":"node","id":8260218179,"lat":49.7901762,"lon":24.0589618,"tags":{"name":"Поліклініка №4","name:en":"Polyclinic №4","name:uk":"Поліклініка №4","public_transport":"stop_position","railway":"tram_stop","ref":"754","tram":"yes"}},{"type":"node","id":8260219385,"lat":49.795062,"lon":24.0561357,"tags":{"name":"Центр Довженка","name:en":"Dovzhenko Center","name:uk":"Центр Довженка","public_transport":"stop_position","railway":"tram_stop","ref":"790","tram":"yes"}},{"type":"node","id":8260219386,"lat":49.7949566,"lon":24.0562548,"tags":{"name":"Центр Довженка","name:en":"Dovzhenko Center","name:uk":"Центр Довженка","public_transport":"stop_position","railway":"tram_stop","ref":"791","tram":"yes"}},{"type":"node","id":8260246307,"lat":49.788136,"lon":24.0590455,"tags":{"name":"Коломийська","name:en":"Kolomyiska","name:uk":"Коломийська","public_transport":"stop_position","railway":"tram_stop","ref":"789","tram":"yes"}},{"type":"node","id":8260246308,"lat":49.7880017,"lon":24.0589984,"tags":{"name":"Коломийська","name:en":"Kolomyiska","name:uk":"Коломийська","public_transport":"stop_position","railway":"tram_stop","ref":"788","tram":"yes"}},{"type":"node","id":8260261787,"lat":49.7855965,"lon":24.0591109,"tags":{"name":"Санта Барбара","name:en":"Santa Barbara","name:uk":"Санта Барбара","public_transport":"stop_position","railway":"tram_stop","ref":"787","tram":"yes"}},{"type":"node","id":8260261788,"lat":49.7857375,"lon":24.0591518,"tags":{"name":"Санта Барбара","name:en":"Santa Barbara","name:uk":"Санта Барбара","public_transport":"stop_position","railway":"tram_stop","ref":"786","tram":"yes"}},{"type":"node","id":8260308823,"lat":49.7823312,"lon":24.0592321,"tags":{"name":"Вернадського","name:en":"Vernadskoho","name:uk":"Вернадського","public_transport":"stop_position","railway":"tram_stop","ref":"784","tram":"yes"}},{"type":"node","id":8260308824,"lat":49.782466,"lon":24.0592795,"tags":{"name":"Вернадського","name:en":"Vernadskoho","name:uk":"Вернадського","public_transport":"stop_position","railway":"tram_stop","ref":"785","tram":"yes"}},{"type":"node","id":8309611171,"lat":49.8464994,"lon":24.029024,"tags":{"bus":"yes","name":"Площа Старий ринок","name:en":"Staryi Rynok square","name:pl":"Stary Rynek","name:uk":"Площа Старий ринок","public_transport":"stop_position","ref":"3","tram":"yes"}},{"type":"node","id":8309649544,"lat":49.8501473,"lon":24.026855,"tags":{"bus":"yes","name":"Під Дубом","name:en":"Pid Dubom","name:uk":"Під Дубом","public_transport":"stop_position","railway":"tram_stop","ref":"23","tram":"yes"}},{"type":"node","id":8309659320,"lat":49.8543768,"lon":24.028226,"tags":{"bus":"yes","name":"Гайдамацька","name:en":"Haidamatska","name:uk":"Гайдамацька","public_transport":"stop_position","railway":"tram_stop","ref":"244","tram":"yes"}},{"type":"node","id":8309664834,"lat":49.8520424,"lon":24.0274343,"tags":{"bus":"yes","name":"Палац Хоткевича","name:en":"Hnat Khotkevych Palace of Culture","name:uk":"Палац Хоткевича","public_transport":"stop_position","railway":"tram_stop","ref":"642","tram":"yes"}},{"type":"node","id":8309676248,"lat":49.8523578,"lon":24.0275849,"tags":{"bus":"yes","name":"Палац Культури Хоткевича","name:en":"Hnat Khotkevych Palace of Culture","name:uk":"Палац Культури Хоткевича","public_transport":"stop_position","railway":"tram_stop","ref":"640","tram":"yes"}},{"type":"node","id":8309694963,"lat":49.8539488,"lon":24.0281824,"tags":{"bus":"yes","name":"Гайдамацька","name:en":"Haidamatska","name:uk":"Гайдамацька","public_transport":"stop_position","railway":"tram_stop","ref":"641","tram":"yes"}},{"type":"node","id":8309701982,"lat":49.8611387,"lon":24.0267573,"tags":{"bus":"yes","name":"Торфяна","name:en":"Horodnytska","name:uk":"Торфяна","public_transport":"stop_position","railway":"tram_stop","ref":"704","tram":"yes"}},{"type":"node","id":8309708940,"lat":49.8569568,"lon":24.0277928,"tags":{"bus":"yes","name":"Реміснича","name:en":"Remisnycha","name:uk":"Реміснича","public_transport":"stop_position","ref":"643"}},{"type":"node","id":8311519231,"lat":49.8519853,"lon":24.0293383,"tags":{"bus":"yes","name":"Гайдамацька","name:en":"Haidamatska","name:uk":"Гайдамацька","public_transport":"stop_position","railway":"tram_stop","ref":"630","tram":"yes"}},{"type":"node","id":8311536152,"lat":49.8523609,"lon":24.0333465,"tags":{"bus":"yes","name":"Підзамче","name:en":"Pidzamche railway station","name:uk":"Підзамче","public_transport":"stop_position","railway":"tram_stop","ref":"581","tram":"yes"}},{"type":"node","id":8311578980,"lat":49.8519109,"lon":24.0318967,"tags":{"bus":"yes","name":"Підзамче","name:en":"Pidzamche railway station","name:uk":"Підзамче","public_transport":"stop_position","railway":"tram_stop","ref":"579","tram":"yes"}},{"type":"node","id":8311603152,"lat":49.8531923,"lon":24.036465,"tags":{"bus":"yes","name":"Остряниці","name:en":"Ostrianytsi","name:uk":"Остряниці","public_transport":"stop_position","railway":"tram_stop","ref":"580","tram":"yes"}},{"type":"node","id":8312626818,"lat":49.854858,"lon":24.0409196,"tags":{"bus":"yes","name":"Промислова","name:en":"Promyslova","name:uk":"Промислова","public_transport":"stop_position","railway":"tram_stop","ref":"671","tram":"yes"}},{"type":"node","id":8312676187,"lat":49.8620148,"lon":24.0440022,"tags":{"name":"Фабрика Світанок","name:en":"Svitanok factory","name:uk":"Фабрика Світанок","public_transport":"stop_position","railway":"tram_stop","ref":"674","tram":"yes"}},{"type":"node","id":8312714935,"lat":49.861371,"lon":24.0438457,"tags":{"bus":"yes","name":"Фабрика Світанок","name:en":"Svitanok factory","name:uk":"Фабрика Світанок","public_transport":"stop_position","ref":"675","tram":"yes"}},{"type":"node","id":8312886797,"lat":49.8665237,"lon":24.0445741,"tags":{"bench":"yes","description":"вул. І. Миколайчука","name":"Миколайчука","name:en":"Mykolaichuka","name:ru":"Миколайчука","name:uk":"Миколайчука","public_transport":"platform","railway":"tram_stop","ref":"661","shelter":"yes","tram":"yes"}},{"type":"node","id":8313206029,"lat":49.8470795,"lon":24.0031147,"tags":{"bus":"yes","name":"Турянського","name:en":"Turianskoho","name:uk":"Турянського","public_transport":"stop_position","railway":"tram_stop","ref":"182","tram":"yes"}},{"type":"node","id":8313216678,"lat":49.8480621,"lon":24.000245,"tags":{"bus":"yes","name":"Єрошенка","name:en":"Yeroshenka","name:pl":"Pilichowska","name:uk":"Єрошенка","public_transport":"stop_position","railway":"tram_stop","ref":"183","tram":"yes"}},{"type":"node","id":8313230532,"lat":49.8509889,"lon":23.9917976,"tags":{"bus":"yes","name":"Крупзавод","name:en":"Krupzavod","name:uk":"Крупзавод","public_transport":"stop_position","railway":"tram_stop","ref":"184","tram":"yes"}},{"type":"node","id":8328568977,"lat":49.8402413,"lon":24.0272291,"tags":{"bus":"yes","name":"Дорошенка","name:en":"Doroshenka","name:uk":"Дорошенка","public_transport":"stop_position","railway":"tram_stop","ref":"50","tram":"yes"}},{"type":"node","id":8328568978,"lat":49.8402388,"lon":24.027164,"tags":{"bus":"yes","name":"Дорошенка","name:en":"Doroshenka","name:uk":"Дорошенка","public_transport":"stop_position","railway":"tram_stop","ref":"51","tram":"yes"}},{"type":"node","id":8328613938,"lat":49.8366565,"lon":24.0222153,"tags":{"bus":"yes","name":"Головна пошта","name:en":"Main Post Office","name:uk":"Головна пошта","public_transport":"stop_position","railway":"tram_stop","ref":"43","tram":"yes"}},{"type":"node","id":8328637088,"lat":49.8270373,"lon":24.0109215,"tags":{"name":"Горбачевського","name:en":"Horbachevskoho","name:uk":"Горбачевського","public_transport":"stop_position","railway":"tram_stop","ref":"468","tram":"yes"}},{"type":"node","id":8328637089,"lat":49.8270256,"lon":24.0109428,"tags":{"bench":"yes","bin":"yes","description":"вул. Сахарова, 50","name":"Горбачевського","name:en":"Horbachevskoho","name:ru":"Горбачевского","name:uk":"Горбачевського","public_transport":"platform","railway":"tram_stop","ref":"468","shelter":"yes","tram":"yes"}},{"type":"node","id":8328637091,"lat":49.8273869,"lon":24.0113175,"tags":{"name":"Горбачевського","name:en":"Horbachevskoho","name:uk":"Горбачевського","public_transport":"stop_position","railway":"tram_stop","ref":"469","tram":"yes"}},{"type":"node","id":8328653672,"lat":49.8326521,"lon":24.0171293,"tags":{"bus":"yes","name":"Площа Станіслава Лема","name:en":"Ploshcha Stanislava Lema","name:uk":"Площа Станіслава Лема","public_transport":"stop_position","railway":"tram_stop","ref":"27","tram":"yes"}},{"type":"node","id":8328653673,"lat":49.8326554,"lon":24.0171337,"tags":{"bench":"yes","bus":"yes","description":"вул. І. Нечуя-Левицького, 8","highway":"bus_stop","lit":"yes","name":"Площа Станіслава Лема","name:en":"Ploshcha Stanislava Lema","name:ru":"Сахарова","name:uk":"Площа Станіслава Лема","public_transport":"platform","railway":"tram_stop","ref":"27","shelter":"yes","tram":"yes"}},{"type":"node","id":8328653674,"lat":49.8324716,"lon":24.0177094,"tags":{"bus":"yes","name":"Площа Станіслава Лема","name:en":"Ploshcha Stanislava Lema","name:uk":"Площа Станіслава Лема","public_transport":"stop_position","railway":"tram_stop","ref":"505","tram":"yes"}},{"type":"node","id":8328657625,"lat":49.8319222,"lon":24.0174294,"tags":{"name":"Площа Станіслава Лема","name:en":"Ploshcha Stanislava Lema","name:uk":"Площа Станіслава Лема","public_transport":"stop_position","railway":"tram_stop","ref":"467","tram":"yes"}},{"type":"node","id":8328657626,"lat":49.8320901,"lon":24.0177783,"tags":{"name":"Площа Станіслава Лема","name:en":"Ploshcha Stanislava Lema","name:uk":"Площа Станіслава Лема","public_transport":"stop_position","railway":"tram_stop","ref":"466","tram":"yes"}},{"type":"node","id":8328751028,"lat":49.822529,"lon":24.0065926,"tags":{"name":"вул. Ісаєвича","name:en":"Isaievycha Str.","name:uk":"вул. Ісаєвича","public_transport":"stop_position","railway":"tram_stop","ref":"294","tram":"yes"}},{"type":"node","id":8328751029,"lat":49.8226591,"lon":24.0066109,"tags":{"name":"вул. Ісаєвича","name:en":"Isaievycha Str.","name:uk":"вул. Ісаєвича","public_transport":"stop_position","railway":"tram_stop","ref":"293","tram":"yes"}},{"type":"node","id":8328787374,"lat":49.8176087,"lon":24.0032063,"tags":{"name":"Аркаса","name:en":"Arkasa","name:uk":"Аркаса","public_transport":"stop_position","railway":"tram_stop","ref":"525","tram":"yes"}},{"type":"node","id":8328787375,"lat":49.8174035,"lon":24.0031202,"tags":{"name":"Аркаса","name:en":"Arkasa","name:uk":"Аркаса","public_transport":"stop_position","railway":"tram_stop","ref":"524","tram":"yes"}},{"type":"node","id":8328787376,"lat":49.8173131,"lon":24.0030819,"tags":{"bench":"yes","bin":"yes","lit":"yes","name":"Аркаса","name:en":"Arkasa","name:ru":"Аркаса","name:uk":"Аркаса","public_transport":"platform","railway":"tram_stop","ref":"524","shelter":"yes","tram":"yes"}},{"type":"node","id":8328815461,"lat":49.8136051,"lon":24.0008327,"tags":{"name":"Бойчука, Кіноцентр","name:en":"Boichuka; Film Center","name:uk":"Бойчука, Кіноцентр","public_transport":"stop_position","railway":"tram_stop","ref":"516","tram":"yes"}},{"type":"node","id":8328815462,"lat":49.8130374,"lon":24.0004885,"tags":{"name":"Бойчука, Кіноцентр","name:en":"Boichuka; Film Center","name:uk":"Бойчука, Кіноцентр","public_transport":"stop_position","railway":"tram_stop","ref":"517","tram":"yes"}},{"type":"node","id":8328936284,"lat":49.8384089,"lon":24.0348467,"tags":{"name":"Площа Соборна","name:en":"Soborna square","name:pl":"plac Bernardyński","name:uk":"Площа Соборна","public_transport":"stop_position","railway":"tram_stop","ref":"74","tram":"yes"}},{"type":"node","id":8328936285,"lat":49.8384007,"lon":24.0348063,"tags":{"bench":"no","description":"пл. Соборна, 10","name":"Площа Соборна","name:en":"Soborna square","name:pl":"plac Bernardyński","name:ru":"Площадь Соборная","name:uk":"Площа Соборна","public_transport":"platform","railway":"tram_stop","ref":"74","shelter":"no","tram":"yes","wheelchair":"limited"}},{"type":"node","id":8328938028,"lat":49.8071749,"lon":23.9989975,"tags":{"bench":"yes","bin":"yes","description":"вул. Княгині Ольги, 69","lit":"yes","name":"Аквапарк","name:en":"Aquapark","name:ru":"Аквапарк","name:uk":"Аквапарк","public_transport":"platform","railway":"tram_stop","ref":"519","shelter":"yes","tram":"yes","wheelchair":"limited"}},{"type":"node","id":9356123874,"lat":49.8364967,"lon":24.0042883,"tags":{"name":"Площа Кропивницького","name:en":"Kropyvnytskoho sqr","name:uk":"Площа Кропивницького","public_transport":"stop_position","railway":"tram_stop","tram":"yes"}},{"type":"node","id":9356141140,"lat":49.8366076,"lon":24.0042433,"tags":{"name":"Площа Кропивницького","name:en":"Kropyvnytskoho sqr","name:uk":"Площа Кропивницького","public_transport":"stop_position","railway":"tram_stop","tram":"yes"}},{"type":"node","id":9356141162,"lat":49.8373045,"lon":24.0045042,"tags":{"bus":"yes","name":"Площа Кропивницького","name:en":"Kropyvnytskoho square","name:uk":"Площа Кропивницького","public_transport":"stop_position","railway":"tram_stop","ref":"18","tram":"yes"}},{"type":"node","id":9356141179,"lat":49.8345467,"lon":24.0073674,"tags":{"name":"Бандери","name:en":"Rusovykh","name:ru":"Русовых","name:uk":"Бандери","public_transport":"stop_position","railway":"tram_stop","tram":"yes"}},{"type":"node","id":9432831075,"lat":49.8347012,"lon":24.0092602,"tags":{"bench":"yes","bin":"yes","bus":"yes","description":"вул. С. Бандери, 53","highway":"bus_stop","lit":"yes","name":"Карпінського","name:en":"Karpinskoho","name:uk":"Карпінського","public_transport":"platform","ref":"0556","shelter":"yes"}},{"type":"node","id":9769428178,"lat":49.8071279,"lon":23.9988936,"tags":{"bench":"no","bin":"no","description":"вул. Княгині Ольги, 69","lit":"yes","name":"Аквапарк","name:en":"Aquapark","name:ru":"Аквапарк","name:uk":"Аквапарк","public_transport":"platform","railway":"tram_stop","shelter":"no","tram":"yes","wheelchair":"limited"}},{"type":"node","id":9769428179,"lat":49.8071247,"lon":23.998894,"tags":{"name":"Аквапарк","name:en":"Aquapark","name:uk":"Аквапарк","public_transport":"stop_position","railway":"tram_stop","tram":"yes"}},{"type":"node","id":9770391988,"lat":49.8270217,"lon":23.9973618,"tags":{"bench":"yes","bin":"yes","lit":"yes","name":"Гординських","name:en":"Hordynskykh","name:ru":"Гординских","name:uk":"Гординських","public_transport":"platform","shelter":"yes"}},{"type":"node","id":9770391990,"lat":49.8373904,"lon":24.0599922,"tags":{"bus":"yes","highway":"bus_stop","name":"Богдана Котика","name:en":"Kotyka","name:ru":"Котика","name:uk":"Богдана Котика","public_transport":"platform","tram":"yes"}},{"type":"node","id":9770391991,"lat":49.8389009,"lon":24.0538661,"tags":{"description":"вул. Личаківська, 74","highway":"bus_stop","name":"Мечникова","name:en":"Mechnykova","name:ru":"Мечникова","name:uk":"Мечникова","public_transport":"platform","tram":"yes"}},{"type":"node","id":9770391992,"lat":49.8388569,"lon":24.0536725,"tags":{"name":"Мечникова","name:en":"Mechnykova","name:uk":"Мечникова","public_transport":"stop_position","railway":"tram_stop","tram":"yes"}},{"type":"node","id":9770391993,"lat":49.8351785,"lon":24.0679133,"tags":{"bin":"yes","description":"вул. Пасічна, 3","highway":"bus_stop","name":"Пасічна","name:en":"Pasichna","name:uk":"Пасічна","public_transport":"platform","tram":"yes"}},{"type":"node","id":9770391994,"lat":49.8373783,"lon":24.0595724,"tags":{"description":"вул. Личаківська, 112","highway":"bus_stop","name":"Богдана Котика","name:en":"Kotyka","name:uk":"Богдана Котика","public_transport":"platform","tram":"yes"}},{"type":"node","id":9770392002,"lat":49.8243589,"lon":23.9932284,"tags":{"description":"вул. Коновальця, 111","highway":"bus_stop","name":"Коновальця, музей Труша","name:en":"Konovaltsia, Ivan Trush Museum","name:ru":"Коновальца, музей Труша","name:uk":"Коновальця, музей Труша","public_transport":"stop_position","railway":"tram_stop","tram":"yes"}},{"type":"node","id":9773741228,"lat":49.8292112,"lon":24.0568717,"tags":{"highway":"bus_stop","name":"Погулянка","name:uk":"Погулянка","public_transport":"platform"}},{"type":"node","id":9773741229,"lat":49.8305182,"lon":24.0493164,"tags":{"highway":"bus_stop","name":"Левицького","name:uk":"Левицького","public_transport":"platform"}},{"type":"node","id":9773741230,"lat":49.8303706,"lon":24.0494525,"tags":{"highway":"bus_stop","name":"Левицького","name:uk":"Левицького","public_transport":"platform"}},{"type":"node","id":9773741231,"lat":49.8327985,"lon":24.0503943,"tags":{"name":"Обласна інфекційна лікарня","name:uk":"Обласна інфекційна лікарня","public_transport":"stop_position","railway":"tram_stop","tram":"yes"}},{"type":"node","id":9773741233,"lat":49.8340594,"lon":24.0522349,"tags":{"name":"Личаківський цвинтар","name:en":"Lychakivskyi Tsvyntar (Lychakiv Cemetry)","name:uk":"Личаківський цвинтар","public_transport":"stop_position","railway":"tram_stop","tram":"yes"}},{"type":"node","id":9773741234,"lat":49.8346737,"lon":24.0163566,"tags":{"name":"Львівська політехніка","name:en":"Lviv Politechnic","name:ru":"Львовская Политехника","name:uk":"Львівська політехніка","public_transport":"stop_position","railway":"tram_stop","tram":"yes"}},{"type":"node","id":9773741235,"lat":49.8347259,"lon":24.0154869,"tags":{"name":"Львівська політехніка","name:en":"Lviv Politechnic","name:ru":"Львовская Политехника","name:uk":"Львівська політехніка","public_transport":"stop_position","railway":"tram_stop","tram":"yes"}},{"type":"node","id":9773741236,"lat":49.8347352,"lon":24.0090841,"tags":{"name":"вул. Старосольських","name:en":"Starosolskyh st.","name:ru":"ул. Старосольських","name:uk":"вул. Старосольських","public_transport":"stop_position","railway":"tram_stop","tram":"yes","wheelchair":"no"}},{"type":"node","id":9773741237,"lat":49.8347558,"lon":24.0097474,"tags":{"name":"вул. Старосольських","name:en":"Starosolskyh st.","name:ru":"ул. Старосольських","name:uk":"вул. Старосольських","public_transport":"stop_position","railway":"tram_stop","tram":"yes","wheelchair":"no"}},{"type":"node","id":9777029084,"lat":49.7969688,"lon":24.0524349,"tags":{"name":"Дитяча поліклініка","name:uk":"Дитяча поліклініка","public_transport":"stop_position","railway":"tram_stop","tram":"yes"}},{"type":"node","id":9777029085,"lat":49.7968639,"lon":24.0525504,"tags":{"name":"Дитяча поліклініка","name:uk":"Дитяча поліклініка","public_transport":"stop_position","railway":"tram_stop","tram":"yes"}},{"type":"node","id":9777029086,"lat":49.8348589,"lon":24.0068655,"tags":{"name":"Бандери","name:en":"Rusovykh","name:ru":"Русовых","name:uk":"Бандери","public_transport":"stop_position","railway":"tram_stop","tram":"yes"}},{"type":"node","id":9941077967,"lat":49.8446619,"lon":24.0104613,"tags":{"bus":"yes","name":"Мудрого","name:en":"Yaroslava Mudroho","name:uk":"Мудрого","public_transport":"stop_position","railway":"tram_stop","ref":"77","tram":"yes"}},{"type":"node","id":9941077968,"lat":49.8445926,"lon":24.0104319,"tags":{"bus":"yes","highway":"bus_stop","name":"Мудрого","name:en":"Yaroslava Mudroho","name:ru":"Мудрого","name:uk":"Мудрого","public_transport":"platform","ref":"77","tram":"yes"}},{"type":"node","id":11176512945,"lat":49.8419444,"lon":24.0342579,"tags":{"bench":"no","bin":"yes","lit":"yes","name":"Руська","name:uk":"Руська","public_transport":"platform","shelter":"no"}},{"type":"node","id":11565311998,"lat":49.8418809,"lon":24.0163424,"tags":{"bus":"yes","name":"Церква святої Анни","name:en":"St. Anne Church","name:uk":"Церква святої Анни","public_transport":"stop_position","railway":"tram_stop","tram":"yes"}},{"type":"node","id":11568745430,"lat":49.8299248,"lon":24.0315728,"tags":{"name":"Площа Франка","name:en":"Franko square","name:uk":"Площа Франка","public_transport":"stop_position","railway":"tram_stop","ref":"311","tram":"yes"}},{"type":"node","id":11568758849,"lat":49.829759,"lon":24.0312423,"tags":{"name":"Площа Франка","name:en":"Franko square","name:uk":"Площа Франка","public_transport":"stop_position","railway":"tram_stop","ref":"361","tram":"yes"}},{"type":"node","id":11568972222,"lat":49.8248228,"lon":24.0369299,"tags":{"bus":"yes","name":"Академія мистецтв","name:en":"Academy of Arts","name:uk":"Академія мистецтв","public_transport":"stop_position","railway":"tram_stop","ref":"73","tram":"yes"}},{"type":"node","id":11569200276,"lat":49.8319342,"lon":24.0112351,"tags":{"name":"Київська","name:en":"Kyivska","name:uk":"Київська","public_transport":"stop_position","railway":"tram_stop","tram":"yes"}},{"type":"node","id":11569200906,"lat":49.8284144,"lon":23.9997025,"tags":{"description":"вул. Коновальця, 85","highway":"bus_stop","name":"Залізняка","name:en":"Zalizniaka","name:uk":"Залізняка","public_transport":"stop_position","railway":"tram_stop","ref":"0501","tram":"yes"}},{"type":"node","id":12037132064,"lat":49.8642162,"lon":24.0444412,"tags":{"bus":"yes","name":"Липинського","name:en":"Lypynskoho","name:uk":"Липинського","public_transport":"stop_position","railway":"tram_stop","ref":"678","tram":"yes"}},{"type":"node","id":12037206588,"lat":49.8580339,"lon":24.0427394,"tags":{"bus":"yes","name":"Трамвайне депо","name:en":"Tram depot","name:uk":"Трамвайне депо","public_transport":"stop_position","railway":"tram_stop","ref":"676","tram":"yes"}},{"type":"node","id":12037206621,"lat":49.8534053,"lon":24.0384292,"tags":{"bus":"yes","name":"Остряниці","name:en":"Ostrianytsi","name:uk":"Остряниці","public_transport":"stop_position","railway":"tram_stop","ref":"584","tram":"yes"}},{"type":"node","id":12037206622,"lat":49.8542925,"lon":24.0405645,"tags":{"bus":"yes","name":"Промислова","name:en":"Promyslova","name:uk":"Промислова","public_transport":"stop_position","railway":"tram_stop","ref":"672","tram":"yes"}},{"type":"node","id":12061444978,"lat":49.8540535,"lon":23.9867371,"tags":{"bus":"yes","highway":"bus_stop","name":"вулиця Отця Омеляна Ковча","name:uk":"вулиця Отця Омеляна Ковча","public_transport":"platform"}},{"type":"node","id":12484667423,"lat":49.8387025,"lon":24.0543511,"tags":{"name":"Мечникова","name:en":"Mechnykova","name:uk":"Мечникова","public_transport":"stop_position","railway":"tram_stop","tram":"yes"}},{"type":"node","id":12695447706,"lat":49.8355032,"lon":24.0531504,"tags":{"name":"Меморіал Героїв України","public_transport":"stop_position","railway":"tram_stop","tram":"yes"}},{"type":"node","id":12695447707,"lat":49.8352492,"lon":24.0530962,"tags":{"name":"Меморіал Героїв України","name:uk":"Меморіал Героїв України","public_transport":"stop_position","railway":"tram_stop","tram":"yes"}},{"type":"node","id":12950359745,"lat":49.8490293,"lon":23.9966269,"tags":{"bus":"yes","name":"Янівський цвинтар","name:en":"Yanivskyi cemetery","name:uk":"Янівський цвинтар","public_transport":"stop_position","railway":"tram_stop","ref":"697","tram":"yes"}},{"type":"node","id":13230495421,"lat":49.8441061,"lon":24.0243775,"tags":{"name":"ТЦ \"Магнус\"","name:uk":"ТЦ \"Магнус\"","public_transport":"stop_position","railway":"tram_stop","tram":"yes"}},{"type":"node","id":1640509950,"lat":49.8305784,"lon":24.0321595,"tags":{"bench":"yes","bin":"no","bus":"yes","description":"вул. І. Франка, 66","highway":"bus_stop","lit":"yes","name":"Площа Франка","name:en":"Franko square","name:uk":"Площа Франка","public_transport":"platform","railway":"tram_stop","ref":"31","shelter":"yes"}},{"type":"node","id":1728998839,"lat":49.8350935,"lon":23.9934999,"tags":{"description":"вул. Городоцька, 183","highway":"bus_stop","loc_ref":"222205","name":"ТЦ Скриня","name:en":"Skrynia","name:ru":"Скрыня","name:uk":"ТЦ Скриня","public_transport":"stop_position","railway":"tram_stop","ref":"0495","tram":"yes"}},{"type":"node","id":2043751707,"lat":49.8289948,"lon":24.0005462,"tags":{"description":"вул. Коновальця, 74","highway":"bus_stop","name":"Залізняка","name:en":"Zalizniaka","name:ru":"Железняка","name:uk":"Залізняка","public_transport":"stop_position","railway":"tram_stop","ref":"0500","tram":"yes"}},{"type":"node","id":4743061423,"lat":49.853874,"lon":24.0281499,"tags":{"bench":"yes","bin":"no","bus":"yes","description":"вул. Замарстинівська, 39","highway":"bus_stop","lit":"yes","name":"Гайдамацька","name:en":"Haidamatska","name:ru":"Гайдамацкая","name:uk":"Гайдамацька","public_transport":"platform","railway":"tram_stop","ref":"641","shelter":"yes","tram":"yes"}},{"type":"node","id":4743061427,"lat":49.8584092,"lon":24.0270146,"tags":{"bench":"yes","bin":"yes","bus":"yes","description":"вул. Замарстинівська, 85","highway":"bus_stop","lit":"no","name":"Городницька","name:en":"Horodnytska","name:ru":"Городницкая","name:uk":"Городницька","public_transport":"platform","railway":"tram_stop","ref":"644","shelter":"yes","tram":"yes"}},{"type":"node","id":6457232520,"lat":49.8431586,"lon":24.01491,"tags":{"bus":"yes","name":"Церква святої Анни","name:en":"St. Anne Church","name:uk":"Церква святої Анни","public_transport":"stop_position","railway":"tram_stop","ref":"680","tram":"yes"}},{"type":"node","id":7000663672,"lat":49.8565408,"lon":24.0418098,"tags":{"bench":"yes","bin":"yes","bus":"yes","highway":"bus_stop","name":"Трамвайне депо","name:en":"Tram depot","name:ru":"Трамвайное депо","name:uk":"Трамвайне депо","public_transport":"platform","railway":"tram_stop","ref":"673","shelter":"yes","tram":"yes"}},{"type":"node","id":8221761934,"lat":49.8448143,"lon":24.0277073,"tags":{"bus":"yes","name":"Театральна","name:en":"Teatralna","name:uk":"Театральна","public_transport":"stop_position","railway":"tram_stop","ref":"40"}},{"type":"node","id":8221916342,"lat":49.8377337,"lon":24.0056355,"tags":{"bus":"yes","name":"Площа Кропивницького","name:en":"Kropyvnytskoho square","name:uk":"Площа Кропивницького","public_transport":"stop_position","railway":"tram_stop","ref":"94","tram":"yes"}},{"type":"node","id":8259971995,"lat":49.8268182,"lon":24.034186,"tags":{"bus":"yes","name":"Стрийський парк","name:en":"Stryiskyi park","name:uk":"Стрийський парк","public_transport":"stop_position","railway":"tram_stop","ref":"28","tram":"yes"}},{"type":"node","id":8259971996,"lat":49.8267551,"lon":24.0341576,"tags":{"bus":"yes","name":"Стрийський парк","name:en":"Stryiskyi park","name:uk":"Стрийський парк","public_transport":"stop_position","railway":"tram_stop","ref":"37","tram":"yes"}},{"type":"node","id":8309698404,"lat":49.8585244,"lon":24.0271202,"tags":{"name":"Городницька","name:en":"Horodnytska","name:uk":"Городницька","public_transport":"stop_position","railway":"tram_stop","ref":"644","tram":"yes"}},{"type":"node","id":8309698405,"lat":49.8584728,"lon":24.0271015,"tags":{"name":"Городницька","name:en":"Horodnytska","name:uk":"Городницька","public_transport":"stop_position","railway":"tram_stop","ref":"645","tram":"yes"}},{"type":"node","id":8313145988,"lat":49.8471849,"lon":24.0027756,"tags":{"bus":"yes","name":"Турянського","name:en":"Turianskoho","name:uk":"Турянського","public_transport":"stop_position","railway":"tram_stop","ref":"682","tram":"yes"}},{"type":"node","id":8313224231,"lat":49.8481582,"lon":23.9999824,"tags":{"bus":"yes","name":"Єрошенка","name:en":"Yeroshenka","name:pl":"Pilichowska","name:uk":"Єрошенка","public_transport":"stop_position","railway":"tram_stop","ref":"683","tram":"yes"}},{"type":"node","id":9936191682,"lat":49.8511745,"lon":23.9914312,"tags":{"bus":"yes","name":"Крупзавод","name:en":"Krupzavod","name:uk":"Крупзавод","public_transport":"stop_position","railway":"tram_stop","tram":"yes"}},{"type":"node","id":9936191683,"lat":49.8494795,"lon":23.9955001,"tags":{"bus":"yes","name":"Янівський цвинтар","name:en":"Yanivskyi cemetery","name:pl":"Cmentarz Janowski","name:uk":"Янівський цвинтар","public_transport":"stop_position","railway":"tram_stop","ref":"185","tram":"yes"}},{"type":"node","id":9941077966,"lat":49.8446737,"lon":24.01034,"tags":{"bus":"yes","name":"Мудрого","name:en":"Yaroslava Mudroho","name:uk":"Мудрого","public_transport":"stop_position","railway":"tram_stop","ref":"681","tram":"yes"}},{"type":"node","id":10743195991,"lat":49.8131801,"lon":24.000501,"tags":{"bench":"yes","bin":"yes","description":"вул. Княгині Ольги, 49","lit":"yes","name":"Бойчука, Кіноцентр","name:en":"Boichuka; Film Center","name:ru":"Бойчука, Центр кино","name:uk":"Бойчука, Кіноцентр","public_transport":"platform","railway":"tram_stop","ref":"517","shelter":"yes","tram":"yes","wheelchair":"no"}},{"type":"node","id":12426866275,"lat":49.8363473,"lon":23.9997664,"tags":{"alt_name":"Привокзальний ринок","description":"вул. Городоцька, 153","highway":"bus_stop","local_ref":"222209","name":"Привокзальний ринок","name:be":"Прывакзальны рынак","name:en":"Pryvokzalnyi rynok","name:ru":"Привокзальный рынок","name:uk":"Привокзальний ринок","public_transport":"stop_position","railway":"tram_stop","ref":"0744","tram":"yes"}},{"type":"node","id":12426872452,"lat":49.8362764,"lon":23.9997886,"tags":{"alt_name":"Привокзальний ринок","description":"вул. Городоцька, 153","highway":"bus_stop","local_ref":"222210","name":"Привокзальний ринок","name:be":"Прывакзальны рынак","name:en":"Pryvokzalnyi rynok","name:ru":"Привокзальный рынок","name:uk":"Привокзальний ринок","public_transport":"stop_position","railway":"tram_stop","ref":"0745","tram":"yes"}},{"type":"node","id":13780462606,"lat":49.8540022,"lon":23.9868017,"tags":{"description":"вул. Петра Франка (вул. Т. Шевченка, 154)","name":"вулиця Отця Омеляна Ковча","name:uk":"вулиця Отця Омеляна Ковча","public_transport":"stop_position","railway":"tram_stop","ref":"0703","tram":"yes"}}]}