{"elements":[{"type":"node","id":350405616,"lat":22.5424431,"lon":114.1138096,"tags":{"name":"国贸","name:en":"Guomao","name:zh":"国贸","name:zh-Hans":"国贸","name:zh-Hant":"國貿","network":"深圳地铁","operator":"深圳市地铁集团有限公司","public_transport":"stop_position","railway":"stop","subway":"yes"}},{"type":"node","id":350405863,"lat":22.5434997,"lon":114.0897618,"tags":{"name":"科学馆","name:en":"Science Museum","public_transport":"stop_position","railway":"stop","subway":"yes"}},{"type":"node","id":350405876,"lat":22.5431486,"lon":114.0799458,"tags":{"name":"华强路","name:en":"Huaqiang Road","name:zh":"华强路","name:zh-Hans":"华强路","name:zh-Hant":"華强路","public_transport":"stop_position","railway":"stop","subway":"yes"}},{"type":"node","id":350405998,"lat":22.5376453,"lon":114.0629426,"tags":{"name":"岗厦","name:en":"Gangxia","public_transport":"stop_position","railway":"stop","subway":"yes"}},{"type":"node","id":350406015,"lat":22.5375915,"lon":114.0562518,"tags":{"name":"会展中心","name:en":"Convention & Exhibition Center","name:zh":"会展中心","name:zh-Hans":"会展中心","name:zh-Hant":"會展中心","operator":"SZMC","public_transport":"stop_position","railway":"stop","subway":"yes","website":"https://www.szmc.net/page/en/stations.html?xl=1&code=0108"}},{"type":"node","id":350406129,"lat":22.5417266,"lon":114.0336064,"tags":{"name":"香蜜湖","name:en":"Xiangmihu","name:zh":"香蜜湖","public_transport":"stop_position","railway":"stop","subway":"yes"}},{"type":"node","id":350406148,"lat":22.5389636,"lon":114.0212381,"tags":{"name":"车公庙","name:en":"Chegongmiao","name:zh":"车公庙","name:zh-Hans":"车公庙","name:zh-Hant":"車公廟","platforms":"2","public_transport":"stop_position","railway":"stop","subway":"yes"}},{"type":"node","id":350406164,"lat":22.5363971,"lon":114.0090325,"tags":{"name":"竹子林","name:en":"Zhuzilin","name:zh":"竹子林","public_transport":"stop_position","railway":"stop","subway":"yes"}},{"type":"node","id":350406199,"lat":22.5355388,"lon":113.9914857,"tags":{"name":"侨城东","name:en":"Qiaocheng East","public_transport":"stop_position","railway":"stop","subway":"yes"}},{"type":"node","id":350406218,"lat":22.5366286,"lon":113.9804922,"tags":{"name":"华侨城","name:en":"OCT","name:zh":"华侨城","name:zh-Hans":"华侨城","name:zh-Hant":"華僑城","public_transport":"stop_position","railway":"stop","subway":"yes"}},{"type":"node","id":1657111615,"lat":22.5519567,"lon":114.0910756,"tags":{"name":"通新岭","name:en":"Tongxinling","name:zh":"通新岭","public_transport":"stop_position","railway":"stop","station":"subway","subway":"yes"}},{"type":"node","id":1657111618,"lat":22.551392,"lon":114.0623462,"tags":{"name":"莲花村","name:en":"Lianhuacun","name:zh":"莲花村","public_transport":"stop_position","railway":"stop","subway":"yes"}},{"type":"node","id":1657111621,"lat":22.551911,"lon":114.0822094,"tags":{"name":"华新","name:en":"Huaxin","name:zh":"华新","public_transport":"stop_position","railway":"stop","subway":"yes"}},{"type":"node","id":1657111623,"lat":22.55894,"lon":114.1247492,"tags":{"name":"翠竹","name:en":"Cuizhu","public_transport":"stop_position","railway":"stop","subway":"yes"}},{"type":"node","id":1657111624,"lat":22.5510443,"lon":114.0994625,"tags":{"name":"红岭","name:en":"Hongling","public_transport":"stop_position","railway":"stop","subway":"yes"}},{"type":"node","id":1657111625,"lat":22.5521489,"lon":114.1176225,"tags":{"name":"晒布","name:en":"Shaibu","name:zh":"晒布","network":"深圳地铁","public_transport":"stop_position","railway":"stop","subway":"yes"}},{"type":"node","id":1689942217,"lat":22.5768731,"lon":114.1196706,"tags":{"name":"水贝","name:en":"Shuibei","public_transport":"stop_position","railway":"stop","subway":"yes"}},{"type":"node","id":1689954793,"lat":22.542548,"lon":113.9622766,"tags":{"name":"白石洲","name:en":"Baishizhou","name:zh":"白石洲","public_transport":"stop_position","railway":"stop","subway":"yes"}},{"type":"node","id":1689988690,"lat":22.5576571,"lon":113.8823369,"tags":{"name":"宝安中心","name:en":"Bao'an Center","public_transport":"stop_position","railway":"stop","subway":"yes"}},{"type":"node","id":1689988691,"lat":22.5507675,"lon":113.8895883,"tags":{"name":"新安","name:en":"Xin'an","name:zh":"新安","name:zh-Hans":"新安","name:zh-Hant":"新安","public_transport":"stop_position","railway":"stop","subway":"yes"}},{"type":"node","id":1689988694,"lat":22.5351335,"lon":113.8985057,"tags":{"name":"鲤鱼门","name:en":"Liyumen","name:zh":"鲤鱼门","name:zh-Hans":"鲤鱼门","name:zh-Hant":"鯉魚門","public_transport":"stop_position","railway":"stop","subway":"yes"}},{"type":"node","id":1689988695,"lat":22.5432889,"lon":113.9491238,"tags":{"name":"高新园","name:en":"Hi-Tech Park","name:zh":"高新园","name:zh-Hans":"高新园","name:zh-Hant":"高新園","public_transport":"stop_position","railway":"stop","subway":"yes"}},{"type":"node","id":1689988696,"lat":22.5411357,"lon":113.9388552,"tags":{"name":"深大","name:en":"Shenzhen University","name:ru":"Шэньчжэньский университет","name:zh":"深大","name:zh-Hans":"深大","name:zh-Hant":"深大","public_transport":"stop_position","railway":"stop","subway":"yes"}},{"type":"node","id":1689988701,"lat":22.5401022,"lon":113.8925232,"tags":{"name":"前海湾","name:en":"Qianhaiwan","name:zh":"前海湾","name:zh-Hans":"前海湾","name:zh-Hant":"前海灣","public_transport":"stop_position","railway":"stop","subway":"yes"}},{"type":"node","id":1689988705,"lat":22.5352735,"lon":113.9103534,"tags":{"name":"大新","name:en":"Daxin","name:zh":"大新","name:zh-Hans":"大新","name:zh-Hant":"大新","public_transport":"stop_position","railway":"stop","subway":"yes"}},{"type":"node","id":1689988707,"lat":22.6499865,"lon":113.8176239,"tags":{"name":"机场东","name:en":"Airport East","name:zh":"机场东","name:zh-Hans":"机场东","name:zh-Hant":"機場東","platforms":"2","public_transport":"stop_position","railway":"stop","subway":"yes"}},{"type":"node","id":1690407912,"lat":22.5188346,"lon":114.0458216,"tags":{"name":"益田","name:en":"Yitian","name:zh":"益田","public_transport":"stop_position","railway":"stop","subway":"yes"}},{"type":"node","id":1690407917,"lat":22.5258219,"lon":114.0485226,"tags":{"name":"石厦","name:en":"Shixia","name:zh":"石厦","network":"深圳市轨道交通","operator":"深圳市地铁集团有限公司","platforms":"2","public_transport":"stop_position","railway":"stop","subway":"yes","wheelchair":"yes"}},{"type":"node","id":1709807011,"lat":22.5183659,"lon":114.0640104,"tags":{"name":"福田口岸","name:en":"Futian Checkpoint","name:zh":"福田口岸","network":"深圳市轨道交通","operator":"MTR","public_transport":"stop_position","railway":"stop","subway":"yes"}},{"type":"node","id":1709807032,"lat":22.5259269,"lon":114.0596437,"tags":{"name":"福民","name:en":"Fumin","platforms":"2","public_transport":"stop_position","railway":"stop","subway":"yes"}},{"type":"node","id":1709807042,"lat":22.5634918,"lon":114.0542511,"tags":{"name":"莲花北","name:en":"Lianhua North","public_transport":"stop_position","railway":"stop","subway":"yes"}},{"type":"node","id":1709812566,"lat":22.5730587,"lon":114.0543421,"tags":{"name":"上梅林","name:en":"Shangmeilin","public_transport":"stop_position","railway":"stop","subway":"yes"}},{"type":"node","id":1716044102,"lat":22.5566662,"lon":114.0278124,"tags":{"name":"香梅北","name:en":"Xiangmei North","public_transport":"stop_position","railway":"stop","subway":"yes"}},{"type":"node","id":1842737527,"lat":22.5586896,"lon":114.1349409,"tags":{"name":"怡景","name:en":"Yijing","name:zh":"怡景","public_transport":"stop_position","railway":"stop","subway":"yes"}},{"type":"node","id":1842737562,"lat":22.5973466,"lon":114.1252657,"tags":{"name":"百鸽笼","name:en":"Baigelong","public_transport":"stop_position","railway":"stop","subway":"yes"}},{"type":"node","id":1842737574,"lat":22.5769557,"lon":114.1322445,"tags":{"name":"太安","name:en":"Tai'an","name:zh":"太安","public_transport":"stop_position","railway":"stop","subway":"yes"}},{"type":"node","id":1883612271,"lat":22.5557508,"lon":114.0185916,"tags":{"name":"香蜜","name:en":"Xiangmi","public_transport":"stop_position","railway":"stop","subway":"yes"}},{"type":"node","id":1883613394,"lat":22.552489,"lon":114.0093232,"tags":{"name":"侨香","name:en":"Qiaoxiang","public_transport":"stop_position","railway":"stop","subway":"yes"}},{"type":"node","id":1883616638,"lat":22.5517113,"lon":114.0014314,"tags":{"name":"安托山","name:en":"Antuo Hill","name:zh":"安托山","network":"深圳地铁","operator":"深圳市地铁集团","public_transport":"stop_position","railway":"stop","subway":"yes"}},{"type":"node","id":1883619903,"lat":22.5493454,"lon":113.993659,"tags":{"name":"深康","name:en":"Shenkang","name:zh":"深康","public_transport":"stop_position","railway":"stop","subway":"yes"}},{"type":"node","id":1883629451,"lat":22.5280469,"lon":113.9633392,"tags":{"name":"红树湾","name:en":"Hongshuwan","public_transport":"stop_position","railway":"stop","subway":"yes"}},{"type":"node","id":1888314914,"lat":22.6318161,"lon":113.8304237,"tags":{"name":"后瑞","name:en":"Hourui","name:zh-Hant":"后瑞","public_transport":"stop_position","railway":"stop","subway":"yes"}},{"type":"node","id":1888326847,"lat":22.6037816,"lon":113.8420237,"tags":{"name":"固戍","name:en":"Gushu","name:zh":"固戍","name:zh-Hans":"固戍","name:zh-Hant":"固戍","public_transport":"stop_position","railway":"stop","subway":"yes"}},{"type":"node","id":1888326853,"lat":22.5719509,"lon":113.8657681,"tags":{"name":"坪洲","name:en":"Pingzhou","name:zh":"坪洲","name:zh-Hans":"坪洲","name:zh-Hant":"坪洲","public_transport":"stop_position","railway":"stop","subway":"yes"}},{"type":"node","id":1888326859,"lat":22.5354235,"lon":113.9196695,"tags":{"name":"桃园","name:en":"Taoyuan","name:zh":"桃园","name:zh-Hans":"桃园","name:zh-Hant":"桃園","public_transport":"stop_position","railway":"stop","subway":"yes"}},{"type":"node","id":1888326867,"lat":22.5790677,"lon":113.8569903,"tags":{"name":"西乡","name:en":"Xixiang","name:zh":"西乡","name:zh-Hans":"西乡","name:zh-Hant":"西鄉","public_transport":"stop_position","railway":"stop","subway":"yes"}},{"type":"node","id":1893284257,"lat":22.604427,"lon":114.116459,"tags":{"name":"布吉","name:en":"Buji","name:zh":"布吉","public_transport":"stop_position","railway":"stop","subway":"yes"}},{"type":"node","id":1944056736,"lat":22.48815,"lon":113.9101152,"tags":{"name":"海上世界","name:en":"Sea World","name:zh":"海上世界","public_transport":"stop_position","railway":"stop","subway":"yes"}},{"type":"node","id":1944056740,"lat":22.5204026,"lon":113.9353193,"tags":{"name":"后海","name:en":"Houhai","public_transport":"stop_position","railway":"stop","subway":"yes"}},{"type":"node","id":1944056742,"lat":22.4964788,"lon":113.9336151,"tags":{"name":"湾厦","name:en":"Wanxia","name:zh":"湾厦","name:zh-Hans":"湾厦","name:zh-Hant":"灣廈","public_transport":"stop_position","railway":"stop","subway":"yes"}},{"type":"node","id":1944056746,"lat":22.5301807,"lon":113.9417947,"tags":{"name":"科苑","name:en":"Keyuan","public_transport":"stop_position","railway":"stop","subway":"yes"}},{"type":"node","id":1944056749,"lat":22.511904,"lon":113.9327192,"tags":{"name":"登良","name:en":"Dengliang","public_transport":"stop_position","railway":"stop","subway":"yes"}},{"type":"node","id":1944056756,"lat":22.491515,"lon":113.914811,"tags":{"name":"水湾","name:en":"Shuiwan","name:zh":"水湾","network":"深圳市轨道交通","operator":"深圳市地铁集团有限公司","public_transport":"stop_position","railway":"stop","subway":"yes"}},{"type":"node","id":1947291227,"lat":22.4797551,"lon":113.9073605,"tags":{"name":"蛇口港","name:en":"Shekou Port","name:zh":"蛇口港","public_transport":"stop_position","railway":"stop","subway":"yes"}},{"type":"node","id":1947291240,"lat":22.4823959,"lon":113.8926904,"tags":{"name":"赤湾","name:en":"Chiwan","public_transport":"stop_position","railway":"stop","subway":"yes"}},{"type":"node","id":1947291248,"lat":22.489214,"lon":113.9264223,"tags":{"name":"东角头","name:en":"Dongjiaotou","name:zh":"东角头","name:zh-Hans":"东角头","name:zh-Hant":"東角頭","public_transport":"stop_position","railway":"stop","subway":"yes"}},{"type":"node","id":1947316503,"lat":22.5629266,"lon":113.888499,"tags":{"name":"翻身","name:en":"Fanshen","name:zh":"翻身","public_transport":"stop_position","railway":"stop","subway":"yes"}},{"type":"node","id":1947316508,"lat":22.5835112,"lon":113.9390868,"tags":{"name":"留仙洞","name:en":"Liuxiandong","public_transport":"stop_position","railway":"stop","subway":"yes"}},{"type":"node","id":1947316509,"lat":22.5847462,"lon":113.9140525,"tags":{"name":"兴东","name:en":"Xingdong","public_transport":"stop_position","railway":"stop","subway":"yes"}},{"type":"node","id":2281961640,"lat":22.72477,"lon":114.2607777,"tags":{"name":"南联","name:en":"Nanlian","name:zh":"南联","public_transport":"stop_position","railway":"stop","subway":"yes"}},{"type":"node","id":2282610265,"lat":22.7196944,"lon":114.2498136,"tags":{"name":"龙城广场","name:en":"Longcheng Square","name:zh":"龙城广场","operator":"Shenzhen Metro Line 3 Operations Branch Corporation","public_transport":"stop_position","railway":"stop","subway":"yes"}},{"type":"node","id":2300251840,"lat":22.666773,"lon":114.0313775,"tags":{"name":"清湖","name:en":"Qinghu","public_transport":"stop_position","railway":"stop","subway":"yes"}},{"type":"node","id":2300251861,"lat":22.6245247,"lon":114.0182863,"tags":{"name":"红山","name:en":"Hongshan","name:zh":"红山","public_transport":"stop_position","railway":"stop","subway":"yes"}},{"type":"node","id":2300657362,"lat":22.5473504,"lon":113.8843219,"tags":{"name":"临海","name:en":"Linhai","name:zh":"临海","name:zh-Hans":"临海","name:zh-Hant":"臨海","public_transport":"stop_position","railway":"stop","subway":"yes"}},{"type":"node","id":2300657366,"lat":22.5632529,"lon":113.8764879,"tags":{"name":"宝体","name:en":"Bao'an Stadium","name:zh":"宝体","name:zh-Hans":"宝体","name:zh-Hant":"寶體","public_transport":"stop_position","railway":"stop","subway":"yes","wheelchair":"yes"}},{"type":"node","id":2300668708,"lat":22.5776836,"lon":113.9058189,"tags":{"name":"洪浪北","name:en":"Honglang North","name:zh":"洪浪北","name:zh-Hans":"洪浪北","name:zh-Hant":"洪浪北","public_transport":"stop_position","railway":"stop","subway":"yes"}},{"type":"node","id":2300668711,"lat":22.5720125,"lon":113.8992357,"tags":{"name":"灵芝","name:en":"Lingzhi","public_transport":"stop_position","railway":"stop","subway":"yes"}},{"type":"node","id":2300682656,"lat":22.5849872,"lon":113.9602548,"tags":{"name":"大学城","name:en":"University Town","name:zh":"大学城","name:zh-Hans":"大学城","name:zh-Hant":"大學城","public_transport":"stop_position","railway":"stop","subway":"yes"}},{"type":"node","id":2301357656,"lat":22.6109863,"lon":114.1082741,"tags":{"name":"长龙","name:en":"Changlong","name:zh":"长龙","name:zh-Hans":"长龙","name:zh-Hant":"長龍","public_transport":"stop_position","railway":"stop","subway":"yes"}},{"type":"node","id":2301357657,"lat":22.6054255,"lon":114.1161779,"tags":{"name":"布吉","name:en":"Buji","name:zh":"布吉","public_transport":"stop_position","railway":"stop","subway":"yes"}},{"type":"node","id":2301379826,"lat":22.6299592,"lon":114.0651028,"tags":{"name":"坂田","name:en":"Bantian","public_transport":"stop_position","railway":"stop","subway":"yes"}},{"type":"node","id":2301379836,"lat":22.6293254,"lon":114.0556411,"tags":{"name":"五和","name:en":"Wuhe","name:zh":"五和","public_transport":"stop_position","railway":"stop","subway":"yes"}},{"type":"node","id":2301379839,"lat":22.6175005,"lon":114.1055402,"tags":{"name":"下水径","name:en":"Xiashuijing","name:zh":"下水径","name:zh-Hans":"下水径","name:zh-Hant":"下水徑","public_transport":"stop_position","railway":"stop","subway":"yes"}},{"type":"node","id":2301379841,"lat":22.6292109,"lon":114.0751054,"tags":{"name":"杨美","name:en":"Yangmei","name:zh":"杨美","public_transport":"stop_position","railway":"stop","subway":"yes"}},{"type":"node","id":2301379842,"lat":22.6247189,"lon":114.1000921,"tags":{"name":"上水径","name:en":"Shangshuijing","name:zh":"上水径","public_transport":"stop_position","railway":"stop","subway":"yes"}},{"type":"node","id":2409480669,"lat":22.5031271,"lon":113.9328643,"tags":{"name":"海月","name:en":"Haiyue","public_transport":"stop_position","railway":"stop","subway":"yes"}},{"type":"node","id":2458982114,"lat":22.5374358,"lon":114.0496503,"tags":{"name":"购物公园","name:en":"Shopping Park","public_transport":"stop_position","railway":"stop","subway":"yes"}},{"type":"node","id":2491110021,"lat":22.5444304,"lon":114.055832,"tags":{"name":"市民中心","name:en":"Civic Center","name:zh":"市民中心","platforms":"4","public_transport":"stop_position","railway":"stop","subway":"yes"}},{"type":"node","id":2699550398,"lat":22.5471558,"lon":113.9840186,"tags":{"name":"侨城北","name:en":"Qiaocheng North","public_transport":"stop_position","railway":"stop","subway":"yes"}},{"type":"node","id":2750252763,"lat":22.5512873,"lon":114.0549824,"tags":{"name":"少年宫","name:en":"Children's Palace","name:ru":"Детский дворец","public_transport":"stop_position","railway":"stop","subway":"yes"}},{"type":"node","id":2837628014,"lat":22.5333096,"lon":114.1132515,"tags":{"name":"罗湖","name:en":"Luohu","name:zh":"罗湖","name:zh-Hans":"罗湖","name:zh-Hant":"羅湖","public_transport":"stop_position","railway":"stop","subway":"yes"}},{"type":"node","id":3424475711,"lat":22.5658905,"lon":114.1058381,"tags":{"name":"笋岗","name:en":"Sungang","public_transport":"stop_position","railway":"stop","subway":"yes"}},{"type":"node","id":3424475713,"lat":22.5646938,"lon":114.0999968,"tags":{"name":"红岭北","name:en":"Hongling North","public_transport":"stop_position","railway":"stop","subway":"yes"}},{"type":"node","id":3424475734,"lat":22.5686849,"lon":114.1173198,"tags":{"name":"洪湖","name:en":"Honghu","name:zh":"洪湖","public_transport":"stop_position","railway":"stop","subway":"yes"}},{"type":"node","id":3424479282,"lat":22.5585964,"lon":114.0821633,"tags":{"name":"黄木岗","name:en":"Huangmugang","name:zh":"黄木岗","name:zh-Hans":"黄木岗","public_transport":"stop_position","railway":"stop","subway":"yes"}},{"type":"node","id":3424479284,"lat":22.5645485,"lon":114.0899776,"tags":{"name":"八卦岭","name:en":"Bagualing","name:zh":"八卦岭","network":"深圳地铁","operator":"深圳市地铁集团","public_transport":"stop_position","railway":"stop","subway":"yes"}},{"type":"node","id":3424499341,"lat":22.5243033,"lon":114.0690258,"tags":{"name":"皇岗口岸","name:en":"Huanggang Checkpoint","public_transport":"stop_position","railway":"stop","subway":"yes"}},{"type":"node","id":3424499357,"lat":22.5258791,"lon":114.0539422,"tags":{"name":"皇岗村","name:en":"Huanggangcun","public_transport":"stop_position","railway":"stop","subway":"yes","wikidata":"Q27685097"}},{"type":"node","id":3424499369,"lat":22.5399495,"lon":114.0816236,"tags":{"name":"华强南","name:en":"Huaqiang South","name:zh":"华强南","public_transport":"stop_position","railway":"stop","subway":"yes"}},{"type":"node","id":3424499398,"lat":22.5345522,"lon":114.0787647,"tags":{"name":"赤尾","name:en":"Chiwei","public_transport":"stop_position","railway":"stop","subway":"yes"}},{"type":"node","id":3424509113,"lat":22.5273975,"lon":114.030634,"tags":{"name":"上沙","name:en":"Shangsha","network":"深圳市轨道交通","operator":"深圳市地铁集团有限公司","public_transport":"stop_position","railway":"stop","subway":"yes","wikidata":"Q27728640"}},{"type":"node","id":3424509124,"lat":22.5234788,"lon":114.0375772,"tags":{"name":"沙尾","name:en":"Shawei","public_transport":"stop_position","railway":"stop","subway":"yes"}},{"type":"node","id":3424525883,"lat":22.5594868,"lon":113.9888763,"tags":{"name":"深云","name:en":"Shenyun","name:zh":"深云","network":"深圳地铁","operator":"深圳市地铁集团","public_transport":"stop_position","railway":"stop","subway":"yes"}},{"type":"node","id":3424526202,"lat":22.5433389,"lon":114.0131841,"tags":{"name":"农林","name:en":"Nonglin","name:zh":"农林","network":"深圳地铁","operator":"深圳市地铁集团","public_transport":"stop_position","railway":"stop","subway":"yes"}},{"type":"node","id":3424535406,"lat":22.5713699,"lon":113.9557851,"tags":{"name":"珠光","name:en":"Zhuguang","name:zh":"珠光","public_transport":"stop_position","railway":"stop","subway":"yes"}},{"type":"node","id":3424535425,"lat":22.577136,"lon":113.949502,"tags":{"name":"茶光","name:en":"Chaguang","public_transport":"stop_position","railway":"stop","subway":"yes","wikidata":"Q27728542"}},{"type":"node","id":3424535442,"lat":22.5672228,"lon":113.9697733,"tags":{"name":"龙井","name:en":"Longjing","name:zh":"龙井","network":"深圳市轨道交通","operator":"深圳市地铁集团有限公司","public_transport":"stop_position","railway":"stop","subway":"yes","wikidata":"Q27728574"}},{"type":"node","id":3424535450,"lat":22.5628913,"lon":113.9769859,"tags":{"name":"桃源村","name:en":"Taoyuancun","public_transport":"stop_position","railway":"stop","subway":"yes"}},{"type":"node","id":3424535452,"lat":22.5965468,"lon":113.9605299,"tags":{"name":"西丽湖","name:en":"Xili Lake","name:zh":"西丽湖","name:zh-Hans":"西丽湖","name:zh-Hant":"西麗湖","network":"深圳地铁","operator":"深圳市地铁集团","public_transport":"stop_position","railway":"stop","subway":"yes"}},{"type":"node","id":3424982654,"lat":22.7555498,"lon":113.8218016,"tags":{"name":"后亭","name:en":"Houting","name:zh":"后亭","name:zh-Hans":"后亭","name:zh-Hant":"後亭","public_transport":"stop_position","railway":"stop","subway":"yes"}},{"type":"node","id":3424982662,"lat":22.5788192,"lon":113.8503018,"tags":{"name":"碧海湾","name:en":"Bihaiwan","name:zh":"碧海湾","name:zh-Hans":"碧海湾","name:zh-Hant":"碧海灣","public_transport":"stop_position","railway":"stop","subway":"yes"}},{"type":"node","id":3424984558,"lat":22.527233,"lon":113.9187229,"tags":{"name":"南山","name:en":"Nanshan","name:zh":"南山","name:zh-Hans":"南山","name:zh-Hant":"南山","public_transport":"stop_position","railway":"stop","subway":"yes"}},{"type":"node","id":3424984587,"lat":22.7862305,"lon":113.8150171,"tags":{"name":"碧头","name:en":"Bitou","public_transport":"stop_position","railway":"stop","subway":"yes"}},{"type":"node","id":3426630183,"lat":22.6909855,"lon":113.8059731,"tags":{"name":"桥头","name:en":"Qiaotou","name:zh":"桥头","name:zh-Hans":"桥头","name:zh-Hant":"橋頭","public_transport":"stop_position","railway":"stop","subway":"yes"}},{"type":"node","id":3426630187,"lat":22.5577484,"lon":113.8755261,"tags":{"name":"宝安","name:en":"Bao’an","name:zh":"宝安","name:zh-Hans":"宝安","name:zh-Hant":"寶安","public_transport":"stop_position","railway":"stop","subway":"yes"}},{"type":"node","id":3426630193,"lat":22.6761802,"lon":113.8010117,"tags":{"name":"福永","name:en":"Fuyong","name:zh":"福永","name:zh-Hans":"福永","name:zh-Hant":"福永","public_transport":"stop_position","railway":"stop","subway":"yes"}},{"type":"node","id":3426630196,"lat":22.6264153,"lon":113.8090347,"tags":{"name":"机场","name:en":"Airport","name:zh":"机场","name:zh-Hans":"机场","name:zh-Hant":"機場","network":"深圳地铁","operator":"深圳地铁集团","public_transport":"stop_position","railway":"stop","subway":"yes"}},{"type":"node","id":3426630197,"lat":22.7049345,"lon":113.8128786,"tags":{"name":"塘尾","name:en":"Tangwei","name:zh":"塘尾","name:zh-Hans":"塘尾","name:zh-Hant":"塘尾","public_transport":"stop_position","railway":"stop","subway":"yes"}},{"type":"node","id":3426631518,"lat":22.7751976,"lon":113.8246412,"tags":{"name":"松岗","name:en":"Songgang","name:zh":"松岗","name:zh-Hans":"松岗","name:zh-Hant":"松崗","public_transport":"stop_position","railway":"stop","subway":"yes"}},{"type":"node","id":3433943197,"lat":22.524592,"lon":113.9879591,"tags":{"name":"深圳湾公园","name:en":"Shenzhen Bay Park","name:zh":"深圳湾公园","public_transport":"stop_position","railway":"stop","subway":"yes","wikidata":"Q21245996"}},{"type":"node","id":3433970889,"lat":22.531728,"lon":114.0186153,"tags":{"name":"下沙","name:en":"Xiasha","public_transport":"stop_position","railway":"stop","subway":"yes","wikidata":"Q27526079","wikimedia_commons":"Category:Xiasha Station (Shenzhen)","wikipedia":"en:Xiasha station (Shenzhen Metro)"}},{"type":"node","id":3434027325,"lat":22.5423312,"lon":114.0998465,"tags":{"name":"红岭南","name:en":"Hongling South","name:zh":"红岭南","public_transport":"stop_position","railway":"stop","subway":"yes","wikidata":"Q27825864","wikimedia_commons":"Category:Hongling South Station","wikipedia":"en:Hongling South station"}},{"type":"node","id":3434027336,"lat":22.5383199,"lon":114.1038017,"tags":{"name":"鹿丹村","name:en":"Ludancun","public_transport":"stop_position","railway":"stop","subway":"yes","wikidata":"Q21246003"}},{"type":"node","id":3434027338,"lat":22.5425424,"lon":114.120579,"tags":{"name":"向西村","name:en":"Xiangxicun","name:zh":"向西村","network":"Shenzhen Metro","operator":"深圳市地铁集团有限公司","public_transport":"stop_position","railway":"stop","subway":"yes","wikidata":"Q20688198"}},{"type":"node","id":3434027354,"lat":22.5450935,"lon":114.125928,"tags":{"name":"文锦","name:en":"Wenjin","name:zh":"文锦","network":"Shenzhen Metro","operator":"深圳市地铁集团有限公司","public_transport":"stop_position","railway":"stop","subway":"yes"}},{"type":"node","id":3434031541,"lat":22.5714276,"lon":114.0843643,"tags":{"name":"银湖","name:en":"Yinhu","name:zh":"银湖","network":"深圳地铁","operator":"深圳市地铁集团","public_transport":"stop_position","railway":"stop","subway":"yes"}},{"type":"node","id":3434031577,"lat":22.5711912,"lon":114.0471666,"tags":{"name":"梅村","name:en":"Meicun","name:zh":"梅村","public_transport":"stop_position","railway":"stop","subway":"yes","wikidata":"Q27825827"}},{"type":"node","id":3434031586,"lat":22.5483173,"lon":114.0342787,"tags":{"name":"香梅","name:en":"Xiangmei","public_transport":"stop_position","railway":"stop","subway":"yes"}},{"type":"node","id":3434031589,"lat":22.5684761,"lon":114.0368653,"tags":{"name":"下梅林","name:en":"Xiameilin","name:zh":"下梅林","public_transport":"stop_position","railway":"stop","subway":"yes","wikidata":"Q27825823","wikimedia_commons":"Category:Xiameilin Station","wikipedia":"en:Xiameilin station"}},{"type":"node","id":3434031694,"lat":22.5711444,"lon":114.0631365,"tags":{"name":"孖岭","name:en":"Maling","public_transport":"stop_position","railway":"stop","subway":"yes","wikidata":"Q22101288","wikimedia_commons":"Category:Maling Station","wikipedia":"en:Maling station"}},{"type":"node","id":3434031739,"lat":22.5588226,"lon":114.0994875,"tags":{"name":"园岭","name:en":"Yuanling","public_transport":"stop_position","railway":"stop","subway":"yes"}},{"type":"node","id":3434031740,"lat":22.5702727,"lon":114.0920376,"tags":{"name":"泥岗","name:en":"Nigang","name:zh":"泥岗","network":"深圳市轨道交通","operator":"深圳市地铁集团有限公司","public_transport":"stop_position","railway":"stop","subway":"yes","wikidata":"Q27825846","wikimedia_commons":"Category:Nigang Station","wikipedia":"en:Nigang station"}},{"type":"node","id":3434031748,"lat":22.5635799,"lon":114.0329144,"tags":{"name":"梅景","name:en":"Meijing","name:zh":"梅景","public_transport":"stop_position","railway":"stop","subway":"yes","wikidata":"Q27825821"}},{"type":"node","id":3436825131,"lat":22.5381078,"lon":114.1131147,"tags":{"name":"人民南","name:en":"Renmin South","name:zh":"人民南","network":"Shenzhen Metro","operator":"深圳市地铁集团有限公司","public_transport":"stop_position","railway":"stop","subway":"yes","wikidata":"Q20688019"}},{"type":"node","id":3617121270,"lat":22.7808035,"lon":113.9017902,"tags":{"name":"红花山","name:en":"Honghuashan","name:zh":"红花山","network":"深圳地铁","operator":"深圳市地铁集团","public_transport":"stop_position","railway":"stop","subway":"yes","wikidata":"Q96279547"}},{"type":"node","id":3617121271,"lat":22.7789083,"lon":113.9185448,"tags":{"name":"楼村","name:en":"Loucun","name:zh":"楼村","name:zh-Hans":"楼村","name:zh-Hant":"樓村","network":"深圳地铁","operator":"深圳市地铁集团","public_transport":"stop_position","railway":"stop","subway":"yes","wikidata":"Q96279562"}},{"type":"node","id":3617121273,"lat":22.7846209,"lon":113.8760838,"tags":{"name":"合水口","name:en":"Heshuikou","name:zh":"合水口","operator":"深圳市地铁集团","public_transport":"stop_position","railway":"stop","subway":"yes","wikidata":"Q96278443","wikimedia_commons":"Category:Heshuikou Station","wikipedia":"en:Heshuikou station"}},{"type":"node","id":3617121279,"lat":22.6920548,"lon":113.9336171,"tags":{"name":"上屋","name:en":"Shangwu","name:zh":"上屋","name:zh-Hans":"上屋","name:zh-Hant":"上屋","network":"深圳地铁","operator":"深圳市地铁集团","public_transport":"stop_position","railway":"stop","subway":"yes","wikidata":"Q95951814"}},{"type":"node","id":3617121285,"lat":22.7840276,"lon":113.8630643,"tags":{"name":"薯田埔","name:en":"Shutianpu","name:zh":"薯田埔","network":"深圳地铁","operator":"深圳市地铁集团","public_transport":"stop_position","railway":"stop","subway":"yes","wikidata":"Q96278493","wikimedia_commons":"Category:Shutianpu Station","wikipedia":"en:Shutianpu station"}},{"type":"node","id":3617131393,"lat":22.6861891,"lon":113.9448231,"tags":{"name":"官田","name:en":"Guantian","name:zh":"官田","network":"深圳地铁","operator":"深圳市地铁集团","public_transport":"stop_position","railway":"stop","subway":"yes","wikidata":"Q95951813"}},{"type":"node","id":3617131421,"lat":22.774651,"lon":113.8232543,"tags":{"name":"松岗","name:en":"Songgang","name:zh":"松岗","name:zh-Hans":"松岗","name:zh-Hant":"松崗","public_transport":"stop_position","railway":"stop","subway":"yes"}},{"type":"node","id":3617131430,"lat":22.7747882,"lon":113.9401495,"tags":{"name":"光明","name:en":"Guangming","name:zh":"光明","operator":"深圳市地铁集团","public_transport":"stop_position","railway":"stop","subway":"yes"}},{"type":"node","id":3617131435,"lat":22.7773587,"lon":113.8320011,"tags":{"name":"溪头","name:en":"Xitou","name:zh":"溪头","name:zh-Hans":"溪头","name:zh-Hant":"溪頭","network":"深圳地铁","operator":"深圳市地铁集团","public_transport":"stop_position","railway":"stop","subway":"yes","wikidata":"Q96338882","wikimedia_commons":"Category:Xitou Station","wikipedia":"en:Xitou station"}},{"type":"node","id":3617131446,"lat":22.7804517,"lon":113.9292455,"tags":{"name":"科学公园","name:en":"Science Park","name:zh":"科学公园","name:zh-Hans":"科学公园","name:zh-Hant":"科學公園","network":"深圳地铁","operator":"深圳市地铁集团","public_transport":"stop_position","railway":"stop","subway":"yes","wikidata":"Q96279552"}},{"type":"node","id":3617131452,"lat":22.7808753,"lon":113.8861012,"tags":{"name":"公明广场","name:en":"Gongming Square","name:zh":"公明广场","network":"深圳地铁","operator":"深圳市地铁集团","public_transport":"stop_position","railway":"stop","subway":"yes","wikidata":"Q96278341","wikimedia_commons":"Category:Gongming Square Station","wikipedia":"en:Gongming Square station"}},{"type":"node","id":3617131524,"lat":22.7650689,"lon":113.9378903,"tags":{"name":"光明大街","name:en":"Guangming St","name:zh":"光明大街","name:zh-Hans":"光明大街","name:zh-Hant":"光明大街","network":"深圳地铁","operator":"深圳市地铁集团","public_transport":"stop_position","railway":"stop","subway":"yes","wikidata":"Q96279606","wikimedia_commons":"Category:Guangming Street Station","wikipedia":"en:Guangming Street station"}},{"type":"node","id":3617696930,"lat":22.781266,"lon":113.8446611,"tags":{"name":"松岗公园","name:en":"Songgang Park","name:zh":"松岗公园","public_transport":"stop_position","railway":"stop","subway":"yes","wikidata":"Q96278952","wikimedia_commons":"Category:Songgang Park Station","wikipedia":"en:Songgang Park station"}},{"type":"node","id":3622599132,"lat":22.8097287,"lon":113.9644144,"tags":{"name":"深理工","name:en":"SUAT","name:zh":"深理工","old_name:en":"SIAT","public_transport":"stop_position","railway":"stop","start_date":"2022-11-28","subway":"yes"}},{"type":"node","id":3801907498,"lat":22.5667194,"lon":114.1613531,"tags":{"name":"仙湖路","name:en":"Xianhu Road","name:zh":"仙湖路","public_transport":"stop_position","railway":"stop","subway":"yes"}},{"type":"node","id":3801907502,"lat":22.5559198,"lon":114.1501849,"tags":{"name":"莲塘口岸","name:en":"Liantang Checkpoint","name:zh":"莲塘口岸","public_transport":"stop_position","railway":"stop","subway":"yes"}},{"type":"node","id":3801921967,"lat":22.5572753,"lon":114.2182027,"tags":{"name":"沙头角","name:en":"Shatoujiao","name:zh":"沙头角","public_transport":"stop_position","railway":"stop","subway":"yes"}},{"type":"node","id":3801921968,"lat":22.5583833,"lon":114.232785,"tags":{"name":"海山","name:en":"Haishan","name:zh":"海山","public_transport":"stop_position","railway":"stop","subway":"yes"}},{"type":"node","id":3801922015,"lat":22.5910891,"lon":114.2501495,"tags":{"name":"盐田路","name:en":"Yantian Road","name:zh":"盐田路","public_transport":"stop_position","railway":"stop","subway":"yes"}},{"type":"node","id":3801922027,"lat":22.5649641,"lon":114.241619,"tags":{"name":"盐田港西","name:en":"Yantian Port West","name:zh":"盐田港西","public_transport":"stop_position","railway":"stop","subway":"yes"}},{"type":"node","id":3802652252,"lat":22.5065344,"lon":113.8846535,"tags":{"name":"铁路公园","name:en":"Railway Park","name:zh":"铁路公园","name:zh-Hans":"铁路公园","name:zh-Hant":"鐵路公園","public_transport":"stop_position","railway":"stop","subway":"yes"}},{"type":"node","id":3802652253,"lat":22.5112242,"lon":113.8810033,"tags":{"name":"妈湾","name:en":"Mawan","name:zh":"妈湾","name:zh-Hans":"妈湾","name:zh-Hant":"媽灣","public_transport":"stop_position","railway":"stop","subway":"yes"}},{"type":"node","id":3802652254,"lat":22.5197462,"lon":113.8854484,"tags":{"name":"前湾公园","name:en":"Qianwan Park","name:zh":"前湾公园","name:zh-Hans":"前湾公园","name:zh-Hant":"前灣公園","public_transport":"stop_position","railway":"stop","subway":"yes"}},{"type":"node","id":3802652859,"lat":22.5249215,"lon":113.8908307,"tags":{"name":"前湾","name:en":"Qianwan","name:zh":"前湾","name:zh-Hans":"前湾","name:zh-Hant":"前灣","public_transport":"stop_position","railway":"stop","subway":"yes"}},{"type":"node","id":3802663875,"lat":22.5344604,"lon":113.8929353,"tags":{"name":"桂湾","name:en":"Guiwan","name:zh":"桂湾","name:zh-Hans":"桂湾","name:zh-Hant":"桂湾","public_transport":"stop_position","railway":"stop","subway":"yes"}},{"type":"node","id":3802815209,"lat":22.5012117,"lon":113.8883388,"tags":{"name":"荔湾","name:en":"Liwan","name:zh":"荔湾","name:zh-Hans":"荔湾","name:zh-Hant":"荔灣","public_transport":"stop_position","railway":"stop","subway":"yes"}},{"type":"node","id":3825056574,"lat":22.535795,"lon":113.946499,"tags":{"name":"高新南","name:en":"High-Tech South","public_transport":"stop_position","railway":"stop","subway":"yes"}},{"type":"node","id":3825056603,"lat":22.5148639,"lon":113.9084726,"tags":{"name":"荔林","name:en":"Litchi Orchards","public_transport":"stop_position","railway":"stop","subway":"yes"}},{"type":"node","id":3825056607,"lat":22.4973038,"lon":113.9140668,"tags":{"name":"花果山","name:en":"Huaguoshan","public_transport":"stop_position","railway":"stop","subway":"yes"}},{"type":"node","id":3825056611,"lat":22.5290808,"lon":113.9309503,"tags":{"name":"深大南","name:en":"Shenzhen University South","name:zh":"深大南","name:zh-Hans":"深大南","name:zh-Hant":"深大南","public_transport":"stop_position","railway":"stop","subway":"yes"}},{"type":"node","id":3825056635,"lat":22.5033363,"lon":113.9169519,"tags":{"name":"四海","name:en":"Sihai","public_transport":"stop_position","railway":"stop","subway":"yes"}},{"type":"node","id":3825057585,"lat":22.5357313,"lon":113.9417501,"tags":{"name":"粤海门","name:en":"Yuehaimen","name:zh":"粤海门","name:zh-Hans":"粤海门","name:zh-Hant":"粵海門","public_transport":"stop_position","railway":"stop","subway":"yes"}},{"type":"node","id":3825057606,"lat":22.5221416,"lon":113.893841,"tags":{"name":"梦海","name:en":"Menghai","public_transport":"stop_position","railway":"stop","subway":"yes"}},{"type":"node","id":4135996323,"lat":22.5527225,"lon":113.8802791,"tags":{"name":"宝华","name:en":"Baohua","name:zh":"宝华","name:zh-Hans":"宝华","name:zh-Hant":"寶華","public_transport":"stop_position","railway":"stop","subway":"yes"}},{"type":"node","id":4135996572,"lat":22.5403372,"lon":113.8928395,"tags":{"name":"前海湾","name:en":"Qianhaiwan","name:zh":"前海湾","name:zh-Hans":"前海湾","name:zh-Hant":"前海灣","public_transport":"stop_position","railway":"stop","subway":"yes"}},{"type":"node","id":4135996573,"lat":22.5403581,"lon":113.8931529,"tags":{"name":"前海湾","name:en":"Qianhaiwan","name:zh":"前海湾","name:zh-Hans":"前海湾","name:zh-Hant":"前海灣","public_transport":"stop_position","railway":"stop","subway":"yes"}},{"type":"node","id":4136030489,"lat":22.5261395,"lon":113.9664633,"tags":{"name":"红树湾南","name:en":"Hongshuwan South","public_transport":"stop_position","railway":"stop","subway":"yes"}},{"type":"node","id":4136048004,"lat":22.5213511,"lon":113.9382212,"tags":{"name":"后海","name:en":"Houhai","name:zh":"后海","network":"深圳市轨道交通","operator":"深圳市地铁集团有限公司","platforms":"2","public_transport":"stop_position","railway":"stop","subway":"yes"}},{"type":"node","id":4136101392,"lat":22.5393158,"lon":114.0207872,"tags":{"name":"车公庙","name:en":"Chegongmiao","name:zh":"车公庙","name:zh-Hans":"车公庙","name:zh-Hant":"車公廟","public_transport":"stop_position","railway":"stop","subway":"yes"}},{"type":"node","id":4136111361,"lat":22.5428067,"lon":114.0482365,"tags":{"name":"福田","name:en":"Futian","name:ru":"Футянь","network":"深圳市轨道交通","operator":"深圳市地铁集团有限公司","platforms":"4","public_transport":"stop_position","railway":"stop","subway":"yes"}},{"type":"node","id":4136211611,"lat":22.5433375,"lon":114.0477043,"tags":{"name":"福田","name:en":"Futian","name:ru":"Футянь","name:zh":"福田","platforms":"4","public_transport":"stop_position","railway":"stop","subway":"yes"}},{"type":"node","id":4137604162,"lat":22.5362838,"lon":114.0478007,"tags":{"name":"购物公园","name:en":"Shopping Park","name:zh":"购物公园","name:zh-Hans":"购物公园","name:zh-Hant":"購物公園","platforms":"4","public_transport":"stop_position","railway":"stop","station":"subway","subway":"yes"}},{"type":"node","id":4140845984,"lat":22.5505539,"lon":114.0557428,"tags":{"name":"少年宫","name:en":"Children's Palace","name:ru":"Детский дворец","name:zh":"少年宫","public_transport":"stop_position","railway":"stop","subway":"yes"}},{"type":"node","id":4140857801,"lat":22.5711147,"lon":114.055317,"tags":{"name":"上梅林","name:en":"Shangmeilin","public_transport":"stop_position","railway":"stop","subway":"yes"}},{"type":"node","id":4140923309,"lat":22.5562934,"lon":114.0389027,"tags":{"name":"景田","name:en":"Jingtian","public_transport":"stop_position","railway":"stop","subway":"yes"}},{"type":"node","id":4140982967,"lat":22.539835,"lon":113.9694792,"tags":{"name":"世界之窗","name:en":"Window of the World","name:zh":"世界之窗","public_transport":"stop_position","railway":"stop","subway":"yes","wheelchair":"no"}},{"type":"node","id":4141099287,"lat":22.5259799,"lon":114.0606431,"tags":{"name":"福民","name:en":"Fumin","platforms":"2","public_transport":"stop_position","railway":"stop","subway":"yes"}},{"type":"node","id":4141113601,"lat":22.5264418,"lon":114.0483506,"tags":{"name":"石厦","name:en":"Shixia","name:zh":"石厦","network":"深圳市轨道交通","operator":"深圳市地铁集团有限公司","platforms":"2","public_transport":"stop_position","railway":"stop","station":"subway","subway":"yes","wheelchair":"yes","wikidata":"Q6118910"}},{"type":"node","id":4141182657,"lat":22.5456628,"lon":114.0816444,"tags":{"name":"华强北","name:en":"Huaqiang North","name:zh":"华强北","name:zh-Hans":"华强北","name:zh-Hant":"華强北","public_transport":"stop_position","railway":"stop","subway":"yes"}},{"type":"node","id":4141249196,"lat":22.5517771,"lon":114.0815341,"tags":{"name":"华新","name:en":"Huaxin","public_transport":"stop_position","railway":"stop","subway":"yes"}},{"type":"node","id":4142215167,"lat":22.5646988,"lon":114.0994619,"tags":{"name":"红岭北","name:en":"Hongling North","public_transport":"stop_position","railway":"stop","subway":"yes"}},{"type":"node","id":4142219905,"lat":22.5518252,"lon":114.099173,"tags":{"name":"红岭","name:en":"Hongling","public_transport":"stop_position","railway":"stop","subway":"yes"}},{"type":"node","id":4144635648,"lat":22.5446999,"lon":114.1028545,"tags":{"name":"大剧院","name:en":"Grand Theater","name:zh":"大剧院","name:zh-Hans":"大剧院","name:zh-Hant":"大劇院","operator":"SZMC","public_transport":"stop_position","railway":"stop","subway":"yes"}},{"type":"node","id":4146664400,"lat":22.5371755,"lon":114.0559828,"tags":{"name":"会展中心","name:en":"Convention & Exhibition Center","name:zh":"会展中心","name:zh-Hans":"会展中心","name:zh-Hant":"會展中心","network":"深圳市轨道交通","platforms":"2","public_transport":"stop_position","railway":"stop","subway":"yes"}},{"type":"node","id":4301895271,"lat":22.6541212,"lon":113.7930681,"tags":{"name":"机场北","name:en":"Airport North","name:zh":"机场北","name:zh-Hans":"机场北","name:zh-Hant":"機場北","public_transport":"stop_position","railway":"stop","subway":"yes"}},{"type":"node","id":4417072597,"lat":22.5608729,"lon":114.178181,"tags":{"name":"梧桐山南","name:en":"Wutong Mountain South","name:zh":"梧桐山南","public_transport":"stop_position","railway":"stop","subway":"yes"}},{"type":"node","id":4417339392,"lat":22.5668773,"lon":114.1689505,"tags":{"name":"莲塘","name:en":"Liantang","name:zh":"莲塘","public_transport":"stop_position","railway":"stop","subway":"yes"}},{"type":"node","id":4465651761,"lat":22.5106956,"lon":114.0510904,"tags":{"name":"福保","name:en":"Futian Bonded Area","name:zh":"福保","public_transport":"stop_position","railway":"stop","subway":"yes"}},{"type":"node","id":4466583654,"lat":22.5697422,"lon":114.1239692,"tags":{"name":"田贝","name:en":"Tianbei","public_transport":"stop_position","railway":"stop","subway":"yes"}},{"type":"node","id":5214588590,"lat":22.5574391,"lon":113.8821496,"tags":{"name":"宝安中心","name:en":"Bao'an Center","name:zh-Hant":"寶安中心","platforms":"4","public_transport":"stop_position","railway":"stop","subway":"yes"}},{"type":"node","id":5214588591,"lat":22.5399672,"lon":113.9693395,"tags":{"name":"世界之窗","name:en":"Window of the World","name:zh":"世界之窗","public_transport":"stop_position","railway":"stop","subway":"yes","wheelchair":"no"}},{"type":"node","id":5214588592,"lat":22.5476656,"lon":114.1108332,"tags":{"name":"老街","name:en":"Laojie","network":"深圳地铁","public_transport":"stop_position","railway":"stop","subway":"yes"}},{"type":"node","id":5214588593,"lat":22.5470714,"lon":114.1108235,"tags":{"name":"老街","name:en":"Laojie","network":"深圳地铁","public_transport":"stop_position","railway":"stop","subway":"yes"}},{"type":"node","id":5214636449,"lat":22.6096794,"lon":114.1252994,"tags":{"name":"木棉湾","name:en":"Mumianwan","public_transport":"stop_position","railway":"stop","subway":"yes"}},{"type":"node","id":5214636450,"lat":22.6097644,"lon":114.1252436,"tags":{"name":"木棉湾","name:en":"Mumianwan","public_transport":"stop_position","railway":"stop","subway":"yes"}},{"type":"node","id":5214636452,"lat":22.6043661,"lon":114.1165282,"tags":{"name":"布吉","name:en":"Buji","name:zh":"布吉","public_transport":"stop_position","railway":"stop","subway":"yes"}},{"type":"node","id":5214636454,"lat":22.5488139,"lon":114.131381,"tags":{"name":"黄贝岭","name:en":"Huangbeiling","operator":"深圳地铁集团 SZMC","public_transport":"stop_position","railway":"stop","subway":"yes"}},{"type":"node","id":5214636455,"lat":22.6134575,"lon":114.0256979,"tags":{"name":"深圳北站","name:en":"Shenzhen North Railway Station","public_transport":"stop_position","railway":"stop","subway":"yes"}},{"type":"node","id":5214636457,"lat":22.6021513,"lon":114.0054718,"tags":{"name":"长岭陂","name:en":"Changlingbei","name:zh":"长岭陂","name:zh-Hans":"长岭陂","name:zh-Hant":"長嶺陂","public_transport":"stop_position","railway":"stop","subway":"yes"}},{"type":"node","id":5214636459,"lat":22.5928215,"lon":113.9947521,"tags":{"name":"塘朗","name:en":"Tanglang","public_transport":"stop_position","railway":"stop","subway":"yes","wikidata":"Q5938551","wikipedia":"zh:塘朗站"}},{"type":"node","id":5214636460,"lat":22.5929153,"lon":113.994706,"tags":{"name":"塘朗","name:en":"Tanglang","public_transport":"stop_position","railway":"stop","subway":"yes","wikidata":"Q5938551","wikipedia":"zh:塘朗站"}},{"type":"node","id":5214690112,"lat":22.7315754,"lon":114.2726618,"tags":{"name":"双龙","name:en":"Shuanglong","name:zh":"双龙","operator":"Shenzhen Metro Line 3 Operations Branch Corporation","public_transport":"stop_position","railway":"stop","subway":"yes"}},{"type":"node","id":5214690113,"lat":22.7316607,"lon":114.2726144,"tags":{"name":"双龙","name:en":"Shuanglong","name:zh":"双龙","operator":"Shenzhen Metro Line 3 Operations Branch Corporation","public_transport":"stop_position","railway":"stop","subway":"yes"}},{"type":"node","id":5214690117,"lat":22.7122992,"lon":114.239571,"tags":{"name":"吉祥","name:en":"Jixiang","name:zh":"吉祥","operator":"Shenzhen Metro Line 3 Operations Branch Corporation","public_transport":"stop_position","railway":"stop","subway":"yes"}},{"type":"node","id":5214690521,"lat":22.7002991,"lon":114.2296713,"tags":{"name":"爱联","name:en":"Ailian","name:zh":"爱联","operator":"Shenzhen Metro Line 3 Operations Branch Corporation","public_transport":"stop_position","railway":"stop","subway":"yes"}},{"type":"node","id":5214690523,"lat":22.6885339,"lon":114.2233702,"tags":{"name":"大运","name:en":"Universiade","name:zh":"大运","name:zh-Latn-pinyin":"dàyùn zhàn","public_transport":"stop_position","railway":"stop","subway":"yes"}},{"type":"node","id":5214690526,"lat":22.6758837,"lon":114.2195343,"tags":{"name":"荷坳","name:en":"He'ao","name:zh":"荷坳","public_transport":"stop_position","railway":"stop","subway":"yes"}},{"type":"node","id":5214690530,"lat":22.6618201,"lon":114.2132712,"tags":{"name":"永湖","name:en":"Yonghu","name:zh":"永湖","operator":"Shenzhen Metro Line 3 Operations Branch Corporation","public_transport":"stop_position","railway":"stop","subway":"yes"}},{"type":"node","id":5214690532,"lat":22.6512256,"lon":114.2042014,"tags":{"name":"横岗","name:en":"Henggang","name:zh":"横岗","public_transport":"stop_position","railway":"stop","subway":"yes"}},{"type":"node","id":5214690536,"lat":22.6370323,"lon":114.1757436,"tags":{"name":"六约","name:en":"Liuyue","operator":"Shenzhen Metro Line 3 Operations Branch Corporation","public_transport":"stop_position","railway":"stop","subway":"yes"}},{"type":"node","id":5214690538,"lat":22.6224619,"lon":114.143057,"tags":{"name":"丹竹头","name:en":"Danzhutou","public_transport":"stop_position","railway":"stop","subway":"yes"}},{"type":"node","id":5214690539,"lat":22.6225295,"lon":114.143057,"tags":{"name":"丹竹头","name:en":"Danzhutou","public_transport":"stop_position","railway":"stop","subway":"yes"}},{"type":"node","id":5214690542,"lat":22.6169294,"lon":114.1333257,"tags":{"name":"大芬","name:en":"Dafen","name:zh":"大芬","operator":"Shenzhen Metro Line 3 Operations Branch Corporation","public_transport":"stop_position","railway":"stop","subway":"yes"}},{"type":"node","id":5214690546,"lat":22.5870469,"lon":114.1114029,"tags":{"name":"草埔","name:en":"Caopu","public_transport":"stop_position","railway":"stop","subway":"yes"}},{"type":"node","id":5214690547,"lat":22.5870062,"lon":114.1113006,"tags":{"name":"草埔","name:en":"Caopu","public_transport":"stop_position","railway":"stop","subway":"yes"}},{"type":"node","id":5214753174,"lat":22.6667384,"lon":114.031484,"tags":{"name":"清湖","name:en":"Qinghu","public_transport":"stop_position","railway":"stop","subway":"yes"}},{"type":"node","id":5214753184,"lat":22.6542803,"lon":114.0173883,"tags":{"name":"龙华","name:en":"Longhua","name:zh":"龙华","name:zh-Hans":"龙华","name:zh-Hant":"龍華","public_transport":"stop_position","railway":"stop","subway":"yes"}},{"type":"node","id":5214753185,"lat":22.6543593,"lon":114.017324,"tags":{"name":"龙华","name:en":"Longhua","name:zh":"龙华","name:zh-Hans":"龙华","name:zh-Hant":"龍華","public_transport":"stop_position","railway":"stop","subway":"yes"}},{"type":"node","id":5214753187,"lat":22.6473406,"lon":114.0071327,"tags":{"name":"龙胜","name:en":"Longsheng","public_transport":"stop_position","railway":"stop","subway":"yes"}},{"type":"node","id":5214753188,"lat":22.647438,"lon":114.007059,"tags":{"name":"龙胜","name:en":"Longsheng","public_transport":"stop_position","railway":"stop","subway":"yes"}},{"type":"node","id":5214753190,"lat":22.6398178,"lon":114.0078853,"tags":{"name":"上塘","name:en":"Shangtang","public_transport":"stop_position","railway":"stop","subway":"yes"}},{"type":"node","id":5214753191,"lat":22.6397638,"lon":114.0077931,"tags":{"name":"上塘","name:en":"Shangtang","public_transport":"stop_position","railway":"stop","subway":"yes"}},{"type":"node","id":5214753193,"lat":22.6246312,"lon":114.0184773,"tags":{"name":"红山","name:en":"Hongshan","name:zh":"红山","public_transport":"stop_position","railway":"stop","subway":"yes"}},{"type":"node","id":5214753194,"lat":22.6245804,"lon":114.0183858,"tags":{"name":"红山","name:en":"Hongshan","name:zh":"红山","public_transport":"stop_position","railway":"stop","subway":"yes"}},{"type":"node","id":5214753196,"lat":22.6130571,"lon":114.0251803,"tags":{"name":"深圳北站","name:en":"Shenzhen North Railway Station","name:zh":"深圳北站","public_transport":"stop_position","railway":"stop","subway":"yes"}},{"type":"node","id":5214753197,"lat":22.6131652,"lon":114.0252952,"tags":{"name":"深圳北站","name:en":"Shenzhen North Railway Station","name:zh":"深圳北站","public_transport":"stop_position","railway":"stop","subway":"yes"}},{"type":"node","id":5214753199,"lat":22.6041019,"lon":114.0373216,"tags":{"name":"白石龙","name:en":"Baishilong","public_transport":"stop_position","railway":"stop","subway":"yes"}},{"type":"node","id":5214753200,"lat":22.6041939,"lon":114.0374097,"tags":{"name":"白石龙","name:en":"Baishilong","public_transport":"stop_position","railway":"stop","subway":"yes"}},{"type":"node","id":5214753202,"lat":22.5969992,"lon":114.0436278,"tags":{"name":"民乐","name:en":"Minle","name:zh":"民乐","network":"深圳地铁","operator":"港铁（深圳）","public_transport":"stop_position","railway":"stop","subway":"yes"}},{"type":"node","id":5214753203,"lat":22.5969249,"lon":114.0435128,"tags":{"name":"民乐","name:en":"Minle","name:zh":"民乐","network":"深圳地铁","operator":"港铁（深圳）","public_transport":"stop_position","railway":"stop","subway":"yes"}},{"type":"node","id":5214783846,"lat":22.4880191,"lon":113.9088304,"tags":{"name":"海上世界","name:en":"Sea World","name:zh":"海上世界","public_transport":"stop_position","railway":"stop","subway":"yes"}},{"type":"node","id":5214783848,"lat":22.5262582,"lon":113.9664807,"tags":{"name":"红树湾南","name:en":"Hongshuwan South","public_transport":"stop_position","railway":"stop","subway":"yes"}},{"type":"node","id":5214804363,"lat":22.7197891,"lon":113.8120063,"tags":{"name":"马安山","name:en":"Ma'anshan","name:zh":"马安山","name:zh-Hans":"马安山","name:zh-Hant":"馬安山","public_transport":"stop_position","railway":"stop","subway":"yes"}},{"type":"node","id":5214804365,"lat":22.7335833,"lon":113.8194588,"tags":{"name":"沙井","name:en":"Shajing","name:zh":"沙井","name:zh-Hans":"沙井","name:zh-Hant":"沙井","public_transport":"stop_position","railway":"stop","subway":"yes"}},{"type":"node","id":5214901832,"lat":22.583634,"lon":113.9488635,"tags":{"name":"西丽","name:en":"Xili","name:zh":"西丽","name:zh-Hans":"西丽","name:zh-Hant":"西麗","network":"深圳地铁","operator":"深圳市地铁集团","public_transport":"stop_position","railway":"stop","subway":"yes"}},{"type":"node","id":5214901833,"lat":22.5836979,"lon":113.9495955,"tags":{"name":"西丽","name:en":"Xili","name:zh":"西丽","name:zh-Hans":"西丽","name:zh-Hant":"西麗","network":"深圳地铁","operator":"深圳市地铁集团","public_transport":"stop_position","railway":"stop","subway":"yes"}},{"type":"node","id":5214901835,"lat":22.5514996,"lon":114.0012899,"tags":{"name":"安托山","name:en":"Antuo Hill","name:zh":"安托山","network":"深圳地铁","operator":"深圳市地铁集团","public_transport":"stop_position","railway":"stop","subway":"yes"}},{"type":"node","id":5214901837,"lat":22.5383834,"lon":114.0230958,"tags":{"name":"车公庙","name:en":"Chegongmiao","public_transport":"stop_position","railway":"stop","subway":"yes"}},{"type":"node","id":5347719225,"lat":22.5384332,"lon":114.0233437,"tags":{"name":"车公庙","name:en":"Chegongmiao","public_transport":"stop_position","railway":"stop","subway":"yes"}},{"type":"node","id":5347719226,"lat":22.5384051,"lon":114.0232028,"tags":{"name":"车公庙","name:en":"Chegongmiao","public_transport":"stop_position","railway":"stop","subway":"yes"}},{"type":"node","id":5463494741,"lat":22.5836951,"lon":113.9492422,"tags":{"name":"西丽","name:en":"Xili","name:zh":"西丽","name:zh-Hans":"西丽","name:zh-Hant":"西麗","network":"深圳地铁","operator":"深圳市地铁集团","public_transport":"stop_position","railway":"stop","subway":"yes"}},{"type":"node","id":5518310286,"lat":22.6420313,"lon":114.187791,"tags":{"name":"塘坑","name:en":"Tangkeng","name:zh":"塘坑","public_transport":"stop_position","railway":"stop","subway":"yes"}},{"type":"node","id":5740964937,"lat":22.5421275,"lon":114.0912197,"tags":{"name":"科学馆","name:en":"Science Museum","name:ru":"Музей науки","name:zh":"科学馆","name:zh-Hans":"科学馆","name:zh-Hant":"科學館","operator":"SZMC","platforms":"2","public_transport":"stop_position","railway":"stop","subway":"yes"}},{"type":"node","id":5909950626,"lat":22.5513088,"lon":114.0910376,"tags":{"name":"通新岭","name:en":"Tongxinling","name:zh":"通新岭","public_transport":"stop_position","railway":"stop","station":"subway","subway":"yes"}},{"type":"node","id":6273253932,"lat":22.7555574,"lon":113.8217562,"tags":{"name":"后亭","name:en":"Houting","name:zh":"后亭","name:zh-Hans":"后亭","name:zh-Hant":"後亭","public_transport":"stop_position","railway":"stop","subway":"yes"}},{"type":"node","id":6273253958,"lat":22.7751852,"lon":113.8245894,"tags":{"name":"松岗","name:en":"Songgang","name:zh":"松岗","name:zh-Hans":"松岗","name:zh-Hant":"松崗","public_transport":"stop_position","railway":"stop","subway":"yes"}},{"type":"node","id":6273253983,"lat":22.7862303,"lon":113.8149635,"tags":{"name":"碧头","name:en":"Bitou","public_transport":"stop_position","railway":"stop","subway":"yes"}},{"type":"node","id":6273254328,"lat":22.6910074,"lon":113.8058817,"tags":{"name":"桥头","name:en":"Qiaotou","name:zh":"桥头","name:zh-Hans":"桥头","name:zh-Hant":"橋頭","public_transport":"stop_position","railway":"stop","subway":"yes"}},{"type":"node","id":6273254350,"lat":22.7049354,"lon":113.8127618,"tags":{"name":"塘尾","name:en":"Tangwei","name:zh":"塘尾","name:zh-Hans":"塘尾","name:zh-Hant":"塘尾","public_transport":"stop_position","railway":"stop","subway":"yes"}},{"type":"node","id":6273254378,"lat":22.7198299,"lon":113.8118981,"tags":{"name":"马安山","name:en":"Ma'anshan","name:zh":"马安山","name:zh-Hans":"马安山","name:zh-Hant":"馬安山","public_transport":"stop_position","railway":"stop","subway":"yes"}},{"type":"node","id":6273254598,"lat":22.7335953,"lon":113.8193426,"tags":{"name":"沙井","name:en":"Shajing","name:zh":"沙井","name:zh-Hans":"沙井","name:zh-Hant":"沙井","public_transport":"stop_position","railway":"stop","subway":"yes"}},{"type":"node","id":6273254610,"lat":22.6761788,"lon":113.8008771,"tags":{"name":"福永","name:en":"Fuyong","name:zh":"福永","name:zh-Hans":"福永","name:zh-Hant":"福永","public_transport":"stop_position","railway":"stop","subway":"yes"}},{"type":"node","id":6273254637,"lat":22.6263587,"lon":113.8089131,"tags":{"name":"机场","name:en":"Airport","name:zh":"机场","name:zh-Hans":"机场","name:zh-Hant":"機場","network":"深圳地铁","operator":"深圳地铁集团","public_transport":"stop_position","railway":"stop","subway":"yes"}},{"type":"node","id":6273254657,"lat":22.6540644,"lon":113.7929344,"tags":{"name":"机场北","name:en":"Airport North","name:zh":"机场北","name:zh-Hans":"机场北","name:zh-Hant":"機場北","public_transport":"stop_position","railway":"stop","subway":"yes"}},{"type":"node","id":6273254839,"lat":22.5427009,"lon":114.0482368,"tags":{"name":"福田","name:en":"Futian","name:ru":"Футянь","platforms":"4","public_transport":"stop_position","railway":"stop","subway":"yes"}},{"type":"node","id":6273254851,"lat":22.5388549,"lon":114.0212601,"tags":{"name":"车公庙","name:en":"Chegongmiao","name:zh":"车公庙","name:zh-Hans":"车公庙","name:zh-Hant":"車公廟","platforms":"2","public_transport":"stop_position","railway":"stop","subway":"yes"}},{"type":"node","id":6273255015,"lat":22.5259829,"lon":113.9664404,"tags":{"name":"红树湾南","name:en":"Hongshuwan South","name:zh":"红树湾南","public_transport":"stop_position","railway":"stop","subway":"yes"}},{"type":"node","id":6273255067,"lat":22.5212153,"lon":113.9381828,"tags":{"name":"后海","name:en":"Houhai","platforms":"2","public_transport":"stop_position","railway":"stop","subway":"yes"}},{"type":"node","id":6273255084,"lat":22.527093,"lon":113.9186924,"tags":{"name":"南山","name:en":"Nanshan","name:zh":"南山","name:zh-Hans":"南山","name:zh-Hant":"南山","public_transport":"stop_position","railway":"stop","subway":"yes"}},{"type":"node","id":6273255214,"lat":22.5400957,"lon":113.8923796,"tags":{"name":"前海湾","name:en":"Qianhaiwan","name:zh":"前海湾","name:zh-Hans":"前海湾","name:zh-Hant":"前海灣","public_transport":"stop_position","railway":"stop","subway":"yes"}},{"type":"node","id":6273255242,"lat":22.5577085,"lon":113.8754799,"tags":{"name":"宝安","name:en":"Bao’an","name:zh":"宝安","name:zh-Hans":"宝安","name:zh-Hant":"寶安","public_transport":"stop_position","railway":"stop","subway":"yes"}},{"type":"node","id":6273255252,"lat":22.5787752,"lon":113.8502603,"tags":{"name":"碧海湾","name:en":"Bihaiwan","name:zh":"碧海湾","name:zh-Hans":"碧海湾","name:zh-Hant":"碧海灣","public_transport":"stop_position","railway":"stop","subway":"yes"}},{"type":"node","id":6491337280,"lat":22.5699446,"lon":114.1250002,"tags":{"name":"田贝","name:en":"Tianbei","public_transport":"stop_position","railway":"stop","subway":"yes"}},{"type":"node","id":6498615472,"lat":22.6317437,"lon":113.8303127,"tags":{"name":"后瑞","name:en":"Hourui","name:zh-Hant":"后瑞","public_transport":"stop_position","railway":"stop","subway":"yes"}},{"type":"node","id":6503521717,"lat":22.6022502,"lon":114.0052718,"tags":{"name":"长岭陂","name:en":"Changlingbei","name:zh":"长岭陂","name:zh-Hans":"长岭陂","name:zh-Hant":"長嶺陂","public_transport":"stop_position","railway":"stop","subway":"yes"}},{"type":"node","id":6503521847,"lat":22.5835658,"lon":114.1329483,"tags":{"name":"布心","name:en":"Buxin","name:zh":"布心","public_transport":"stop_position","railway":"stop","subway":"yes"}},{"type":"node","id":6503565378,"lat":22.7752168,"lon":113.8248035,"tags":{"name":"松岗","name:en":"Songgang","name:zh":"松岗","name:zh-Hans":"松岗","name:zh-Hant":"松崗","public_transport":"stop_position","railway":"stop","subway":"yes"}},{"type":"node","id":6516251472,"lat":22.6499657,"lon":113.8175768,"tags":{"name":"机场东","name:en":"Airport East","name:zh-Hans":"机场东","name:zh-Hant":"機場東","platforms":"2","public_transport":"stop_position","railway":"stop","subway":"yes"}},{"type":"node","id":6516267188,"lat":22.5769792,"lon":114.132157,"tags":{"name":"太安","name:en":"Tai'an","name:zh":"太安","public_transport":"stop_position","railway":"stop","subway":"yes"}},{"type":"node","id":6533296540,"lat":22.625228,"lon":113.9340877,"tags":{"name":"百旺","name:en":"Baiwang","name:zh":"百旺","name:zh-Hans":"百旺","name:zh-Hant":"百旺","public_transport":"stop_position","railway":"stop","subway":"yes","was:name":"百旺港大"}},{"type":"node","id":6533296542,"lat":22.6470616,"lon":113.9215195,"tags":{"name":"应人石","name:en":"Yingrenshi","name:zh":"应人石","name:zh-Hans":"应人石","name:zh-Hant":"應人石","public_transport":"stop_position","railway":"stop","subway":"yes"}},{"type":"node","id":6533296546,"lat":22.6709287,"lon":113.9288673,"tags":{"name":"罗租","name:en":"Luozu","name:zh":"罗租","public_transport":"stop_position","railway":"stop","subway":"yes"}},{"type":"node","id":6533296549,"lat":22.6914109,"lon":113.9348943,"tags":{"name":"上屋","name:en":"Shangwu","name:zh":"上屋","name:zh-Hans":"上屋","name:zh-Hant":"上屋","public_transport":"stop_position","railway":"stop","subway":"yes"}},{"type":"node","id":6533296553,"lat":22.6831503,"lon":113.9335218,"tags":{"name":"石岩","name:en":"Shiyan","name:zh":"石岩","name:zh-Hans":"石岩","name:zh-Hant":"石岩","public_transport":"stop_position","railway":"stop","subway":"yes"}},{"type":"node","id":6533296555,"lat":22.5777378,"lon":113.9390833,"tags":{"name":"石鼓","name:en":"Shigu","name:zh":"石鼓","public_transport":"stop_position","railway":"stop","subway":"yes"}},{"type":"node","id":6533296564,"lat":22.5597702,"lon":113.9405074,"tags":{"name":"高新北","name:en":"Hi-Tech North","name:zh":"高新北","public_transport":"stop_position","railway":"stop","subway":"yes","was:name":"松坪"}},{"type":"node","id":6533296567,"lat":22.5499631,"lon":113.9403525,"tags":{"name":"高新中","name:en":"Hi-Tech Central","name:zh":"高新中","public_transport":"stop_position","railway":"stop","subway":"yes","was:name":"科兴"}},{"type":"node","id":6533296568,"lat":22.5405198,"lon":113.9405896,"tags":{"name":"深大","name:en":"Shenzhen University","name:zh":"深大","public_transport":"stop_position","railway":"stop","subway":"yes"}},{"type":"node","id":6533296575,"lat":22.5059678,"lon":113.9453264,"tags":{"name":"深圳湾口岸","name:en":"Shenzhen Bay Checkpoint","name:zh":"深圳湾口岸","public_transport":"stop_position","railway":"stop","subway":"yes"}},{"type":"node","id":6673742538,"lat":22.5429433,"lon":114.0799441,"tags":{"name":"华强路","name:en":"Huaqiang Road","name:zh":"华强路","name:zh-Hans":"华强路","name:zh-Hant":"華强路","public_transport":"stop_position","railway":"stop","subway":"yes"}},{"type":"node","id":6673742539,"lat":22.5431472,"lon":114.0897624,"tags":{"name":"科学馆","name:en":"Science Museum","public_transport":"stop_position","railway":"stop","subway":"yes"}},{"type":"node","id":6673742550,"lat":22.5445956,"lon":114.1029274,"tags":{"name":"大剧院","name:en":"Grand Theater","name:zh":"大剧院","name:zh-Hans":"大剧院","name:zh-Hant":"大劇院","operator":"SZMC","public_transport":"stop_position","railway":"stop","subway":"yes"}},{"type":"node","id":6673765401,"lat":22.4796906,"lon":113.9074168,"tags":{"name":"蛇口港","name:en":"Shekou Port","name:zh":"蛇口港","public_transport":"stop_position","railway":"stop","subway":"yes"}},{"type":"node","id":6673765413,"lat":22.4881089,"lon":113.9102019,"tags":{"name":"海上世界","name:en":"Sea World","name:zh":"海上世界","public_transport":"stop_position","railway":"stop","subway":"yes"}},{"type":"node","id":6673765421,"lat":22.4914168,"lon":113.9148232,"tags":{"name":"水湾","name:en":"Shuiwan","name:zh":"水湾","public_transport":"stop_position","railway":"stop","subway":"yes"}},{"type":"node","id":6673765429,"lat":22.4890984,"lon":113.9264013,"tags":{"name":"东角头","name:en":"Dongjiaotou","name:zh":"东角头","name:zh-Hans":"东角头","name:zh-Hant":"東角頭","public_transport":"stop_position","railway":"stop","subway":"yes"}},{"type":"node","id":6673765443,"lat":22.4965077,"lon":113.9338189,"tags":{"name":"湾厦","name:en":"Wanxia","name:zh":"湾厦","name:zh-Hans":"湾厦","name:zh-Hant":"灣廈","public_transport":"stop_position","railway":"stop","subway":"yes"}},{"type":"node","id":6673765446,"lat":22.5031285,"lon":113.9329976,"tags":{"name":"海月","name:en":"Haiyue","public_transport":"stop_position","railway":"stop","subway":"yes"}},{"type":"node","id":6673765449,"lat":22.5119034,"lon":113.9328482,"tags":{"name":"登良","name:en":"Dengliang","public_transport":"stop_position","railway":"stop","subway":"yes"}},{"type":"node","id":6673765453,"lat":22.520367,"lon":113.9354394,"tags":{"name":"后海","name:en":"Houhai","platforms":"2","public_transport":"stop_position","railway":"stop","subway":"yes"}},{"type":"node","id":6673765471,"lat":22.5301123,"lon":113.9417943,"tags":{"name":"科苑","name:en":"Keyuan","public_transport":"stop_position","railway":"stop","subway":"yes"}},{"type":"node","id":6673766008,"lat":22.5333469,"lon":114.1131287,"tags":{"name":"罗湖","name:en":"Luohu","name:zh":"罗湖","name:zh-Hans":"罗湖","name:zh-Hant":"羅湖","public_transport":"stop_position","railway":"stop","subway":"yes"}},{"type":"node","id":6673766018,"lat":22.6037711,"lon":113.8419981,"tags":{"name":"固戍","name:en":"Gushu","name:zh":"固戍","name:zh-Hans":"固戍","name:zh-Hant":"固戍","network":"深圳市轨道交通","operator":"深圳市地铁集团有限公司","public_transport":"stop_position","railway":"stop","subway":"yes"}},{"type":"node","id":6673766036,"lat":22.5790488,"lon":113.8569711,"tags":{"name":"西乡","name:en":"Xixiang","name:zh":"西乡","name:zh-Hans":"西乡","name:zh-Hant":"西鄉","public_transport":"stop_position","railway":"stop","subway":"yes"}},{"type":"node","id":6673766038,"lat":22.5719209,"lon":113.8657408,"tags":{"name":"坪洲","name:en":"Pingzhou","name:zh":"坪洲","name:zh-Hans":"坪洲","name:zh-Hant":"坪洲","public_transport":"stop_position","railway":"stop","subway":"yes"}},{"type":"node","id":6673766040,"lat":22.5632096,"lon":113.8764402,"tags":{"name":"宝体","name:en":"Bao'an Stadium","name:zh":"宝体","name:zh-Hans":"宝体","name:zh-Hant":"寶體","public_transport":"stop_position","railway":"stop","subway":"yes","wheelchair":"yes"}},{"type":"node","id":6673766042,"lat":22.5576219,"lon":113.8822956,"tags":{"name":"宝安中心","name:en":"Bao'an Center","public_transport":"stop_position","railway":"stop","subway":"yes"}},{"type":"node","id":6673766045,"lat":22.5507165,"lon":113.8895238,"tags":{"name":"新安","name:en":"Xin'an","name:zh":"新安","name:zh-Hans":"新安","name:zh-Hant":"新安","public_transport":"stop_position","railway":"stop","subway":"yes"}},{"type":"node","id":6673766059,"lat":22.5403548,"lon":113.8929801,"tags":{"name":"前海湾","name:en":"Qianhaiwan","name:zh":"前海湾","name:zh-Hans":"前海湾","name:zh-Hant":"前海灣","public_transport":"stop_position","railway":"stop","subway":"yes"}},{"type":"node","id":6673766080,"lat":22.5350523,"lon":113.8985019,"tags":{"name":"鲤鱼门","name:en":"Liyumen","name:zh":"鲤鱼门","name:zh-Hans":"鲤鱼门","name:zh-Hant":"鯉魚門","public_transport":"stop_position","railway":"stop","subway":"yes"}},{"type":"node","id":6673766087,"lat":22.5352188,"lon":113.9103558,"tags":{"name":"大新","name:en":"Daxin","name:zh":"大新","name:zh-Hans":"大新","name:zh-Hant":"大新","public_transport":"stop_position","railway":"stop","subway":"yes"}},{"type":"node","id":6673766093,"lat":22.5353722,"lon":113.9196635,"tags":{"name":"桃园","name:en":"Taoyuan","name:zh":"桃园","name:zh-Hans":"桃园","name:zh-Hant":"桃園","public_transport":"stop_position","railway":"stop","subway":"yes"}},{"type":"node","id":6673766111,"lat":22.5410668,"lon":113.9389596,"tags":{"name":"深大","name:en":"Shenzhen University","name:ru":"Шэньчжэньский университет","name:zh":"深大","name:zh-Hans":"深大","name:zh-Hant":"深大","public_transport":"stop_position","railway":"stop","subway":"yes"}},{"type":"node","id":6673766124,"lat":22.5431641,"lon":113.9491322,"tags":{"name":"高新园","name:en":"Hi-Tech Park","name:zh":"高新园","name:zh-Hans":"高新园","name:zh-Hant":"高新園","platforms":"2","public_transport":"stop_position","railway":"stop","subway":"yes"}},{"type":"node","id":6673766134,"lat":22.5424456,"lon":113.9622321,"tags":{"name":"白石洲","name:en":"Baishizhou","name:zh":"白石洲","public_transport":"stop_position","railway":"stop","subway":"yes"}},{"type":"node","id":6673766135,"lat":22.5397676,"lon":113.9692595,"tags":{"name":"世界之窗","name:en":"Window of the World","name:zh":"世界之窗","public_transport":"stop_position","railway":"stop","subway":"yes","wheelchair":"no"}},{"type":"node","id":6673766142,"lat":22.5362648,"lon":113.980485,"tags":{"name":"华侨城","name:en":"OCT","name:zh":"华侨城","name:zh-Hans":"华侨城","name:zh-Hant":"華僑城","public_transport":"stop_position","railway":"stop","subway":"yes"}},{"type":"node","id":6673766146,"lat":22.5353151,"lon":113.991427,"tags":{"name":"侨城东","name:en":"Qiaocheng East","public_transport":"stop_position","railway":"stop","subway":"yes"}},{"type":"node","id":6673766154,"lat":22.5361966,"lon":114.009083,"tags":{"name":"竹子林","name:en":"Zhuzilin","public_transport":"stop_position","railway":"stop","subway":"yes"}},{"type":"node","id":6673766156,"lat":22.5391063,"lon":114.0208304,"tags":{"name":"车公庙","name:en":"Chegongmiao","name:zh":"车公庙","name:zh-Hans":"车公庙","name:zh-Hant":"車公廟","public_transport":"stop_position","railway":"stop","subway":"yes"}},{"type":"node","id":6673766170,"lat":22.5415825,"lon":114.0336284,"tags":{"name":"香蜜湖","name:en":"Xiangmihu","name:zh":"香蜜湖","public_transport":"stop_position","railway":"stop","subway":"yes"}},{"type":"node","id":6673766183,"lat":22.5372934,"lon":114.049658,"tags":{"name":"购物公园","name:en":"Shopping Park","network":"深圳市轨道交通","operator":"SZMC","public_transport":"stop_position","railway":"stop","subway":"yes"}},{"type":"node","id":6673766185,"lat":22.537417,"lon":114.0562552,"tags":{"name":"会展中心","name:en":"Convention & Exhibition Center","name:zh":"会展中心","name:zh-Hans":"会展中心","name:zh-Hant":"會展中心","network":"深圳市轨道交通","operator":"SZMC","public_transport":"stop_position","railway":"stop","subway":"yes","website":"https://www.szmc.net/page/en/stations.html?xl=1&code=0108"}},{"type":"node","id":6673766187,"lat":22.5375448,"lon":114.0629444,"tags":{"name":"岗厦","name:en":"Gangxia","name:zh":"岗厦","network":"深圳市轨道交通","operator":"深圳市地铁集团有限公司","public_transport":"stop_position","railway":"stop","subway":"yes"}},{"type":"node","id":6673770874,"lat":22.5865155,"lon":114.2397792,"tags":{"int_name":"Shenzhen Foreign Languages School Senior Department","name":"深外高中","name:en":"Shenwai Senior Campus","name:zh":"深外高中","public_transport":"stop_position","railway":"stop","subway":"yes"}},{"type":"node","id":6673778093,"lat":22.5279412,"lon":113.9633401,"tags":{"name":"红树湾","name:en":"Hongshuwan","public_transport":"stop_position","railway":"stop","subway":"yes"}},{"type":"node","id":6673778127,"lat":22.5398156,"lon":113.9695462,"tags":{"name":"世界之窗","name:en":"Window of the World","name:zh":"世界之窗","public_transport":"stop_position","railway":"stop","subway":"yes","wheelchair":"no"}},{"type":"node","id":6673778160,"lat":22.5470693,"lon":113.9839304,"tags":{"name":"侨城北","name:en":"Qiaocheng North","name:zh":"侨城北","network":"深圳市轨道交通","operator":"深圳市地铁集团有限公司","public_transport":"stop_position","railway":"stop","subway":"yes"}},{"type":"node","id":6673778182,"lat":22.5492613,"lon":113.993739,"tags":{"name":"深康","name:en":"Shenkang","name:zh":"深康","public_transport":"stop_position","railway":"stop","subway":"yes"}},{"type":"node","id":6673778189,"lat":22.5515896,"lon":114.0014389,"tags":{"name":"安托山","name:en":"Antuo Hill","name:zh":"安托山","network":"深圳地铁","operator":"深圳市地铁集团","public_transport":"stop_position","railway":"stop","subway":"yes"}},{"type":"node","id":6673778195,"lat":22.5524637,"lon":114.0093354,"tags":{"name":"侨香","name:en":"Qiaoxiang","platforms":"2","public_transport":"stop_position","railway":"stop","subway":"yes"}},{"type":"node","id":6673778224,"lat":22.5566421,"lon":114.027827,"tags":{"name":"香梅北","name:en":"Xiangmei North","public_transport":"stop_position","railway":"stop","subway":"yes"}},{"type":"node","id":6673778263,"lat":22.5562132,"lon":114.0389134,"tags":{"name":"景田","name:en":"Jingtian","public_transport":"stop_position","railway":"stop","subway":"yes"}},{"type":"node","id":6673778387,"lat":22.5470822,"lon":114.0802441,"tags":{"name":"华强北","name:en":"Huaqiang North","name:zh":"华强北","name:zh-Hans":"华强北","name:zh-Hant":"華强北","public_transport":"stop_position","railway":"stop","subway":"yes"}},{"type":"node","id":6673778444,"lat":22.5488343,"lon":114.1313656,"tags":{"name":"黄贝岭","name:en":"Huangbeiling","operator":"深圳地铁集团 SZMC","public_transport":"stop_position","railway":"stop","subway":"yes"}},{"type":"node","id":6673778450,"lat":22.5666913,"lon":114.1613525,"tags":{"name":"仙湖路","name:en":"Xianhu Road","name:zh":"仙湖路","public_transport":"stop_position","railway":"stop","subway":"yes"}},{"type":"node","id":6673778461,"lat":22.5559107,"lon":114.1502686,"tags":{"name":"莲塘口岸","name:en":"Liantang Checkpoint","name:zh":"莲塘口岸","public_transport":"stop_position","railway":"stop","subway":"yes"}},{"type":"node","id":6673778602,"lat":22.5582633,"lon":114.2328734,"tags":{"name":"海山","name:en":"Haishan","name:zh":"海山","public_transport":"stop_position","railway":"stop","subway":"yes"}},{"type":"node","id":6673778619,"lat":22.5571318,"lon":114.2182054,"tags":{"name":"沙头角","name:en":"Shatoujiao","name:zh":"沙头角","public_transport":"stop_position","railway":"stop","subway":"yes"}},{"type":"node","id":6673778659,"lat":22.5608043,"lon":114.1780988,"tags":{"name":"梧桐山南","name:en":"Wutong Mountain South","name:zh":"梧桐山南","public_transport":"stop_position","railway":"stop","subway":"yes"}},{"type":"node","id":6673778668,"lat":22.4823109,"lon":113.8925946,"tags":{"name":"赤湾","name:en":"Chiwan","public_transport":"stop_position","railway":"stop","subway":"yes"}},{"type":"node","id":6673778669,"lat":22.5557152,"lon":114.0185932,"tags":{"name":"香蜜","name:en":"Xiangmi","public_transport":"stop_position","railway":"stop","subway":"yes"}},{"type":"node","id":6712237115,"lat":22.5847798,"lon":113.9389384,"tags":{"name":"留仙洞","name:en":"Liuxiandong","name:zh":"留仙洞","network":"深圳市轨道交通","operator":"深圳市地铁集团有限公司","public_transport":"stop_position","railway":"stop","subway":"yes"}},{"type":"node","id":6715099885,"lat":22.550528,"lon":114.144061,"tags":{"name":"新秀","name:en":"Xinxiu","name:zh":"新秀","name:zh-Hans":"新秀","name:zh-Hant":"新秀","operator":"深圳地铁集团 SZMC","platforms":"2","public_transport":"stop_position","railway":"stop","subway":"yes"}},{"type":"node","id":6842754677,"lat":22.5253593,"lon":113.8901481,"tags":{"name":"前湾","name:en":"Qianwan","name:zh":"前湾","name:zh-Hans":"前湾","name:zh-Hant":"前灣","public_transport":"stop_position","railway":"stop","subway":"yes"}},{"type":"node","id":6898322645,"lat":22.5135673,"lon":113.9211918,"tags":{"name":"南油","name:en":"Nanyou","name:zh":"南油","public_transport":"stop_position","railway":"stop","subway":"yes"}},{"type":"node","id":6898322650,"lat":22.645423,"lon":114.1707297,"tags":{"name":"六约北","name:en":"Liuyue North","public_transport":"stop_position","railway":"stop","subway":"yes"}},{"type":"node","id":6898322657,"lat":22.6964556,"lon":114.4093067,"tags":{"name":"田心","name:en":"Tianxin","public_transport":"stop_position","railway":"stop","subway":"yes"}},{"type":"node","id":6898322691,"lat":22.5353124,"lon":113.9199165,"tags":{"name":"桃园","name:en":"Taoyuan","public_transport":"stop_position","railway":"stop","subway":"yes"}},{"type":"node","id":6898322931,"lat":22.6881658,"lon":114.3416881,"tags":{"name":"坪环","name:en":"Pinghuan","name:zh":"坪环","public_transport":"stop_position","railway":"stop","subway":"yes"}},{"type":"node","id":6898322941,"lat":22.6513971,"lon":114.1879954,"tags":{"name":"四联","name:en":"Silian","public_transport":"stop_position","railway":"stop","subway":"yes"}},{"type":"node","id":6898322968,"lat":22.6042334,"lon":114.1166396,"tags":{"name":"布吉","name:en":"Buji","name:zh":"布吉","public_transport":"stop_position","railway":"stop","subway":"yes"}},{"type":"node","id":6898322973,"lat":22.5589778,"lon":114.0818149,"tags":{"name":"黄木岗","name:en":"Huangmugang","name:zh":"黄木岗","name:zh-Hans":"黄木岗","public_transport":"stop_position","railway":"stop","subway":"yes"}},{"type":"node","id":6898322993,"lat":22.5271591,"lon":113.9186731,"tags":{"name":"南山","name:en":"Nanshan","name:zh":"南山","name:zh-Hans":"南山","name:zh-Hant":"南山","public_transport":"stop_position","railway":"stop","subway":"yes"}},{"type":"node","id":6898323007,"lat":22.6947993,"lon":114.2452802,"tags":{"name":"嶂背","name:en":"Zhangbei","public_transport":"stop_position","railway":"stop","subway":"yes"}},{"type":"node","id":6898323023,"lat":22.6502862,"lon":113.8170586,"tags":{"name":"机场东","name:en":"Airport East","name:zh":"机场东","name:zh-Hans":"机场东","name:zh-Hant":"機場東","public_transport":"stop_position","railway":"stop","subway":"yes"}},{"type":"node","id":6898323044,"lat":22.5592686,"lon":113.9139662,"tags":{"name":"同乐南","name:en":"Tongle South","public_transport":"stop_position","railway":"stop","subway":"yes"}},{"type":"node","id":6898323091,"lat":22.6909386,"lon":114.2729012,"tags":{"name":"南约","name:en":"Nanyue","public_transport":"stop_position","railway":"stop","subway":"yes"}},{"type":"node","id":6898323119,"lat":22.7897628,"lon":114.3171471,"tags":{"name":"坪地六联","name:en":"Pingdi Liulian","name:zh":"坪地六联","public_transport":"stop_position","railway":"stop","subway":"yes"}},{"type":"node","id":6898323152,"lat":22.6458997,"lon":113.8294357,"tags":{"name":"兴围","name:en":"Xingwei","public_transport":"stop_position","railway":"stop","ref":"1223","subway":"yes"}},{"type":"node","id":6898323171,"lat":22.6311942,"lon":114.132741,"tags":{"name":"石芽岭","name:en":"Shiyaling","public_transport":"stop_position","railway":"stop","subway":"yes"}},{"type":"node","id":6898323320,"lat":22.7589193,"lon":114.395484,"tags":{"name":"沙田","name:en":"Shatian","public_transport":"stop_position","railway":"stop","subway":"yes"}},{"type":"node","id":6898323350,"lat":22.6892278,"lon":114.3598721,"tags":{"name":"沙壆","name:en":"Shabo","name:zh":"沙壆","name:zh-Hans":"沙壆","name:zh-Hant":"沙壆","public_transport":"stop_position","railway":"stop","subway":"yes"}},{"type":"node","id":7051840953,"lat":22.5214954,"lon":113.9235129,"tags":{"name":"南山书城","name:en":"Nanshan Book Mall","name:zh":"南山书城","name:zh-Hans":"南山书城","name:zh-Hant":"南山書城","public_transport":"stop_position","railway":"stop","subway":"yes"}},{"type":"node","id":7051847791,"lat":22.5123792,"lon":113.9135492,"tags":{"name":"南油西","name:en":"Nanyou West","network":"深圳市轨道交通","operator":"深圳市地铁集团有限公司","public_transport":"stop_position","railway":"stop","subway":"yes"}},{"type":"node","id":7051847798,"lat":22.5186875,"lon":113.8980801,"tags":{"name":"怡海","name:en":"Yihai","public_transport":"stop_position","railway":"stop","subway":"yes"}},{"type":"node","id":7315141141,"lat":22.5148527,"lon":113.9382181,"tags":{"name":"人才公园","name:en":"Talent Park","name:zh":"人才公园","public_transport":"stop_position","railway":"stop","subway":"yes","was:name":"登良东","was:name:en":"Dengliang East","was:name:zh":"登良东"}},{"type":"node","id":7315141151,"lat":22.5206735,"lon":113.9384211,"tags":{"name":"后海","name:en":"Houhai","name:zh":"后海","public_transport":"stop_position","railway":"stop","subway":"yes"}},{"type":"node","id":7416449646,"lat":22.6203282,"lon":114.0361279,"tags":{"name":"民治","name:en":"Minzhi","public_transport":"stop_position","railway":"stop","subway":"yes"}},{"type":"node","id":7430210316,"lat":22.5713555,"lon":114.0843018,"tags":{"name":"银湖","name:en":"Yinhu","name:zh":"银湖","network":"深圳地铁","operator":"深圳市地铁集团","public_transport":"stop_position","railway":"stop","subway":"yes"}},{"type":"node","id":7484117239,"lat":22.5278503,"lon":114.062977,"tags":{"name":"福民","name:en":"Fumin","name:zh":"福民","public_transport":"stop_position","railway":"stop","subway":"yes"}},{"type":"node","id":7487846464,"lat":22.5433883,"lon":114.0567036,"tags":{"name":"市民中心","name:en":"Civic Center","name:zh":"市民中心","public_transport":"stop_position","railway":"stop","subway":"yes"}},{"type":"node","id":7487846512,"lat":22.543497,"lon":114.0642714,"tags":{"name":"岗厦北","name:en":"Gangxia North","name:zh-Hant":"崗廈北","public_transport":"stop_position","railway":"stop","subway":"yes"}},{"type":"node","id":7487846513,"lat":22.542972,"lon":114.0479969,"tags":{"name":"福田","name:en":"Futian","public_transport":"stop_position","railway":"stop","subway":"yes"}},{"type":"node","id":7490905987,"lat":22.7293157,"lon":113.9260388,"tags":{"name":"长圳","name:en":"Changzhen","name:zh":"长圳","name:zh-Hans":"长圳","name:zh-Hant":"長圳","network":"深圳地铁","operator":"深圳市地铁集团","public_transport":"stop_position","railway":"stop","train":"yes"}},{"type":"node","id":7490905994,"lat":22.7504885,"lon":113.9279768,"tags":{"name":"凤凰城","name:en":"Fenghuang Town","name:zh":"凤凰城","name:zh-Hans":"凤凰城","name:zh-Hant":"鳳凰城","public_transport":"stop_position","railway":"stop","subway":"yes"}},{"type":"node","id":7640452837,"lat":22.5278514,"lon":114.0631313,"tags":{"name":"福民","name:en":"Fumin","name:zh":"福民","public_transport":"stop_position","railway":"stop","subway":"yes"}},{"type":"node","id":7710295431,"lat":22.5260659,"lon":113.9736683,"tags":{"name":"深湾","name:en":"Shenwan","public_transport":"stop_position","railway":"stop","subway":"yes"}},{"type":"node","id":7725723556,"lat":22.6489895,"lon":114.1135805,"tags":{"name":"凉帽山","name:en":"Liangmao Hill","public_transport":"stop_position","railway":"stop","subway":"yes"}},{"type":"node","id":7822253163,"lat":22.6130215,"lon":114.0251358,"tags":{"name":"深圳北站","name:en":"Shenzhen North Railway Station","name:zh":"深圳北站","public_transport":"stop_position","railway":"stop","subway":"yes"}},{"type":"node","id":7822253164,"lat":22.6129359,"lon":114.025029,"tags":{"name":"深圳北站","name:en":"Shenzhen North Railway Station","name:zh":"深圳北站","public_transport":"stop_position","railway":"stop","subway":"yes"}},{"type":"node","id":7822253173,"lat":22.5972525,"lon":114.0481243,"tags":{"name":"梅林关","name:en":"Meilinguan","name:zh":"梅林关","operator":"深圳市地铁集团","public_transport":"stop_position","railway":"stop","subway":"yes"}},{"type":"node","id":7822253175,"lat":22.5573385,"lon":114.0906334,"tags":{"name":"体育中心","name:en":"Sports Center","name:zh":"体育中心","network":"深圳地铁","operator":"深圳市地铁集团","public_transport":"stop_position","railway":"stop","station":"subway","subway":"yes","wikidata":"Q96288617"}},{"type":"node","id":7822253176,"lat":22.5633903,"lon":114.0888249,"tags":{"name":"八卦岭","name:en":"Bagualing","name:zh":"八卦岭","network":"深圳地铁","operator":"深圳市地铁集团","public_transport":"stop_position","railway":"stop","station":"subway","subway":"yes"}},{"type":"node","id":7822253177,"lat":22.5770266,"lon":114.06381,"tags":{"name":"翰岭","name:en":"Hanling","name:zh":"翰岭","operator":"深圳市地铁集团","public_transport":"stop_position","railway":"stop","subway":"yes"}},{"type":"node","id":8008654626,"lat":22.6244538,"lon":114.0181601,"tags":{"name":"红山","name:en":"Hongshan","name:zh":"红山","public_transport":"stop_position","railway":"stop","subway":"yes"}},{"type":"node","id":8008654766,"lat":22.6432404,"lon":114.0115168,"tags":{"name":"上芬","name:en":"Shangfen","name:zh":"上芬","public_transport":"stop_position","railway":"stop","subway":"yes"}},{"type":"node","id":8010738714,"lat":22.6590745,"lon":114.0001234,"tags":{"name":"元芬","name:en":"Yuanfen","name:zh":"元芬","name:zh-Hans":"元芬","public_transport":"stop_position","railway":"stop","subway":"yes"}},{"type":"node","id":8010738791,"lat":22.6706859,"lon":113.9865653,"tags":{"name":"阳台山东","name:en":"Yangtai Mountain East","name:zh":"阳台山东","name:zh-Hans":"阳台山东","public_transport":"stop_position","railway":"stop","subway":"yes"}},{"type":"node","id":8057913435,"lat":22.5667986,"lon":114.168955,"tags":{"name":"莲塘","name:en":"Liantang","name:zh":"莲塘","public_transport":"stop_position","railway":"stop","subway":"yes"}},{"type":"node","id":8057913438,"lat":22.5648679,"lon":114.2417372,"tags":{"name":"盐田港西","name:en":"Yantian Port West","name:zh":"盐田港西","public_transport":"stop_position","railway":"stop","subway":"yes"}},{"type":"node","id":8057913440,"lat":22.5865889,"lon":114.2396796,"tags":{"int_name":"Shenzhen Foreign Languages School Senior Department","name":"深外高中","name:en":"Shenwai Senior Campus","name:zh":"深外高中","public_transport":"stop_position","railway":"stop","subway":"yes"}},{"type":"node","id":8057913441,"lat":22.591016,"lon":114.2502655,"tags":{"name":"盐田路","name:en":"Yantian Road","name:zh":"盐田路","public_transport":"stop_position","railway":"stop","subway":"yes"}},{"type":"node","id":8068847337,"lat":22.5432281,"lon":114.0132241,"tags":{"name":"农林","name:en":"Nonglin","name:zh":"农林","network":"深圳地铁","operator":"深圳市地铁集团","public_transport":"stop_position","railway":"stop","subway":"yes"}},{"type":"node","id":8068871085,"lat":22.596448,"lon":113.960551,"tags":{"name":"西丽湖","name:en":"Xili Lake","name:zh":"西丽湖","name:zh-Hans":"西丽湖","name:zh-Hant":"西麗湖","network":"深圳地铁","operator":"深圳市地铁集团","public_transport":"stop_position","railway":"stop","subway":"yes"}},{"type":"node","id":8068871270,"lat":22.551499,"lon":114.0012299,"tags":{"name":"安托山","name:en":"Antuo Hill","name:zh":"安托山","network":"深圳地铁","operator":"深圳市地铁集团","public_transport":"stop_position","railway":"stop","subway":"yes"}},{"type":"node","id":8068871283,"lat":22.5593019,"lon":113.9888359,"tags":{"name":"深云","name:en":"Shenyun","name:zh":"深云","network":"深圳地铁","operator":"深圳市地铁集团","public_transport":"stop_position","railway":"stop","subway":"yes"}},{"type":"node","id":8068871292,"lat":22.5628161,"lon":113.9769295,"tags":{"name":"桃源村","name:en":"Taoyuancun","public_transport":"stop_position","railway":"stop","subway":"yes"}},{"type":"node","id":8068871295,"lat":22.5671599,"lon":113.9697105,"tags":{"name":"龙井","name:en":"Longjing","name:zh":"龙井","network":"深圳市轨道交通","operator":"深圳市地铁集团有限公司","public_transport":"stop_position","railway":"stop","subway":"yes","wikidata":"Q27728574"}},{"type":"node","id":8068871311,"lat":22.5712354,"lon":113.9557768,"tags":{"name":"珠光","name:en":"Zhuguang","name:zh":"珠光","public_transport":"stop_position","railway":"stop","subway":"yes"}},{"type":"node","id":8068871328,"lat":22.5771386,"lon":113.9493803,"tags":{"name":"茶光","name:en":"Chaguang","public_transport":"stop_position","railway":"stop","subway":"yes","wikidata":"Q27728542"}},{"type":"node","id":8068871335,"lat":22.5399464,"lon":114.0816972,"tags":{"name":"华强南","name:en":"Huaqiang South","name:zh":"华强南","public_transport":"stop_position","railway":"stop","subway":"yes"}},{"type":"node","id":8068871350,"lat":22.5345217,"lon":114.0788258,"tags":{"name":"赤尾","name:en":"Chiwei","public_transport":"stop_position","railway":"stop","subway":"yes"}},{"type":"node","id":8068871373,"lat":22.5241735,"lon":114.0689798,"tags":{"name":"皇岗口岸","name:en":"Huanggang Checkpoint","public_transport":"stop_position","railway":"stop","subway":"yes"}},{"type":"node","id":8068871386,"lat":22.5259125,"lon":114.0606399,"tags":{"name":"福民","name:en":"Fumin","platforms":"2","public_transport":"stop_position","railway":"stop","subway":"yes"}},{"type":"node","id":8068871388,"lat":22.5258117,"lon":114.0539397,"tags":{"name":"皇岗村","name:en":"Huanggangcun","public_transport":"stop_position","railway":"stop","subway":"yes","wikidata":"Q27685097"}},{"type":"node","id":8068871393,"lat":22.5257545,"lon":114.0485195,"tags":{"name":"石厦","name:en":"Shixia","name:zh":"石厦","network":"深圳市轨道交通","operator":"深圳市地铁集团有限公司","platforms":"2","public_transport":"stop_position","railway":"stop","subway":"yes","wheelchair":"yes"}},{"type":"node","id":8068871440,"lat":22.5234206,"lon":114.0375364,"tags":{"name":"沙尾","name:en":"Shawei","public_transport":"stop_position","railway":"stop","subway":"yes"}},{"type":"node","id":8068871446,"lat":22.5273286,"lon":114.030579,"tags":{"name":"上沙","name:en":"Shangsha","network":"深圳市轨道交通","operator":"深圳市地铁集团有限公司","public_transport":"stop_position","railway":"stop","subway":"yes","wikidata":"Q27728640"}},{"type":"node","id":8068871459,"lat":22.5456631,"lon":114.0817133,"tags":{"name":"华强北","name:en":"Huaqiang North","name:zh":"华强北","name:zh-Hans":"华强北","name:zh-Hant":"華强北","public_transport":"stop_position","railway":"stop","subway":"yes"}},{"type":"node","id":8172554066,"lat":22.7085284,"lon":114.3227319,"tags":{"name":"坪山","name:en":"Pingshan","name:zh":"坪山","name:zh-Hans":"坪山","name:zh-Hant":"坪山","public_transport":"stop_position","railway":"stop","subway":"yes"}},{"type":"node","id":8172990018,"lat":22.748182,"lon":114.3658193,"tags":{"name":"坑梓","name:en":"Kengzi","public_transport":"stop_position","railway":"stop","subway":"yes"}},{"type":"node","id":8172990027,"lat":22.7114928,"lon":114.3470613,"tags":{"name":"坪山中心","name:en":"Pingshan Center","name:zh":"坪山中心","name:zh-Hans":"坪山中心","name:zh-Hant":"坪山中心","public_transport":"stop_position","railway":"stop","subway":"yes"}},{"type":"node","id":8172990029,"lat":22.7029881,"lon":114.343454,"tags":{"name":"坪山广场","name:en":"Pingshan Square","public_transport":"stop_position","railway":"stop","subway":"yes"}},{"type":"node","id":8172990046,"lat":22.6944369,"lon":114.3371633,"tags":{"name":"坪山围","name:en":"Pingshanwei","name:zh":"坪山围","public_transport":"stop_position","railway":"stop","subway":"yes"}},{"type":"node","id":8172990068,"lat":22.6888436,"lon":114.3508092,"tags":{"name":"东纵纪念馆","name:en":"Dongjiang Column Memorial Hall","name:zh":"东纵纪念馆","public_transport":"stop_position","railway":"stop","subway":"yes"}},{"type":"node","id":8172990070,"lat":22.6911614,"lon":114.3700831,"tags":{"name":"燕子湖","name:en":"Yanzihu","name:zh":"燕子湖","public_transport":"stop_position","railway":"stop","subway":"yes"}},{"type":"node","id":8172990071,"lat":22.6946054,"lon":114.3782186,"tags":{"name":"石井","name:en":"Shijing","name:zh":"石井","public_transport":"stop_position","railway":"stop","subway":"yes"}},{"type":"node","id":8172990074,"lat":22.7010933,"lon":114.3954847,"tags":{"name":"技术大学","name:en":"Technology University","name:zh":"技术大学","public_transport":"stop_position","railway":"stop","subway":"yes"}},{"type":"node","id":8172990077,"lat":22.6986718,"lon":114.3329016,"tags":{"name":"六和","name:en":"Liuhe","name:zh":"六和","public_transport":"stop_position","railway":"stop","subway":"yes"}},{"type":"node","id":8172990078,"lat":22.7060561,"lon":114.3307915,"tags":{"name":"新和","name:en":"Xinhe","name:zh":"新和","name:zh-Hans":"新和","name:zh-Hant":"新和","public_transport":"stop_position","railway":"stop","subway":"yes"}},{"type":"node","id":8172990079,"lat":22.6831016,"lon":114.3288588,"tags":{"name":"锦龙","name:en":"Jinlong","name:zh":"锦龙","name:zh-Hans":"锦龙","name:zh-Hant":"錦龍","public_transport":"stop_position","railway":"stop","subway":"yes"}},{"type":"node","id":8173023072,"lat":22.6941383,"lon":114.3385383,"tags":{"name":"坪山围","name:en":"Pingshanwei","public_transport":"stop_position","railway":"stop","subway":"yes"}},{"type":"node","id":8653587324,"lat":22.7339103,"lon":114.2614988,"tags":{"name":"龙园","name:en":"Longyuan","name:zh":"龙园","public_transport":"stop_position","railway":"stop","subway":"yes"}},{"type":"node","id":8707512546,"lat":22.6980359,"lon":113.7734545,"tags":{"name":"国展","name:en":"Shenzhen World","name:zh":"国展","name:zh-Hans":"国展","name:zh-Hant":"國展","public_transport":"stop_position","railway":"stop","side":"left","subway":"yes"}},{"type":"node","id":8708713094,"lat":22.6599164,"lon":113.8162962,"tags":{"name":"福围","name:en":"Fuwei","name:zh":"福围","name:zh-Hans":"福围","name:zh-Hant":"福圍","public_transport":"stop_position","railway":"stop","subway":"yes"}},{"type":"node","id":8708713111,"lat":22.6217788,"lon":113.8540474,"tags":{"name":"钟屋南","name:en":"Zhongwu South","public_transport":"stop_position","railway":"stop","subway":"yes"}},{"type":"node","id":8708720958,"lat":22.4734635,"lon":113.8962422,"tags":{"name":"左炮台东","name:en":"Zuopaitai East","name:zh":"左炮台东","public_transport":"stop_position","railway":"stop","subway":"yes"}},{"type":"node","id":8708759140,"lat":22.7747924,"lon":113.9404847,"tags":{"name":"光明","name:en":"Guangming","name:zh":"光明","operator":"深圳市地铁集团","public_transport":"stop_position","subway":"yes"}},{"type":"node","id":8708760598,"lat":22.7321659,"lon":114.2723656,"tags":{"name":"双龙","name:en":"Shuanglong","name:zh":"双龙","public_transport":"stop_position","railway":"stop","subway":"yes"}},{"type":"node","id":8708918381,"lat":22.6913203,"lon":114.2929517,"tags":{"name":"宝龙","name:en":"Baolong","public_transport":"stop_position","railway":"stop","subway":"yes"}},{"type":"node","id":8708973142,"lat":22.724524,"lon":114.2915433,"tags":{"name":"龙东","name:en":"Longdong","name:zh":"龙东","public_transport":"stop_position","railway":"stop","subway":"yes"}},{"type":"node","id":8709548950,"lat":22.6882982,"lon":114.2226022,"tags":{"name":"大运","name:en":"Universiade","name:zh":"大运","public_transport":"stop_position","railway":"stop","subway":"yes"}},{"type":"node","id":8709548953,"lat":22.6718858,"lon":114.2086273,"tags":{"name":"坳背","name:en":"Aobei","public_transport":"stop_position","railway":"stop","subway":"yes"}},{"type":"node","id":9025080576,"lat":22.4761622,"lon":113.9068364,"tags":{"name":"太子湾","name:en":"Taiziwan","name:zh":"太子湾","public_transport":"stop_position","railway":"stop","subway":"yes"}},{"type":"node","id":9025794175,"lat":22.791203,"lon":113.9443975,"tags":{"name":"圳美","name:en":"Zhenmei","name:zh":"圳美","public_transport":"stop_position","railway":"stop","start_date":"2022-11-28","subway":"yes"}},{"type":"node","id":9025794183,"lat":22.7992691,"lon":113.9485233,"tags":{"name":"中大","name:en":"Sun Yat-sen University","name:zh":"中大","public_transport":"stop_position","railway":"stop","start_date":"2022-11-28","subway":"yes"}},{"type":"node","id":9032685857,"lat":22.7357312,"lon":113.9488787,"tags":{"name":"光明城","name:en":"Guangmingcheng","name:zh":"光明城","public_transport":"stop_position","railway":"stop","subway":"yes"}},{"type":"node","id":9055387529,"lat":22.5969527,"lon":113.9735521,"tags":{"name":"北大","name:en":"Peking University","name:zh":"北大","name:zh-Hans":"北大","name:zh-Hant":"北大","public_transport":"stop_position","railway":"stop","subway":"yes"}},{"type":"node","id":9055387530,"lat":22.5959135,"lon":113.9833889,"tags":{"name":"深大丽湖","name:en":"SZU Lihu Campus","name:zh":"深大丽湖","name:zh-Hans":"深大丽湖","name:zh-Hant":"深大麗湖","public_transport":"stop_position","railway":"stop","subway":"yes"}},{"type":"node","id":9055452767,"lat":22.6632535,"lon":114.2277017,"tags":{"name":"吉溪","name:en":"Jixi","public_transport":"stop_position","railway":"stop","start_date":"2025-09-28","subway":"yes","was:name":"阿波罗"}},{"type":"node","id":9061718511,"lat":22.5108934,"lon":114.0510506,"tags":{"name":"福保","name:en":"Futian Bonded Area","name:zh":"福保","public_transport":"stop_position","railway":"stop","subway":"yes"}},{"type":"node","id":9061784722,"lat":22.5511471,"lon":114.0549872,"tags":{"name":"少年宫","name:en":"Children's Palace","name:ru":"Детский дворец","public_transport":"stop_position","railway":"stop","subway":"yes"}},{"type":"node","id":9061784736,"lat":22.5433392,"lon":114.0478385,"tags":{"name":"福田","name:en":"Futian","name:ru":"Футянь","name:zh":"福田","platforms":"4","public_transport":"stop_position","railway":"stop","subway":"yes"}},{"type":"node","id":9061784741,"lat":22.5362876,"lon":114.0479296,"tags":{"name":"购物公园","name:en":"Shopping Park","name:zh":"购物公园","name:zh-Hans":"购物公园","name:zh-Hant":"購物公園","platforms":"4","public_transport":"stop_position","railway":"stop","station":"subway","subway":"yes"}},{"type":"node","id":9061784749,"lat":22.5264437,"lon":114.0485374,"tags":{"name":"石厦","name:en":"Shixia","name:zh":"石厦","network":"深圳市轨道交通","operator":"深圳市地铁集团有限公司","platforms":"2","public_transport":"stop_position","railway":"stop","station":"subway","subway":"yes","wheelchair":"yes","wikidata":"Q6118910"}},{"type":"node","id":9061784768,"lat":22.5187843,"lon":114.0459726,"tags":{"name":"益田","name:en":"Yitian","name:zh":"益田","public_transport":"stop_position","railway":"stop","subway":"yes"}},{"type":"node","id":9061784779,"lat":22.5512585,"lon":114.0623412,"tags":{"name":"莲花村","name:en":"Lianhuacun","name:zh":"莲花村","public_transport":"stop_position","railway":"stop","subway":"yes"}},{"type":"node","id":9061784784,"lat":22.5520936,"lon":114.1177492,"tags":{"name":"晒布","name:en":"Shaibu","name:zh":"晒布","network":"深圳地铁","public_transport":"stop_position","railway":"stop","subway":"yes"}},{"type":"node","id":9061784827,"lat":22.5516213,"lon":114.0991766,"tags":{"name":"红岭","name:en":"Hongling","public_transport":"stop_position","railway":"stop","subway":"yes"}},{"type":"node","id":9061784828,"lat":22.5518102,"lon":114.091103,"tags":{"name":"通新岭","name:en":"Tongxinling","name:zh":"通新岭","public_transport":"stop_position","railway":"stop","station":"subway","subway":"yes"}},{"type":"node","id":9061784842,"lat":22.5516982,"lon":114.0822166,"tags":{"name":"华新","name:en":"Huaxin","name:zh":"华新","public_transport":"stop_position","railway":"stop","subway":"yes"}},{"type":"node","id":9061784868,"lat":22.576918,"lon":114.1196697,"tags":{"name":"水贝","name:en":"Shuibei","public_transport":"stop_position","railway":"stop","subway":"yes"}},{"type":"node","id":9061784892,"lat":22.569952,"lon":114.1250482,"tags":{"name":"田贝","name:en":"Tianbei","public_transport":"stop_position","railway":"stop","subway":"yes"}},{"type":"node","id":9061784914,"lat":22.5589018,"lon":114.1247748,"tags":{"name":"翠竹","name:en":"Cuizhu","public_transport":"stop_position","railway":"stop","subway":"yes"}},{"type":"node","id":9061784927,"lat":22.6168876,"lon":114.133389,"tags":{"name":"大芬","name:en":"Dafen","name:zh":"大芬","operator":"Shenzhen Metro Line 3 Operations Branch Corporation","public_transport":"stop_position","railway":"stop","subway":"yes"}},{"type":"node","id":9061784968,"lat":22.6371427,"lon":114.1757238,"tags":{"name":"六约","name:en":"Liuyue","operator":"Shenzhen Metro Line 3 Operations Branch Corporation","public_transport":"stop_position","railway":"stop","subway":"yes"}},{"type":"node","id":9061785004,"lat":22.6421277,"lon":114.1877388,"tags":{"name":"塘坑","name:en":"Tangkeng","name:zh":"塘坑","public_transport":"stop_position","railway":"stop","subway":"yes"}},{"type":"node","id":9061785008,"lat":22.6759369,"lon":114.2194332,"tags":{"name":"荷坳","name:en":"He'ao","name:zh":"荷坳","public_transport":"stop_position","railway":"stop","subway":"yes"}},{"type":"node","id":9061785018,"lat":22.661864,"lon":114.2131599,"tags":{"name":"永湖","name:en":"Yonghu","name:zh":"永湖","operator":"Shenzhen Metro Line 3 Operations Branch Corporation","public_transport":"stop_position","railway":"stop","subway":"yes"}},{"type":"node","id":9061785034,"lat":22.6513118,"lon":114.2041189,"tags":{"name":"横岗","name:en":"Henggang","name:zh":"横岗","public_transport":"stop_position","railway":"stop","subway":"yes"}},{"type":"node","id":9061785053,"lat":22.7248665,"lon":114.2607149,"tags":{"name":"南联","name:en":"Nanlian","name:zh":"南联","public_transport":"stop_position","railway":"stop","subway":"yes"}},{"type":"node","id":9061785065,"lat":22.719811,"lon":114.2497784,"tags":{"name":"龙城广场","name:en":"Longcheng Square","name:zh":"龙城广场","operator":"Shenzhen Metro Line 3 Operations Branch Corporation","public_transport":"stop_position","railway":"stop","subway":"yes"}},{"type":"node","id":9061785078,"lat":22.7123764,"lon":114.2394892,"tags":{"name":"吉祥","name:en":"Jixiang","name:zh":"吉祥","operator":"Shenzhen Metro Line 3 Operations Branch Corporation","public_transport":"stop_position","railway":"stop","subway":"yes"}},{"type":"node","id":9061785088,"lat":22.7003607,"lon":114.2295544,"tags":{"name":"爱联","name:en":"Ailian","name:zh":"爱联","operator":"Shenzhen Metro Line 3 Operations Branch Corporation","public_transport":"stop_position","railway":"stop","subway":"yes"}},{"type":"node","id":9061785099,"lat":22.6885502,"lon":114.2232461,"tags":{"name":"大运","name:en":"Universiade","name:zh":"大运","name:zh-Latn-pinyin":"dàyùn zhàn","public_transport":"stop_position","railway":"stop","subway":"yes"}},{"type":"node","id":9061785117,"lat":22.5472068,"lon":114.1204496,"tags":{"name":"湖贝","name:en":"Hubei","name:zh":"湖贝","name:zh-Hant":"湖貝","public_transport":"stop_position","railway":"stop","subway":"yes"}},{"type":"node","id":9061785118,"lat":22.5437907,"lon":114.1028975,"tags":{"name":"大剧院","name:en":"Grand Theater","name:zh":"大剧院","name:zh-Hans":"大剧院","name:zh-Hant":"大劇院","public_transport":"stop_position","railway":"stop","subway":"yes"}},{"type":"node","id":9061785119,"lat":22.543711,"lon":114.1029206,"tags":{"name":"大剧院","name:en":"Grand Theater","name:zh":"大剧院","name:zh-Hans":"大剧院","name:zh-Hant":"大劇院","public_transport":"stop_position","railway":"stop","subway":"yes"}},{"type":"node","id":9061785124,"lat":22.5498468,"lon":114.044856,"tags":{"name":"莲花西","name:en":"Lianhua West","name:fr":"Liánhuā Ouest","name:zh-Latn-pinyin":"Liánhuā xī zhàn","public_transport":"stop_position","railway":"stop","subway":"yes"}},{"type":"node","id":9061785125,"lat":22.5498076,"lon":114.0450178,"tags":{"name":"莲花西","name:en":"Lianhua West","name:fr":"Liánhuā Ouest","name:zh-Latn-pinyin":"Liánhuā xī zhàn","public_transport":"stop_position","railway":"stop","subway":"yes"}},{"type":"node","id":9061785127,"lat":22.5471541,"lon":114.086904,"tags":{"name":"燕南","name:en":"Yannan","public_transport":"stop_position","railway":"stop","subway":"yes"}},{"type":"node","id":9061785128,"lat":22.5471795,"lon":114.0869036,"tags":{"name":"燕南","name:en":"Yannan","public_transport":"stop_position","railway":"stop","subway":"yes"}},{"type":"node","id":9061785172,"lat":22.5428758,"lon":114.0479942,"tags":{"name":"福田","name:en":"Futian","public_transport":"stop_position","railway":"stop","subway":"yes"}},{"type":"node","id":9061785179,"lat":22.5432693,"lon":114.0567052,"tags":{"name":"市民中心","name:en":"Civic Center","name:zh":"市民中心","public_transport":"stop_position","railway":"stop","subway":"yes"}},{"type":"node","id":9061785182,"lat":22.5433817,"lon":114.0642707,"tags":{"name":"岗厦北","name:en":"Gangxia North","name:zh":"岗厦北","name:zh-Hans":"岗厦北","name:zh-Hant":"崗廈北","public_transport":"stop_position","railway":"stop","subway":"yes"}},{"type":"node","id":9061785206,"lat":22.5470528,"lon":114.0802454,"tags":{"name":"华强北","name:en":"Huaqiang North","name:zh":"华强北","name:zh-Hans":"华强北","name:zh-Hant":"華强北","public_transport":"stop_position","railway":"stop","subway":"yes"}},{"type":"node","id":9061785247,"lat":22.5487598,"lon":114.1313832,"tags":{"name":"黄贝岭","name:en":"Huangbeiling","operator":"深圳地铁集团 SZMC","public_transport":"stop_position","railway":"stop","subway":"yes"}},