{"version":0.6,"generator":"Overpass API 0.7.62.4 2390de5a","osm3s":{"timestamp_osm_base":"2026-07-10T13:52:55Z","copyright":"The data included in this document is from www.openstreetmap.org. The data is made available under ODbL."},"elements":[{"type":"node","id":2987302556,"lat":31.6933795,"lon":117.2919403,"tags":{"name":"丙子铺","name:en":"Bingzipu","operator":"合肥轨道交通集团有限公司","public_transport":"station","railway":"station","station":"subway","subway":"yes","wikidata":"Q17031057"}},{"type":"node","id":2987302557,"lat":31.6933471,"lon":117.2807372,"tags":{"name":"九联圩","name:en":"Jiulianwei","name:zh":"九联圩","name:zh-Hans":"九联圩","name:zh-Hant":"九聯圩","operator":"合肥轨道交通集团有限公司","public_transport":"station","railway":"station","station":"subway","subway":"yes"}},{"type":"node","id":2987302580,"lat":31.7749324,"lon":117.2858507,"tags":{"name":"高王","name:en":"Gaowang","name:zh":"高王","operator":"合肥轨道交通集团有限公司","public_transport":"station","railway":"station","station":"subway","subway":"yes","wikidata":"Q17028894"}},{"type":"node","id":2987302581,"lat":31.7850886,"lon":117.2860048,"tags":{"name":"骆岗","name:en":"Luogang","name:zh":"骆岗","operator":"合肥轨道交通集团有限公司","public_transport":"station","railway":"station","station":"subway","subway":"yes"}},{"type":"node","id":2987302583,"lat":31.7945458,"lon":117.2859514,"tags":{"name":"南站南广场","name:en":"Hefei South Station South Square","name:zh":"南站南广场","operator":"合肥轨道交通集团有限公司","public_transport":"station","railway":"station","station":"subway","subway":"yes"}},{"type":"node","id":2987302590,"lat":31.8075499,"lon":117.2868337,"tags":{"name":"望湖城","name:en":"Wanghucheng","name:zh":"望湖城","operator":"合肥轨道交通集团有限公司","public_transport":"station","railway":"station","station":"subway","subway":"yes","wikidata":"Q17025591"}},{"type":"node","id":2987302597,"lat":31.816469,"lon":117.2980393,"tags":{"name":"葛大店","name:en":"Gedadian","name:zh":"葛大店","operator":"合肥轨道交通集团有限公司","public_transport":"station","railway":"station","station":"subway","subway":"yes","wikidata":"Q17033793"}},{"type":"node","id":2987302599,"lat":31.8253703,"lon":117.2966346,"tags":{"name":"秋浦河路","name:en":"Qiupuhelu","name:zh":"秋浦河路","operator":"合肥轨道交通集团有限公司","public_transport":"station","railway":"station","station":"subway","subway":"yes","wikidata":"Q17028468"}},{"type":"node","id":2987302601,"lat":31.8492551,"lon":117.2951521,"tags":{"name":"合工大南区","name:en":"Hefei University of Technology South Campus","name:zh":"合工大南区","operator":"合肥轨道交通集团有限公司","public_transport":"station","railway":"station","station":"subway","subway":"yes","wikidata":"Q17022502"}},{"type":"node","id":2987302603,"lat":31.858147,"lon":117.2957533,"tags":{"name":"包公园","name:en":"Baogongyuan","name:zh":"包公园","operator":"合肥轨道交通集团有限公司","public_transport":"station","railway":"station","station":"subway","subway":"yes","wikidata":"Q17028612"}},{"type":"node","id":2987302608,"lat":31.8720592,"lon":117.2993577,"tags":{"name":"明光路","name:en":"Mingguanglu","name:zh":"明光路","operator":"合肥轨道交通集团有限公司","public_transport":"station","railway":"station","station":"subway","wikidata":"Q17025479"}},{"type":"node","id":2987302609,"lat":31.8774087,"lon":117.3036709,"tags":{"name":"长淮","name:en":"Changhuai","name:zh":"长淮","operator":"合肥轨道交通集团有限公司","public_transport":"station","railway":"station","station":"subway","subway":"yes","wikidata":"Q17020499"}},{"type":"node","id":3473112196,"lat":31.7531885,"lon":117.1755126,"tags":{"alt_name":"方兴大道","alt_name:en":"Fangxing Avenue","name":"幸福坝","name:en":"Xingfuba","name:zh":"幸福坝","name:zh-Hant":"幸福壩","public_transport":"station","railway":"station","station":"subway","subway":"yes","wikidata":"Q28414972","wikipedia":"zh:幸福坝站"}},{"type":"node","id":3473112197,"lat":31.7612566,"lon":117.1866826,"tags":{"name":"安大磬苑校区","name:en":"Andaqingyuanxiaoqu","name:zh":"安大磬苑校区","name:zh-Hant":"安大磬苑校區","public_transport":"station","railway":"station","station":"subway","subway":"yes","wikidata":"Q80408377","wikipedia":"zh:安大磬苑校区站"}},{"type":"node","id":3473112198,"lat":31.7673985,"lon":117.1996609,"tags":{"name":"工大翡翠湖校区","name:en":"Gongdafeicuihuxiaoqu","name:zh":"工大翡翠湖校区","name:zh-Hant":"工大翡翠湖校區","public_transport":"station","railway":"station","station":"subway","subway":"yes"}},{"type":"node","id":3473112199,"lat":31.7770118,"lon":117.2042861,"tags":{"name":"大学城北","name:en":"Daxuechengbei","name:zh":"大学城北","name:zh-Hant":"大學城北","public_transport":"station","railway":"station","station":"subway","subway":"yes"}},{"type":"node","id":3473112200,"lat":31.7918037,"lon":117.2044083,"tags":{"alt_name:en":"The Second Affiliated Hospital of AMU","name":"安医大二附院","name:en":"Anyida'erfuyuan","name:zh-Hant":"安醫大二附院","public_transport":"station","railway":"station","station":"subway","subway":"yes"}},{"type":"node","id":3473112201,"lat":31.7843725,"lon":117.2032415,"tags":{"name":"繁华大道","name:en":"Fanhuadadao","name:zh":"繁华大道","name:zh-Hant":"繁華大道","public_transport":"stop_position","railway":"stop","station":"subway","subway":"yes"}},{"type":"node","id":3473112202,"lat":31.8029762,"lon":117.2098212,"tags":{"name":"省博物馆","name:en":"Shengbowuyuan","name:zh-Hant":"省博物館","public_transport":"station","railway":"station","station":"subway","subway":"yes"}},{"type":"node","id":3473112204,"lat":31.8163005,"lon":117.2184959,"tags":{"alt_name:en":"Hefei Grand Theatre","name":"合肥大剧院","name:en":"Hefeidajuyuan","name:zh-Hant":"合肥大劇院","public_transport":"station","railway":"station","station":"subway","subway":"yes"}},{"type":"node","id":3473112205,"lat":31.8236772,"lon":117.2263983,"tags":{"alt_name:en":"Civic Centre","name":"市政务中心","name:en":"Shizhengwuzhongxin","name:zh-Hant":"市政務中心","public_transport":"station","railway":"station","station":"subway","subway":"yes"}},{"type":"node","id":3473112206,"lat":31.8342389,"lon":117.225981,"tags":{"name":"洪岗","name:en":"Honggang","name:zh-Hant":"洪崗","public_transport":"station","railway":"station","station":"subway","subway":"yes"}},{"type":"node","id":3473112207,"lat":31.8428986,"lon":117.2257438,"tags":{"alt_name:en":"NDTU","name":"国防科技大学","name:en":"Guofangkejidaxue","name:zh-Hant":"國防科技大學","public_transport":"station","railway":"station","station":"subway","subway":"yes","wikidata":"Q80769774"}},{"type":"node","id":3634890674,"lat":31.8708214,"lon":117.3915512,"tags":{"name":"三十埠","name:en":"Sanshibu","name:zh":"三十埠","public_transport":"station","railway":"station","station":"subway","subway":"yes"}},{"type":"node","id":3634890682,"lat":31.8702725,"lon":117.370088,"tags":{"name":"龙岗","name:en":"Longgang","name:zh":"龙岗","public_transport":"station","railway":"station","station":"subway","subway":"yes","wikidata":"Q47018009"}},{"type":"node","id":3634890684,"lat":31.8701963,"lon":117.3614351,"tags":{"name":"东二十埠","name:en":"Dong'ershibu","name:zh":"东二十埠","public_transport":"station","railway":"station","station":"subway","subway":"yes"}},{"type":"node","id":3634890771,"lat":31.8577257,"lon":117.2037764,"tags":{"name":"科学大道","name:en":"Kexue Dadao","name:zh":"科学大道","public_transport":"station","railway":"station","station":"subway","subway":"yes","wheelchair":"yes","wikidata":"Q47018136"}},{"type":"node","id":3634890840,"lat":31.9199889,"lon":117.3165943,"tags":{"name":"张洼","name:en":"Zhangwa","public_transport":"station","railway":"station","station":"subway","subway":"yes","wikidata":"Q17023705"}},{"type":"node","id":3634890855,"lat":31.7005586,"lon":117.2965006,"tags":{"name":"万年埠","name:en":"Wannianbu","name:zh":"万年埠","name:zh-Hans":"万年埠","name:zh-Hant":"萬年埠","operator":"合肥轨道交通集团有限公司","public_transport":"station","railway":"station","station":"subway","subway":"yes","wikidata":"Q17039480"}},{"type":"node","id":3634890856,"lat":31.7077415,"lon":117.2965323,"tags":{"name":"万达城","name:en":"Wandacheng","name:zh":"万达城","name:zh-Hans":"万达城","name:zh-Hant":"萬達城","operator":"合肥轨道交通集团有限公司","public_transport":"station","railway":"station","station":"subway","subway":"yes","wikidata":"Q17022726"}},{"type":"node","id":3634890866,"lat":31.7248551,"lon":117.297091,"tags":{"name":"金斗公园","name:en":"Jindougongyuan","name:zh":"金斗公园","name:zh-Hans":"金斗公园","name:zh-Hant":"金斗公園","operator":"合肥轨道交通集团有限公司","public_transport":"station","railway":"station","station":"subway","subway":"yes","wikidata":"Q17025434"}},{"type":"node","id":3634890869,"lat":31.7333322,"lon":117.2970614,"tags":{"name":"塘西河公园","name:en":"Tangxihegongyuan","operator":"合肥轨道交通集团有限公司","public_transport":"station","railway":"station","station":"subway","subway":"yes","wikidata":"Q15895006"}},{"type":"node","id":3634890870,"lat":31.742819,"lon":117.2977189,"tags":{"name":"紫庐","name:en":"Zilu","name:zh":"紫庐","operator":"合肥轨道交通集团有限公司","public_transport":"stop_position","railway":"stop","station":"subway","subway":"yes","wikidata":"Q17032362"}},{"type":"node","id":3634890871,"lat":31.7565705,"lon":117.2971205,"tags":{"name":"滨湖会展中心","name:en":"Binhu International Convention Center","name:zh":"滨湖会展中心","operator":"合肥轨道交通集团有限公司","public_transport":"station","railway":"station","station":"subway","subway":"yes","wikidata":"Q17029311"}},{"type":"node","id":3634890874,"lat":31.8853159,"lon":117.3098017,"tags":{"name":"合肥火车站","name:en":"Hefei Railway Station","name:zh":"合肥火车站","public_transport":"station","railway":"station","station":"subway","subway":"yes","wikidata":"Q17023373"}},{"type":"node","id":3634890876,"lat":31.9054785,"lon":117.3081526,"tags":{"name":"兴华苑","name:en":"Xinghuayuan","public_transport":"station","railway":"station","station":"subway","subway":"yes"}},{"type":"node","id":3634890883,"lat":31.8699608,"lon":117.3459358,"tags":{"name":"漕冲","name:en":"Caochong","name:zh":"漕冲","public_transport":"station","railway":"station","station":"subway","subway":"yes","wikidata":"Q47018061"}},{"type":"node","id":3634890884,"lat":31.8697738,"lon":117.3325665,"tags":{"name":"东七里","name:en":"Dong Qili","name:zh":"东七里","name:zh-Hant":"東七里","public_transport":"station","railway":"station","station":"subway","subway":"yes","wikidata":"Q47018063"}},{"type":"node","id":3634890885,"lat":31.8697286,"lon":117.3191706,"tags":{"name":"东五里井","name:en":"Dong Wulijing","public_transport":"station","railway":"station","station":"subway","subway":"yes","wikidata":"Q47018084"}},{"type":"node","id":3634890886,"lat":31.8696153,"lon":117.308313,"tags":{"name":"三里街","name:en":"Sanlijie","name:zh":"三里街","public_transport":"station","railway":"station","station":"subway","subway":"yes","wikidata":"Q47018106"}},{"type":"node","id":3634890887,"lat":31.8636352,"lon":117.2843552,"tags":{"name":"四牌楼","name:en":"Sipailou","public_transport":"station","railway":"station","station":"subway","subway":"yes","wikidata":"Q47018107"}},{"type":"node","id":3634890888,"lat":31.8631591,"lon":117.2698517,"tags":{"name":"三孝口","name:en":"Sanxiaokou","public_transport":"station","railway":"station","station":"subway","subway":"yes","wikidata":"Q17039593"}},{"type":"node","id":3634890889,"lat":31.860161,"lon":117.2597638,"tags":{"name":"安农大","name:en":"Anhui Agriculture University","name:zh-Hant":"安農大","public_transport":"station","railway":"station","station":"subway","subway":"yes"}},{"type":"node","id":3634890890,"lat":31.8567465,"lon":117.2505061,"tags":{"name":"三里庵","name:en":"Sanli'an","name:zh":"三里庵","operator":"合肥市轨道交通集团有限公司","public_transport":"station","railway":"station","station":"subway","subway":"yes"}},{"type":"node","id":3634890891,"lat":31.8529118,"lon":117.2355608,"tags":{"name":"五里墩","name:en":"Wulidun","name:zh":"五里墩","public_transport":"station","railway":"station","station":"subway","subway":"yes","wikidata":"Q47018127"}},{"type":"node","id":3634890892,"lat":31.8542739,"lon":117.2254075,"tags":{"name":"西七里塘","name:en":"Xiqilitang","name:zh":"西七里塘","public_transport":"station","railway":"station","station":"subway","subway":"yes","wikidata":"Q15951946"}},{"type":"node","id":3634890893,"lat":31.8566204,"lon":117.2177909,"tags":{"name":"十里庙","name:en":"Shilimiao","name:zh":"十里庙","public_transport":"station","railway":"station","station":"subway","subway":"yes","wikidata":"Q47018134"}},{"type":"node","id":3634890895,"lat":31.8560148,"lon":117.19317,"tags":{"name":"天柱路","name:en":"Tianzhu Lu","name:zh":"天柱路","public_transport":"station","railway":"station","station":"subway","subway":"yes","wikidata":"Q47018497"}},{"type":"node","id":3634890896,"lat":31.8537515,"lon":117.1804692,"tags":{"name":"大蜀山","name:en":"Dashushan","name:zh":"大蜀山","public_transport":"station","railway":"station","station":"subway","subway":"yes","wikidata":"Q47018502"}},{"type":"node","id":3634890897,"lat":31.8533738,"lon":117.1629098,"tags":{"name":"蜀山西","name:en":"Shushan Xi","name:zh":"蜀山西","public_transport":"station","railway":"station","station":"subway","subway":"yes","wikidata":"Q47018507"}},{"type":"node","id":3634890898,"lat":31.8530748,"lon":117.1461537,"tags":{"name":"振兴路","name:en":"Zhenxing Lu","name:zh":"振兴路","public_transport":"station","railway":"station","station":"subway","subway":"yes","wikidata":"Q47018536"}},{"type":"node","id":3634890899,"lat":31.8529383,"lon":117.130752,"tags":{"name":"汽车西站","name:en":"Qiche Xizhan","name:zh":"汽车西站","public_transport":"station","railway":"station","station":"subway","subway":"yes","wikidata":"Q47018548"}},{"type":"node","id":3634890900,"lat":31.8526607,"lon":117.1213933,"tags":{"name":"桂庄","name:en":"Guizhuang","name:zh":"桂庄","public_transport":"station","railway":"station","station":"subway","subway":"yes","wikidata":"Q47018552"}},{"type":"node","id":3634890901,"lat":31.8525251,"lon":117.1101752,"tags":{"name":"南岗","name:en":"Nangang","name:zh":"南岗","public_transport":"station","railway":"station","station":"subway","subway":"yes","wikidata":"Q17030208"}},{"type":"node","id":3634991555,"lat":31.8896149,"lon":117.3026053,"tags":{"name":"鸭林冲","name:en":"Yalinchong","public_transport":"station","railway":"station","station":"subway","subway":"yes","wikidata":"Q61741790"}},{"type":"node","id":3634991576,"lat":31.8895334,"lon":117.2905388,"tags":{"name":"淮南路","name:en":"Huainan Street","public_transport":"station","railway":"station","station":"subway","subway":"yes","wikidata":"Q61982623"}},{"type":"node","id":3634991604,"lat":31.9117711,"lon":117.3626572,"tags":{"name":"文浍苑","name:en":"Wenhuiyuan","public_transport":"station","railway":"station","station":"subway","subway":"yes","wikidata":"Q61568428"}},{"type":"node","id":3634991623,"lat":31.8738569,"lon":117.2307239,"tags":{"name":"合肥西站","name:en":"Hefeixi Railway Station","public_transport":"stop_position","railway":"stop","station":"subway","subway":"yes"}},{"type":"node","id":3634991775,"lat":31.8637073,"lon":117.2251939,"tags":{"name":"南新庄","name:en":"Nanxinzhuang","public_transport":"station","railway":"station","station":"subway","subway":"yes","wikidata":"Q86726507"}},{"type":"node","id":3634991777,"lat":31.8830233,"lon":117.2406379,"tags":{"name":"杏花村","name:en":"Xinghuacun","public_transport":"station","railway":"station","station":"subway","subway":"yes","wikidata":"Q86726515"}},{"type":"node","id":3634991778,"lat":31.8886114,"lon":117.2513911,"tags":{"name":"四泉桥","name:en":"Siquanqiao","name:zh-Hant":"四泉橋","public_transport":"station","railway":"station","station":"subway","subway":"yes","wikidata":"Q86726509"}},{"type":"node","id":3634991779,"lat":31.8887712,"lon":117.2627214,"tags":{"name":"郑河","name:en":"Zhenghe","public_transport":"station","railway":"station","station":"subway","subway":"yes","wikidata":"Q86726496"}},{"type":"node","id":3634991780,"lat":31.8889595,"lon":117.2729012,"tags":{"name":"海棠","name:en":"Haitang","name:zh":"海棠","public_transport":"station","railway":"station","station":"subway","subway":"yes","wikidata":"Q36931313"}},{"type":"node","id":3634991781,"lat":31.8890468,"lon":117.2817269,"tags":{"name":"一里井","name:en":"Yilijing","name:zh-Hant":"一里井","public_transport":"station","railway":"station","station":"subway","subway":"yes","wikidata":"Q61989167"}},{"type":"node","id":3634991785,"lat":31.8868868,"lon":117.3467532,"tags":{"name":"窦桥湾","name:en":"Douqiaowan","public_transport":"station","railway":"station","station":"subway","subway":"yes","wikidata":"Q61568363"}},{"type":"node","id":3634991786,"lat":31.8921848,"lon":117.3535325,"tags":{"name":"新海大道","name:en":"Xinhaidadao","public_transport":"station","railway":"station","station":"subway","subway":"yes","wikidata":"Q61568387"}},{"type":"node","id":3634991787,"lat":31.8989323,"lon":117.3555695,"tags":{"name":"勤劳村","name:en":"Qinlaocun","public_transport":"station","railway":"station","station":"subway","subway":"yes","wikidata":"Q61568407"}},{"type":"node","id":3637175223,"lat":31.8316487,"lon":117.082736,"tags":{"name":"青龙岗","name:en":"Qinglonggang","name:zh-Hant":"青龍崗","public_transport":"station","railway":"station","station":"subway","subway":"yes","wikidata":"Q110008766"}},{"type":"node","id":3637175272,"lat":31.8226406,"lon":117.1702435,"tags":{"name":"玉兰大道","name:en":"Yulandadao","name:zh-Hant":"玉蘭大道","public_transport":"station","railway":"station","station":"subway","subway":"yes"}},{"type":"node","id":3637175285,"lat":31.8136472,"lon":117.1928435,"tags":{"name":"柳树塘","name:en":"Liushutang","name:zh-Hant":"柳樹塘","public_transport":"station","railway":"station","station":"subway","subway":"yes"}},{"type":"node","id":3637176203,"lat":31.810273,"lon":117.2221298,"tags":{"name":"天鹅湖","name:en":"Tian'ehu","public_transport":"station","railway":"station","station":"subway","subway":"yes"}},{"type":"node","id":3637176227,"lat":31.8106724,"lon":117.2437677,"tags":{"name":"姚公庙","name:en":"Yaogongmiao","name:zh-Hant":"姚公廟","public_transport":"station","railway":"station","station":"subway","subway":"yes"}},{"type":"node","id":3637176235,"lat":31.8105222,"lon":117.2519739,"tags":{"name":"南屏路","name:en":"Nanpinglu","public_transport":"station","railway":"station","station":"subway","subway":"yes"}},{"type":"node","id":3637176242,"lat":31.8097398,"lon":117.2634046,"tags":{"name":"薛河","name:en":"Xuehe","public_transport":"station","railway":"station","station":"subway","subway":"yes"}},{"type":"node","id":3637176248,"lat":31.8052222,"lon":117.2709978,"tags":{"name":"竹西","name:en":"Zhuxi","public_transport":"station","railway":"station","station":"subway","subway":"yes"}},{"type":"node","id":3637176304,"lat":31.8392871,"lon":117.3184146,"tags":{"name":"五里庙","name:en":"Wulimiao","name:zh-Hant":"五里廟","public_transport":"station","railway":"station","station":"subway","subway":"yes"}},{"type":"node","id":3637176327,"lat":31.8560589,"lon":117.3299935,"tags":{"name":"唐桥","name:en":"Tangqiao","name:zh-Hant":"唐橋","public_transport":"station","railway":"station","station":"subway","subway":"yes"}},{"type":"node","id":3637176358,"lat":31.8779157,"lon":117.3351855,"tags":{"name":"站塘","name:en":"Zhantang","public_transport":"station","railway":"station","station":"subway","subway":"yes"}},{"type":"node","id":3637176376,"lat":31.898603,"lon":117.3370585,"tags":{"name":"新海公园","name:en":"Xinhaigongyuan","name:zh-Hant":"新海公園","public_transport":"station","railway":"station","station":"subway","subway":"yes"}},{"type":"node","id":3637176391,"lat":31.906717,"lon":117.3418144,"tags":{"name":"十里村","name:en":"Shilicun","public_transport":"station","railway":"station","station":"subway","subway":"yes"}},{"type":"node","id":3637176411,"lat":31.8017155,"lon":117.2756057,"tags":{"name":"淝南","name:en":"Feinan","public_transport":"station","railway":"station","station":"subway","subway":"yes"}},{"type":"node","id":3637176412,"lat":31.810681,"lon":117.2331209,"tags":{"name":"天鹅湖东","name:en":"Tian'ehudong","name:zh-Hant":"天鵝湖東","public_transport":"station","railway":"station","station":"subway","subway":"yes"}},{"type":"node","id":3637176414,"lat":31.8181845,"lon":117.1822116,"tags":{"name":"金桂","name:en":"Jingui","public_transport":"station","railway":"station","station":"subway","subway":"yes"}},{"type":"node","id":3637176418,"lat":31.8314255,"lon":117.0948261,"tags":{"name":"合肥七中","name:en":"Hefei No.7 High School","public_transport":"station","railway":"station","station":"subway","subway":"yes"}},{"type":"node","id":5134150551,"lat":31.8921833,"lon":117.3088307,"tags":{"name":"瑶海公园","name:en":"Yaohaigongyuan","name:zh":"瑶海公园","name:zh-Hans":"瑶海公园","name:zh-Hant":"瑤海公園","public_transport":"station","railway":"station","station":"subway","subway":"yes","wikidata":"Q17064983"}},{"type":"node","id":5305457529,"lat":31.8706214,"lon":117.383849,"tags":{"name":"王岗","name:en":"Wanggang","name:zh":"王岗","public_transport":"station","railway":"station","station":"subway","subway":"yes","wikidata":"Q47017956"}},{"type":"node","id":5371044758,"lat":31.8658551,"lon":117.2951406,"tags":{"name":"大东门","name:en":"Dadongmen","name:zh":"大东门","name:zh-Hant":"大東門","operator":"合肥轨道交通集团有限公司","public_transport":"station","railway":"station","station":"subway","subway":"yes","wikidata":"Q10933376"}},{"type":"node","id":5523927130,"lat":31.8108518,"lon":117.3076854,"tags":{"name":"葛大店南","name:en":"Gedadiannan","public_transport":"station","railway":"station","station":"subway","subway":"yes"}},{"type":"node","id":5523927132,"lat":31.8169047,"lon":117.3202253,"tags":{"name":"工经学院","name:en":"Gongjingxueyuan","name:zh-Hant":"工經學院","public_transport":"station","railway":"station","station":"subway","subway":"yes"}},{"type":"node","id":5523927133,"lat":31.8068261,"lon":117.296715,"tags":{"name":"望湖城南","name:en":"Wanghuchengnan","public_transport":"station","railway":"station","station":"subway","subway":"yes"}},{"type":"node","id":7093187766,"lat":31.8110688,"lon":117.2100116,"tags":{"alt_name":"祁门路","alt_name:en":"Qimen Road","name":"图书馆","name:en":"Tushuguan","name:zh":"图书馆","name:zh-Hant":"圖書館","public_transport":"station","railway":"station","station":"subway","subway":"yes","wikidata":"Q80403117","wikipedia":"zh:图书馆站"}},{"type":"node","id":7098934034,"lat":31.8869729,"lon":117.3365368,"tags":{"name":"方庙","name:en":"Fangmiao","name:zh-Hant":"方廟","public_transport":"station","railway":"station","station":"subway","subway":"yes","wikidata":"Q61568328"}},{"type":"node","id":7101733258,"lat":31.8872122,"lon":117.3255467,"tags":{"name":"竹丝滩","name:en":"Zhusitan","public_transport":"station","railway":"station","station":"subway","subway":"yes","wikidata":"Q61714774"}},{"type":"node","id":7284562662,"lat":31.8021792,"lon":117.2846034,"tags":{"name":"合肥南站","name:en":"Hefeinan Railway Station","name:zh":"合肥南站","operator":"合肥轨道交通集团有限公司","public_transport":"station","railway":"station","station":"subway","subway":"yes"}},{"type":"node","id":8001180693,"lat":31.7204676,"lon":117.1507443,"tags":{"name":"李湾","name:en":"Liwan","name:zh-Hant":"李灣","public_transport":"station","railway":"station","station":"subway","subway":"yes"}},{"type":"node","id":8001180721,"lat":31.7440064,"lon":117.1631947,"tags":{"name":"安医一附院南区","name:en":"Anyi Yifuyuan Nanqu","name:zh-Hant":"安醫一附院南區","public_transport":"station","railway":"station","station":"subway","subway":"yes"}},{"type":"node","id":8001180722,"lat":31.7257854,"lon":117.1568727,"tags":{"name":"凉亭","name:en":"Liangting","name:zh-Hant":"涼亭","public_transport":"station","railway":"station","station":"subway","subway":"yes","wikidata":"Q124016659"}},{"type":"node","id":8001180723,"lat":31.7112065,"lon":117.1518102,"tags":{"name":"四十埠","public_transport":"station","railway":"station","station":"subway","subway":"yes"}},{"type":"node","id":8001180725,"lat":31.7025987,"lon":117.1609256,"tags":{"name":"芮祠","name:en":"Ruici","public_transport":"station","railway":"station","station":"subway","subway":"yes"}},{"type":"node","id":8001180726,"lat":31.6964908,"lon":117.170328,"tags":{"name":"乐平","name:en":"Leping","name:zh-Hant":"樂平","public_transport":"station","railway":"station","station":"subway","subway":"yes"}},{"type":"node","id":8001180727,"lat":31.6891968,"lon":117.1702878,"tags":{"name":"省儿童医院新区","name:en":"Sheng Ertong Yiyuan Xinqu","name:zh-Hant":"省兒童醫院新區","public_transport":"station","railway":"station","station":"subway","subway":"yes","wikidata":"Q124016630"}},{"type":"node","id":8001252368,"lat":31.9528009,"lon":117.3483073,"tags":{"name":"综保区","name:en":"Hefei Integrated Free Trade Zone","name:zh-Hant":"綜保區","public_transport":"station","railway":"station","station":"subway","subway":"yes"}},{"type":"node","id":8001252369,"lat":31.9389091,"lon":117.3432327,"tags":{"name":"安医一附院北区","name:en":"First Affiliated Hospital of Anhui Medical University North District","name:zh-Hant":"安醫一附院北區","public_transport":"station","railway":"station","station":"subway","subway":"yes"}},{"type":"node","id":8001252370,"lat":31.9284246,"lon":117.3395942,"tags":{"name":"陶冲湖东","name:en":"Taochonghudong","public_transport":"station","railway":"station","station":"subway","subway":"yes"}},{"type":"node","id":8478652624,"lat":31.8110768,"lon":117.2830962,"tags":{"name":"望湖城西","name:en":"Wanghuchengxi","name:zh":"望湖城西","public_transport":"station","railway":"station","station":"subway","subway":"yes"}},{"type":"node","id":8478652627,"lat":31.7945902,"lon":117.296416,"tags":{"name":"盛大","name:en":"Shengda","name:zh":"盛大","public_transport":"station","railway":"station","station":"subway","subway":"yes","wikidata":"Q107059775"}},{"type":"node","id":8478652628,"lat":31.7957084,"lon":117.3117033,"tags":{"name":"包河苑","name:en":"Baoheyuan","name:zh":"包河苑","public_transport":"station","railway":"station","station":"subway","subway":"yes","wikidata":"Q107059773"}},{"type":"node","id":8478652629,"lat":31.7965325,"lon":117.3191491,"tags":{"name":"义兴","name:en":"Yixing","name:zh":"义兴","public_transport":"station","railway":"station","station":"subway","subway":"yes","wikidata":"Q107059774"}},{"type":"node","id":8478652630,"lat":31.7875513,"lon":117.326611,"tags":{"name":"大连路","name:en":"Dalianlu","name:zh":"大连路","public_transport":"station","railway":"station","station":"subway","wikidata":"Q107059772"}},{"type":"node","id":8478652631,"lat":31.7753052,"lon":117.3285945,"tags":{"name":"花园大道","name:en":"Huayuandadao","name:zh":"花园大道","public_transport":"station","railway":"station","station":"subway","wikidata":"Q107059713"}},{"type":"node","id":8478652632,"lat":31.7677027,"lon":117.3286052,"tags":{"name":"黄河路","name:en":"Huanghelu","name:zh":"黄河路","public_transport":"station","railway":"station","station":"subway","subway":"yes","wikidata":"Q107059771"}},{"type":"node","id":8478652633,"lat":31.754764,"lon":117.3331381,"tags":{"name":"扬子江路","name:en":"Yangzijianglu","name:zh":"扬子江路","public_transport":"station","railway":"station","station":"subway","subway":"yes"}},{"type":"node","id":8478652634,"lat":31.7427199,"lon":117.3330925,"tags":{"name":"义城","name:en":"Yicheng","name:zh":"义城","public_transport":"station","railway":"station","station":"subway","subway":"yes"}},{"type":"node","id":8478652635,"lat":31.7332704,"lon":117.333051,"tags":{"name":"省政务中心东","name:en":"Shengzhengwuzhongxindong","name:zh":"省政务中心东","public_transport":"station","railway":"station","station":"subway","subway":"yes"}},{"type":"node","id":8478652636,"lat":31.7201512,"lon":117.3330188,"tags":{"name":"方兴湖","name:en":"Fangxinghu","name:zh":"方兴湖","public_transport":"station","railway":"station","station":"subway","subway":"yes","wikidata":"Q107059767"}},{"type":"node","id":8478652637,"lat":31.715086,"lon":117.3245712,"tags":{"name":"渡江纪念馆","name:en":"Dujiangjinianguan","name:zh":"渡江纪念馆","public_transport":"station","railway":"station","station":"subway","subway":"yes","wikidata":"Q107059766"}},{"type":"node","id":8478652638,"lat":31.7151283,"lon":117.3055141,"tags":{"name":"华山路","name:en":"Huashanlu","name:zh":"华山路","public_transport":"station","railway":"station","station":"subway","subway":"yes","wikidata":"Q104628305"}},{"type":"node","id":8478652639,"lat":31.7151066,"lon":117.3139416,"tags":{"name":"沈湾","name:en":"Shenwan","name:zh":"沈湾","public_transport":"station","railway":"station","station":"subway","subway":"yes","wikidata":"Q107059765"}},{"type":"node","id":8478652640,"lat":31.715131,"lon":117.2965428,"tags":{"name":"云谷路","name:en":"Yungulu","name:zh":"云谷路","name:zh-Hant":"雲谷路","operator":"合肥轨道交通集团有限公司","public_transport":"station","railway":"station","station":"subway","subway":"yes"}},{"type":"node","id":8478652641,"lat":31.7151421,"lon":117.2806685,"tags":{"name":"清水冲","name:en":"Qingshuichong","name:zh":"清水冲","public_transport":"station","railway":"station","station":"subway","subway":"yes"}},{"type":"node","id":8478652642,"lat":31.7151579,"lon":117.2699735,"tags":{"name":"云川公园","name:en":"Yunchuan Park","name:zh":"云川公园","public_transport":"station","railway":"station","station":"subway","subway":"yes","wikidata":"Q107059757"}},{"type":"node","id":8478652643,"lat":31.7114136,"lon":117.2586089,"tags":{"name":"滨湖竹园","name:en":"Binhuzhuyuan","name:zh":"滨湖竹园","public_transport":"station","railway":"station","station":"subway","subway":"yes","wikidata":"Q107059755"}},{"type":"node","id":8478652644,"lat":31.7012466,"lon":117.258566,"tags":{"name":"贵阳路","name:en":"Guiyanglu","name:zh":"贵阳路","public_transport":"station","railway":"station","station":"subway","subway":"yes"}},{"type":"node","id":8478659918,"lat":31.9269652,"lon":117.4019577,"tags":{"name":"相城路","name:en":"Xiangchenglu","public_transport":"station","railway":"station","station":"subway","subway":"yes","wikidata":"Q60995548"}},{"type":"node","id":8478659919,"lat":31.9269694,"lon":117.3915935,"tags":{"name":"职教城东","name:en":"Zhijiaochengdong","public_transport":"station","railway":"station","station":"subway","subway":"yes","wikidata":"Q61568526"}},{"type":"node","id":8478659920,"lat":31.9270103,"lon":117.3775569,"tags":{"name":"职教城","public_transport":"station","railway":"station","station":"subway","subway":"yes"}},{"type":"node","id":8478659921,"lat":31.9232239,"lon":117.3667851,"tags":{"name":"幼儿师范","public_transport":"station","railway":"station","station":"subway","subway":"yes"}},{"type":"node","id":8506489782,"lat":31.8164627,"lon":117.2980181,"tags":{"name":"葛大店","name:en":"Gedadian","name:zh":"葛大店","public_transport":"stop_position","railway":"stop","station":"subway","subway":"yes"}},{"type":"node","id":8506489783,"lat":31.8164754,"lon":117.2980607,"tags":{"name":"葛大店","name:en":"Gedadian","name:zh":"葛大店","public_transport":"stop_position","railway":"stop","station":"subway","subway":"yes"}},{"type":"node","id":8570567818,"lat":31.8271612,"lon":117.318623,"tags":{"name":"尧渡河路","name:en":"Yaoduhelu","name:zh-Hant":"堯渡河路","public_transport":"station","railway":"station","station":"subway","subway":"yes","wikidata":"Q110008799"}},{"type":"node","id":9295585087,"lat":31.8729413,"lon":117.2312112,"tags":{"name":"合肥西站","name:en":"Hefeixi Railway Station","public_transport":"station","railway":"station","station":"subway","subway":"yes","wikidata":"Q61568538"}},{"type":"node","id":9328009617,"lat":31.8869732,"lon":117.3366002,"tags":{"name":"方庙","name:en":"Fangmiao","name:zh-Hant":"方廟","public_transport":"stop_position","railway":"stop","station":"subway","subway":"yes"}},{"type":"node","id":9328009873,"lat":31.8869726,"lon":117.3364733,"tags":{"name":"方庙","name:en":"Fangmiao","name:zh-Hant":"方廟","public_transport":"stop_position","railway":"stop","station":"subway","subway":"yes"}},{"type":"node","id":9328010168,"lat":31.8228455,"lon":117.1521809,"tags":{"name":"北雁湖","name:en":"Beiyanhu","public_transport":"station","railway":"station","station":"subway","subway":"yes","wikidata":"Q110008778"}},{"type":"node","id":9328010299,"lat":31.8319844,"lon":117.1097124,"tags":{"name":"量子科学中心","name:en":"QISRC","name:zh-Hant":"量子科學中心","public_transport":"station","railway":"station","station":"subway","subway":"yes"}},{"type":"node","id":9328010300,"lat":31.8321462,"lon":117.1286128,"tags":{"name":"科大先研院","name:en":"IAT-USTC","public_transport":"station","railway":"station","station":"subway","subway":"yes"}},{"type":"node","id":9328010328,"lat":31.8177748,"lon":117.1394791,"tags":{"name":"复兴集","name:zh":"复兴集","name:zh-Hans":"复兴集","name:zh-Hant":"復興集","public_transport":"station","railway":"station","station":"subway","subway":"yes"}},{"type":"node","id":9328010329,"lat":31.7843742,"lon":117.1322072,"tags":{"name":"桃花潭","public_transport":"station","railway":"station","station":"subway","subway":"yes"}},{"type":"node","id":9328010330,"lat":31.8047413,"lon":117.1396503,"tags":{"name":"长安集","name:zh-Hant":"長安集","public_transport":"station","railway":"station","station":"subway","subway":"yes"}},{"type":"node","id":9328010343,"lat":31.784333,"lon":117.1112101,"tags":{"name":"金小郢","public_transport":"station","railway":"station","station":"subway","subway":"yes"}},{"type":"node","id":9328010344,"lat":31.7677959,"lon":117.0869302,"tags":{"name":"铜锣寨路","name:en":"Tongluozhai Road","name:zh-Hant":"銅鑼寨路","public_transport":"station","railway":"station","station":"subway","subway":"yes"}},{"type":"node","id":9328010345,"lat":31.7614573,"lon":117.0892226,"tags":{"name":"魏庄","name:en":"Weizhuang","name:zh-Hant":"魏莊","public_transport":"station","railway":"station","station":"subway","subway":"yes"}},{"type":"node","id":9328026702,"lat":31.7571678,"lon":117.0964298,"tags":{"name":"烧脉岗","name:en":"Shaomaigang","name:zh-Hant":"燒脈崗","public_transport":"station","railway":"station","station":"subway","subway":"yes"}},{"type":"node","id":9655404717,"lat":31.6808671,"lon":117.1532759,"tags":{"name":"馆驿","name:zh-Hant":"館驛","public_transport":"station","railway":"station","station":"subway","subway":"yes"}},{"type":"node","id":9700440899,"lat":31.98794,"lon":116.9632589,"tags":{"name":"T1航站楼","public_transport":"station","railway":"station","station":"subway","subway":"yes"}},{"type":"node","id":9938215046,"lat":31.7571604,"lon":117.1097065,"tags":{"name":"紫云湖","name:en":"Ziyun Lake","public_transport":"station","railway":"station","station":"subway","subway":"yes"}},{"type":"node","id":9938215058,"lat":31.8737887,"lon":117.4141246,"tags":{"name":"三十埠东","name:en":"Sanshibudong","name:zh-Hant":"三十埠東","public_transport":"station","railway":"station","station":"subway","subway":"yes"}},{"type":"node","id":9938215059,"lat":31.8758821,"lon":117.4239241,"tags":{"name":"祥和","name:en":"Xianghe","public_transport":"station","railway":"station","station":"subway","subway":"yes"}},{"type":"node","id":9938215060,"lat":31.8757631,"lon":117.4370484,"tags":{"name":"桂王","name:en":"Guiwang","public_transport":"station","railway":"station","station":"subway","subway":"yes"}},{"type":"node","id":9938215061,"lat":31.8744432,"lon":117.4496656,"tags":{"name":"对河","name:en":"Duihe","name:zh-Hant":"對河","public_transport":"station","railway":"station","station":"subway","subway":"yes"}},{"type":"node","id":9938215062,"lat":31.8770697,"lon":117.4661978,"tags":{"name":"店埠河","name:en":"Dianbuhe","public_transport":"station","railway":"station","station":"subway","subway":"yes"}},{"type":"node","id":9938215063,"lat":31.872964,"lon":117.4751401,"tags":{"name":"排头","name:en":"Paitou","name:zh-Hant":"排頭","public_transport":"station","railway":"station","station":"subway","subway":"yes"}},{"type":"node","id":9938215064,"lat":31.8613637,"lon":117.4803524,"tags":{"name":"肥东站","name:en":"Feidong Railway Station","name:zh-Hant":"肥東站","public_transport":"station","railway":"station","station":"subway","subway":"yes"}},{"type":"node","id":9938215066,"lat":31.8538961,"lon":117.4866259,"tags":{"name":"和睦湖","name:en":"Hemuhu","public_transport":"station","railway":"station","station":"subway","subway":"yes"}},{"type":"node","id":9938215067,"lat":31.8466877,"lon":117.4865926,"tags":{"name":"马桥","name:en":"Maqiao","name:zh-Hant":"馬橋","public_transport":"station","railway":"station","station":"subway","subway":"yes"}},{"type":"node","id":9938215068,"lat":31.835705,"lon":117.486529,"tags":{"name":"南沙河","name:en":"Nanshahe","public_transport":"station","railway":"station","station":"subway","subway":"yes"}},{"type":"node","id":9938215069,"lat":31.8243964,"lon":117.4864574,"tags":{"name":"撮镇","name:en":"Cuozhen","name:zh-Hant":"撮鎮","public_transport":"station","railway":"station","station":"subway","subway":"yes"}},{"type":"node","id":9938215079,"lat":31.8384086,"lon":117.4114432,"tags":{"name":"龙塘","name:en":"Longtang","public_transport":"station","railway":"station","station":"subway","subway":"yes","wikidata":"Q137583510"}},{"type":"node","id":9938215084,"lat":31.8396449,"lon":117.3928688,"tags":{"name":"伏龙","name:en":"Fulong","public_transport":"station","railway":"station","station":"subway","subway":"yes","wikidata":"Q137583521"}},{"type":"node","id":9938215085,"lat":31.8376999,"lon":117.3798469,"tags":{"name":"大兴集","name:en":"Daxingji","public_transport":"station","railway":"station","station":"subway","subway":"yes","wikidata":"Q137583527"}},{"type":"node","id":9938215086,"lat":31.8299052,"lon":117.3724327,"tags":{"name":"钢红","name:en":"Ganghong","public_transport":"station","railway":"station","station":"subway","subway":"yes"}},{"type":"node","id":9938215087,"lat":31.833375,"lon":117.3607658,"tags":{"name":"市博物馆","public_transport":"station","railway":"station","station":"subway","subway":"yes"}},{"type":"node","id":9938215088,"lat":31.8376791,"lon":117.3498802,"tags":{"name":"市儿童医院","public_transport":"station","railway":"station","station":"subway","subway":"yes"}},{"type":"node","id":9938215090,"lat":31.8301289,"lon":117.3295549,"tags":{"name":"唐大楼","public_transport":"station","railway":"station","station":"subway","subway":"yes"}},{"type":"node","id":9938215094,"lat":31.8324843,"lon":117.2798519,"tags":{"name":"卫岗","name:en":"Weigang","public_transport":"station","railway":"station","station":"subway","subway":"yes","wikidata":"Q137583882"}},{"type":"node","id":9938215095,"lat":31.8306564,"lon":117.2652005,"tags":{"name":"市第三医院","name:en":"Hefei No.3 People's Hospital","public_transport":"station","railway":"station","station":"subway","subway":"yes","wikidata":"Q111225519"}},{"type":"node","id":9938215096,"lat":31.8320412,"lon":117.2524082,"tags":{"name":"南七里","name:en":"Nanqili","public_transport":"station","railway":"station","station":"subway","subway":"yes","wikidata":"Q137583538"}},{"type":"node","id":9938215097,"lat":31.8326929,"lon":117.2407171,"tags":{"name":"炮兵学院","name:en":"Lujun Bingzhong Daxue","public_transport":"station","railway":"station","station":"subway","subway":"yes","wikidata":"Q137583543"}},{"type":"node","id":9938215098,"lat":31.8354729,"lon":117.2166789,"tags":{"name":"松荫桥","name:en":"Songyinqiao","public_transport":"station","railway":"station","station":"subway","subway":"yes"}},{"type":"node","id":9938215099,"lat":31.8346877,"lon":117.1973587,"tags":{"name":"梦城","name:en":"Mengcheng","public_transport":"station","railway":"station","station":"subway","subway":"yes"}},{"type":"node","id":9938215100,"lat":31.8336857,"lon":117.1793492,"tags":{"name":"开福寺","name:en":"Kaifusi","public_transport":"station","railway":"station","station":"subway","subway":"yes","wikidata":"Q137583901"}},{"type":"node","id":9938306033,"lat":31.8161673,"lon":117.2712511,"tags":{"name":"凌大塘","name:en":"Lingdatang","operator":"合肥市轨道交通集团有限公司","public_transport":"station","railway":"station","station":"subway","subway":"yes","wikidata":"Q111225516"}},{"type":"node","id":9938306034,"lat":31.8204665,"lon":117.2634461,"tags":{"name":"休宁路","operator":"合肥市轨道交通集团有限公司","public_transport":"station","railway":"station","station":"subway","subway":"yes","wikidata":"Q111225517"}},{"type":"node","id":9938306035,"lat":31.8438331,"lon":117.2675397,"tags":{"name":"中国科大东区","name:zh-Hant":"中國科大東區","operator":"合肥市轨道交通集团有限公司","public_transport":"station","railway":"station","station":"subway","subway":"yes","wikidata":"Q111225520"}},{"type":"node","id":9938306036,"lat":31.851382,"lon":117.2684299,"tags":{"name":"稻香楼","name:en":"Daoxianglou","operator":"合肥市轨道交通集团有限公司","public_transport":"station","railway":"station","station":"subway","subway":"yes","wikidata":"Q111225521"}},{"type":"node","id":9938306037,"lat":31.8730505,"lon":117.2730653,"tags":{"name":"杏花公园","name:en":"Xinghua Park","operator":"合肥市轨道交通集团有限公司","public_transport":"station","railway":"station","station":"subway","subway":"yes","wikidata":"Q111225522"}},{"type":"node","id":9938306038,"lat":31.881566,"lon":117.2729431,"tags":{"name":"白水坝","name:en":"Baishuiba","name:zh-Hant":"白水壩","operator":"合肥市轨道交通集团有限公司","public_transport":"station","railway":"station","station":"subway","subway":"yes","wikidata":"Q111225523"}},{"type":"node","id":9938306039,"lat":31.899516,"lon":117.2700751,"tags":{"name":"北五里井","name:en":"Beiwulijing","operator":"合肥市轨道交通集团有限公司","public_transport":"station","railway":"station","station":"subway","subway":"yes","wikidata":"Q111225525"}},{"type":"node","id":9938306042,"lat":31.9189745,"lon":117.2661599,"tags":{"name":"菱湖公园","name:en":"Linghu Park","operator":"合肥市轨道交通集团有限公司","public_transport":"station","railway":"station","station":"subway","subway":"yes","wikidata":"Q111225526"}},{"type":"node","id":9938306043,"lat":31.9319216,"lon":117.2645732,"tags":{"name":"六中菱湖校区","name:en":"Hefei No. 6 High School Linghu Campus","name:zh-Hant":"六中菱湖校區","operator":"合肥市轨道交通集团有限公司","public_transport":"station","railway":"station","station":"subway","wikidata":"Q111225527"}},{"type":"node","id":9938306044,"lat":31.9429963,"lon":117.258289,"tags":{"name":"汲桥路","name:en":"Jiqiao Road","name:zh":"汲桥路","name:zh-Hans":"汲桥路","name:zh-Hant":"汲橋路","operator":"合肥市轨道交通集团有限公司","public_transport":"station","railway":"station","station":"subway","subway":"yes","wikidata":"Q111225528"}},{"type":"node","id":11163093621,"lat":31.9054197,"lon":117.2785101,"tags":{"name":"杏林","public_transport":"station","railway":"station","station":"subway","subway":"yes"}},{"type":"node","id":11163093623,"lat":31.9251966,"lon":117.274557,"tags":{"name":"庐阳经开区","name:zh-Hant":"廬陽經開區","public_transport":"station","railway":"station","station":"subway","subway":"yes"}},{"type":"node","id":11163093637,"lat":31.9381071,"lon":117.2543029,"tags":{"name":"荷塘路","public_transport":"station","railway":"station","station":"subway","subway":"yes"}},{"type":"node","id":11163093641,"lat":31.9585573,"lon":117.2515035,"tags":{"name":"双凤","name:zh-Hant":"雙鳳","public_transport":"station","railway":"station","station":"subway","subway":"yes"}},{"type":"node","id":11163093653,"lat":31.9778419,"lon":117.2493729,"tags":{"name":"金梅路","public_transport":"station","railway":"station","station":"subway","subway":"yes","wikidata":"Q131444109","wikipedia":"zh:金梅路站"}},{"type":"node","id":11163093656,"lat":31.9967962,"lon":117.2484686,"tags":{"name":"梅冲湖","name:zh-Hant":"梅沖湖","public_transport":"station","railway":"station","station":"subway","subway":"yes","wikidata":"Q131444108","wikipedia":"zh:梅冲湖站"}},{"type":"node","id":11163093684,"lat":32.0130302,"lon":117.2424736,"tags":{"name":"北城世纪城","name:zh-Hant":"北城世紀城","public_transport":"station","railway":"station","station":"subway","subway":"yes"}},{"type":"node","id":11163093685,"lat":32.031539,"lon":117.2431083,"tags":{"name":"双墩","name:zh-Hant":"雙墩","public_transport":"station","railway":"station","station":"subway"}},{"type":"node","id":11163093686,"lat":32.0465591,"lon":117.2406001,"tags":{"name":"省立医院北区","name:zh-Hant":"省立醫院北區","public_transport":"station","railway":"station","station":"subway","subway":"yes"}},{"type":"node","id":11163093700,"lat":32.0647806,"lon":117.2508258,"tags":{"name":"北城高铁站","name:zh-Hant":"北城高鐵站","public_transport":"station","railway":"station","station":"subway","subway":"yes"}},{"type":"node","id":11164390521,"lat":31.7844265,"lon":117.1908483,"tags":{"name":"翡翠公园","name:en":"Feicuigongyuan","public_transport":"station","railway":"station","station":"subway","subway":"yes"}},{"type":"node","id":11164390522,"lat":31.7828758,"lon":117.2157493,"tags":{"name":"徽园","name:en":"Huiyuan","public_transport":"station","railway":"station","station":"subway","subway":"yes","wikidata":"Q140399518"}},{"type":"node","id":11164390523,"lat":31.7783633,"lon":117.2258393,"tags":{"name":"莲花路","public_transport":"station","railway":"station","station":"subway","subway":"yes"}},{"type":"node","id":11164390524,"lat":31.7783,"lon":117.2336335,"tags":{"name":"天都路","name:en":"Tiandu Lu","public_transport":"station","railway":"station","station":"subway","subway":"yes","wikidata":"Q140407603"}},{"type":"node","id":11164390525,"lat":31.7728164,"lon":117.2446921,"tags":{"name":"石门路","public_transport":"station","railway":"station","station":"subway","subway":"yes"}},{"type":"node","id":11164390526,"lat":31.7618224,"lon":117.2446615,"tags":{"name":"耕耘路","public_transport":"station","railway":"station","station":"subway","subway":"yes"}},{"type":"node","id":11164390527,"lat":31.7553479,"lon":117.2542327,"tags":{"name":"清潭路","name:en":"Hefei Daxue","public_transport":"station","railway":"station","station":"subway","subway":"yes","wikidata":"Q140407605"}},{"type":"node","id":11164390528,"lat":31.7580461,"lon":117.2647773,"tags":{"name":"习友路","name:en":"Nanyanhunan","public_transport":"station","railway":"station","station":"subway","subway":"yes","wikidata":"Q140407658"}},{"type":"node","id":11164390529,"lat":31.7520769,"lon":117.2805106,"tags":{"name":"要素大市场","name:en":"Yaosu Dashichang","public_transport":"station","railway":"station","station":"subway","subway":"yes","wikidata":"Q140407606"}},{"type":"node","id":11164390530,"lat":31.7428159,"lon":117.2858933,"tags":{"name":"广西路","name:en":"Binhu Yiyuan","public_transport":"station","railway":"station","station":"subway","subway":"yes","wikidata":"Q140407607"}},{"type":"node","id":11164390531,"lat":31.7428612,"lon":117.3095102,"tags":{"name":"嵩山路","name:en":"Songshan Lu","public_transport":"station","railway":"station","station":"subway","subway":"yes","wikidata":"Q140407608"}},{"type":"node","id":11164390532,"lat":31.7427059,"lon":117.3187228,"tags":{"name":"徽富路","name:en":"Sheng Wenhuahefeiyiguan","public_transport":"station","railway":"station","station":"subway","subway":"yes","wikidata":"Q140399429"}},{"type":"node","id":11164390535,"lat":31.7427719,"lon":117.3433235,"tags":{"name":"天津路","public_transport":"station","railway":"station","station":"subway","subway":"yes"}},{"type":"node","id":11166738535,"lat":31.7842339,"lon":117.2043665,"tags":{"name":"繁华大道","name:en":"Fanhuadadao","name:zh":"繁华大道","name:zh-Hant":"繁華大道","public_transport":"station","railway":"station","station":"subway","subway":"yes"}},{"type":"node","id":11166738536,"lat":31.7427941,"lon":117.2971001,"tags":{"name":"紫庐","name:en":"Zilu","name:zh":"紫庐","public_transport":"station","railway":"station","station":"subway","subway":"yes"}},{"type":"node","id":11866033309,"lat":31.7843562,"lon":117.1322069,"tags":{"name":"桃花潭","public_transport":"station","railway":"station","station":"subway","subway":"yes"}},{"type":"node","id":11866033311,"lat":31.7843922,"lon":117.1322074,"tags":{"name":"桃花潭","public_transport":"station","railway":"station","station":"subway","subway":"yes"}},{"type":"node","id":12437515539,"lat":31.9321804,"lon":117.2658341,"tags":{"name":"六中菱湖校区","name:en":"Hefei No. 6 High School Linghu Campus","name:zh-Hant":"六中菱湖校區","operator":"合肥市轨道交通集团有限公司","public_transport":"station","railway":"station","station":"subway","wikidata":"Q111225527"}},{"type":"node","id":12437516042,"lat":31.8901077,"lon":117.2814779,"tags":{"name":"一里井","name:en":"Yilijing","name:zh-Hant":"一里井","public_transport":"station","railway":"station","station":"subway","subway":"yes","wikidata":"Q61989167"}},{"type":"node","id":13377300624,"lat":31.9840609,"lon":117.0093862,"tags":{"name":"未来湖","public_transport":"station","railway":"station","station":"subway","subway":"yes"}},{"type":"node","id":13418355207,"lat":31.8341046,"lon":117.2962536,"tags":{"name":"朱岗","name:en":"Zhugang","name:zh":"朱岗","operator":"合肥轨道交通集团有限公司","public_transport":"station","railway":"station","station":"subway","subway":"yes","wikidata":"Q17023737"}},{"type":"node","id":13956624012,"lat":31.9826215,"lon":117.0295908,"tags":{"name":"长兴湖","public_transport":"station","railway":"station","station":"subway","subway":"yes"}},{"type":"way","id":718320734,"center":{"lat":31.8602567,"lon":117.2600662},"nodes":[6745738510,6745738511,6745738516,6745738529,6745738512,6745738530,6745738531,6745738528,6745738527,6745738526,6745738525,6745738524,6745738523,6745738513,6745738518,6745738519,6745738522,6745738521,6745738520,6745738517,6745738510],"tags":{"building":"yes","layer":"-1","name":"安农大","name:en":"Anhui Agriculture University","name:zh":"安农大","public_transport":"station","railway":"station","station":"subway","subway":"yes","wikidata":"Q17041433"}},{"type":"way","id":759787671,"center":{"lat":31.8113496,"lon":117.2116321},"nodes":[7097677177,7097677178,7097677179,13407014406,13406978531,7097677181,13406962152,13407000340,7097717337,13406962172,7097717338,7097717339,7097717340,7097717341,7097717342,7097717343,7097717344,7097677182,7097677180,7097677177],"tags":{"building":"train_station","layer":"-2","public_transport":"station","railway":"station","station":"subway","subway":"yes"}},{"type":"way","id":912715093,"center":{"lat":31.9232481,"lon":117.36679},"nodes":[8478659962,8478659951,8478659940,8478659932,8478659958,8478659947,8478659945,8478659938,8478659924,8478659955,8478659953,8478659943,8478659962],"tags":{"building":"yes","layer":"2","name":"幼儿师范站","public_transport":"station","railway":"station","station":"subway","subway":"yes"}},{"type":"way","id":912715094,"center":{"lat":31.9270111,"lon":117.3775217},"nodes":[8478659930,8478659922,8478659960,8478659949,8478659936,8478659928,8478659942,8478659934,8478659961,8478659950,8478659930],"tags":{"building":"yes","layer":"1","name":"职教城站","public_transport":"station","railway":"station","station":"subway","subway":"yes"}},{"type":"way","id":1267644417,"center":{"lat":31.9826135,"lon":116.968181},"nodes":[11773254266,11773254267,11773254268,11773257569,11773257570,11773257571,11773257572,11773257573,11773257574,11773257575,11773257576,11773257577,11773257578,11773257579,11773257580,11773257581,11773257582,11773257583,11773257584,11773257585,11773257586,11773257587,11773257588,11773257589,11773257590,11773257591,11773257592,11773257593,10875941950,10875941949,10875941948,10875941947,10875941945,11773257594,11773257595,11773257596,11773257597,11773254266],"tags":{"landuse":"construction","name":"T2航站楼","public_transport":"station","railway":"station","station":"subway","subway":"yes"}}]}