{"elements":[{"type":"node","id":447883890,"lat":52.7340272,"lon":15.2547242,"tags":{"name":"Rondo Santockie","network":"Gorzów","operator":"MZK Gorzów","public_transport":"stop_position","railway":"tram_stop","tram":"yes"}},{"type":"node","id":447883898,"lat":52.7382096,"lon":15.2566111,"tags":{"name":"Rondo Solidarności","network":"Gorzów","operator":"MZK Gorzów","public_transport":"stop_position","railway":"tram_stop","tram":"yes"}},{"type":"node","id":577242225,"lat":52.7415047,"lon":15.2542875,"tags":{"name":"Pomorska","network":"Gorzów","operator":"MZK Gorzów","public_transport":"stop_position","railway":"tram_stop","tram":"yes"}},{"type":"node","id":577242289,"lat":52.7294814,"lon":15.2255042,"tags":{"name":"Jancarza","network":"Gorzów","operator":"MZK Gorzów","public_transport":"stop_position","railway":"tram_stop","tram":"yes"}},{"type":"node","id":577242299,"lat":52.7259218,"lon":15.211461,"tags":{"name":"Olimpijska - Muza","network":"Gorzów","public_transport":"stop_position","railway":"tram_stop","tram":"yes"}},{"type":"node","id":577242304,"lat":52.7274696,"lon":15.2191951,"tags":{"name":"Żelazna","network":"Gorzów","old_name":"Drukarnia","operator":"MZK Gorzów","public_transport":"stop_position","railway":"tram_stop","tram":"yes"}},{"type":"node","id":577242316,"lat":52.7294241,"lon":15.2250699,"tags":{"name":"Jancarza","network":"Gorzów","operator":"MZK Gorzów","public_transport":"stop_position","railway":"tram_stop","tram":"yes"}},{"type":"node","id":579643769,"lat":52.7428733,"lon":15.2299979,"tags":{"bus":"yes","name":"Sąd Okręgowy","network":"Gorzów","operator":"MZK Gorzów","public_transport":"stop_position","railway":"tram_stop","tram":"yes"}},{"type":"node","id":759937443,"lat":52.7184414,"lon":15.1809196,"tags":{"name":"Wieprzyce PKP","network":"Gorzów","operator":"MZK Gorzów","public_transport":"stop_position","railway":"tram_stop","tram":"yes"}},{"type":"node","id":759938136,"lat":52.7530455,"lon":15.2322429,"tags":{"name":"Piaski","network":"Gorzów","operator":"MZK Gorzów","public_transport":"stop_position","railway":"tram_stop","tram":"yes"}},{"type":"node","id":759938212,"lat":52.7501615,"lon":15.2318188,"tags":{"name":"Kilińskiego","network":"Gorzów","operator":"MZK Gorzów","public_transport":"stop_position","railway":"tram_stop","tram":"yes"}},{"type":"node","id":759938511,"lat":52.7470591,"lon":15.2542673,"tags":{"name":"Stilon","network":"Gorzów","operator":"MZK Gorzów","public_transport":"stop_position","railway":"tram_stop","tram":"yes"}},{"type":"node","id":759938608,"lat":52.7574202,"lon":15.2684258,"tags":{"name":"Rondo Gdańskie","network":"Gorzów","operator":"MZK Gorzów","public_transport":"stop_position","railway":"tram_stop","tram":"yes"}},{"type":"node","id":800528918,"lat":52.74454,"lon":15.2505078,"tags":{"name":"Park Kopernika","network":"Gorzów","old_name":"Park","operator":"MZK Gorzów","public_transport":"station","railway":"tram_stop","tram":"yes"}},{"type":"node","id":1007604015,"lat":52.7186084,"lon":15.1805645,"tags":{"name":"Wieprzyce PKP","network":"Gorzów","operator":"MZK Gorzów","public_transport":"stop_position","railway":"tram_stop","tram":"yes"}},{"type":"node","id":1493858114,"lat":52.7365492,"lon":15.2337996,"tags":{"name":"Borowskiego","network":"Gorzów","operator":"MZK Gorzów","public_transport":"stop_position","railway":"tram_stop","tram":"yes"}},{"type":"node","id":1493858122,"lat":52.7366148,"lon":15.2338051,"tags":{"name":"Borowskiego","network":"Gorzów","operator":"MZK Gorzów","public_transport":"stop_position","railway":"tram_stop","tram":"yes"}},{"type":"node","id":1493858218,"lat":52.7501706,"lon":15.2317614,"tags":{"name":"Kilińskiego","network":"Gorzów","operator":"MZK Gorzów","public_transport":"stop_position","railway":"tram_stop","tram":"yes"}},{"type":"node","id":1493858511,"lat":52.7221979,"lon":15.1896688,"tags":{"name":"Tartaczna","network":"Gorzów","old_name":"W.U.S.P.","operator":"MZK Gorzów","public_transport":"stop_position","railway":"tram_stop","tram":"yes"}},{"type":"node","id":1493858986,"lat":52.724845,"lon":15.2059228,"tags":{"name":"Os. Słoneczne","public_transport":"stop_position","railway":"tram_stop","tram":"yes"}},{"type":"node","id":1493858987,"lat":52.7246604,"lon":15.2051781,"tags":{"name":"Os. Słoneczne","network":"Gorzów","operator":"MZK Gorzów","public_transport":"stop_position","railway":"tram_stop","tram":"yes"}},{"type":"node","id":1493858995,"lat":52.7525161,"lon":15.2326302,"tags":{"name":"Piaski","network":"Gorzów","operator":"MZK Gorzów","public_transport":"stop_position","railway":"tram_stop","tram":"yes"}},{"type":"node","id":1493858999,"lat":52.7238693,"lon":15.2005187,"tags":{"name":"Plac Słoneczny","network":"Gorzów","operator":"MZK Gorzów","public_transport":"stop_position","railway":"tram_stop","tram":"yes"}},{"type":"node","id":1493859000,"lat":52.7235142,"lon":15.1987294,"tags":{"name":"Plac Słoneczny","network":"Gorzów","operator":"MZK Gorzów","public_transport":"stop_position","railway":"tram_stop","tram":"yes"}},{"type":"node","id":1493859002,"lat":52.7331036,"lon":15.2460787,"tags":{"name":"Plac Staromiejski","network":"Gorzów","operator":"MZK Gorzów","public_transport":"stop_position","railway":"tram_stop","tram":"yes"}},{"type":"node","id":1493859069,"lat":52.7392039,"lon":15.2321863,"tags":{"bus":"yes","highway":"bus_stop","name":"Plac Grunwaldzki","network":"Gorzów","note":"Mieszka I","operator":"MZK Gorzów","public_transport":"stop_position","railway":"tram_stop","tram":"yes"}},{"type":"node","id":1493859070,"lat":52.7398071,"lon":15.231778,"tags":{"bus":"yes","highway":"bus_stop","name":"Plac Grunwaldzki","network":"Gorzów","note":"Mieszka I","operator":"MZK Gorzów","public_transport":"stop_position","railway":"tram_stop","tram":"yes"}},{"type":"node","id":1493859105,"lat":52.7299686,"lon":15.2301266,"tags":{"bus":"yes","name":"Dworcowa - Zakład Energetyczny","network":"Gorzów","operator":"MZK Gorzów","public_transport":"stop_position","railway":"tram_stop","tram":"yes"}},{"type":"node","id":1516399604,"lat":52.7574441,"lon":15.2683817,"tags":{"name":"Rondo Gdańskie","network":"Gorzów","operator":"MZK Gorzów","public_transport":"stop_position","railway":"tram_stop","tram":"yes"}},{"type":"node","id":1600131473,"lat":52.7470762,"lon":15.2542345,"tags":{"name":"Stilon","network":"Gorzów","operator":"MZK Gorzów","public_transport":"stop_position","railway":"tram_stop","tram":"yes"}},{"type":"node","id":1607428134,"lat":52.7445663,"lon":15.2504827,"tags":{"name":"Park Kopernika","network":"Gorzów","old_name":"Park","operator":"MZK Gorzów","public_transport":"station","railway":"tram_stop","tram":"yes"}},{"type":"node","id":1607428135,"lat":52.7419793,"lon":15.2534312,"tags":{"name":"Pomorska","network":"Gorzów","operator":"MZK Gorzów","public_transport":"stop_position","railway":"tram_stop","tram":"yes"}},{"type":"node","id":1795421766,"lat":52.7256081,"lon":15.210026,"tags":{"name":"Olimpijska - Muza","network":"Gorzów","operator":"MZK Gorzów","public_transport":"stop_position","railway":"tram_stop","tram":"yes"}},{"type":"node","id":1845281590,"lat":52.7382105,"lon":15.2565694,"tags":{"name":"Rondo Solidarności","network":"Gorzów","operator":"MZK Gorzów","public_transport":"stop_position","railway":"tram_stop","tram":"yes"}},{"type":"node","id":1845281628,"lat":52.7340541,"lon":15.2547191,"tags":{"name":"Rondo Santockie","network":"Gorzów","operator":"MZK Gorzów","public_transport":"stop_position","railway":"tram_stop","tram":"yes"}},{"type":"node","id":1846860738,"lat":52.7337795,"lon":15.2499966,"tags":{"name":"CEZiB","network":"Gorzów","operator":"MZK Gorzów","public_transport":"stop_position","railway":"tram_stop","tram":"yes"}},{"type":"node","id":1849766509,"lat":52.7329505,"lon":15.236605,"tags":{"name":"Wybickiego - Słońce","network":"Gorzów","operator":"MZK Gorzów","public_transport":"stop_position","railway":"tram_stop","tactile_paving":"no","tram":"yes"}},{"type":"node","id":1860056255,"lat":52.7432518,"lon":15.2297194,"tags":{"bus":"yes","name":"Sąd Okręgowy","network":"Gorzów","operator":"MZK Gorzów","public_transport":"stop_position","railway":"tram_stop","tram":"yes"}},{"type":"node","id":1877425658,"lat":52.7184478,"lon":15.1808315,"tags":{"name":"Wieprzyce PKP","network":"Gorzów","operator":"MZK Gorzów","public_transport":"stop_position","railway":"tram_stop","tram":"yes"}},{"type":"node","id":1879335215,"lat":52.7274371,"lon":15.2192218,"tags":{"name":"Żelazna","network":"Gorzów","old_name":"Drukarnia","operator":"MZK Gorzów","public_transport":"stop_position","railway":"tram_stop","tram":"yes"}},{"type":"node","id":1903040729,"lat":52.7464893,"lon":15.2306409,"tags":{"bench":"yes","bin":"yes","name":"Chodkiewicza","network":"Gorzów","operator":"MZK Gorzów","public_transport":"stop_position","railway":"tram_stop","shelter":"yes","tram":"yes"}},{"type":"node","id":1903040730,"lat":52.7470367,"lon":15.2308711,"tags":{"name":"Chodkiewicza","network":"Gorzów","operator":"MZK Gorzów","public_transport":"stop_position","railway":"tram_stop","tram":"yes"}},{"type":"node","id":4528944729,"lat":52.7518229,"lon":15.2607742,"tags":{"name":"Walczaka Szpital","network":"Gorzów","operator":"MZK Gorzów","public_transport":"stop_position","railway":"tram_stop","tram":"yes"}},{"type":"node","id":4552366807,"lat":52.7306851,"lon":15.2372766,"tags":{"bus":"yes","name":"Katedra","network":"Gorzów","operator":"MZK Gorzów","public_transport":"stop_position","railway":"tram_stop","tram":"yes"}},{"type":"node","id":7160229397,"lat":52.7221719,"lon":15.1896782,"tags":{"name":"Tartaczna","network":"Gorzów","old_name":"W.U.S.P.","operator":"MZK Gorzów","public_transport":"stop_position","railway":"tram_stop","tram":"yes"}},{"type":"node","id":7677930924,"lat":52.7311105,"lon":15.2390484,"tags":{"name":"Katedra","network":"Gorzów","operator":"MZK Gorzów","public_transport":"stop_position","railway":"tram_stop","tram":"yes"}},{"type":"node","id":7705436127,"lat":52.7315796,"lon":15.240823,"tags":{"name":"Wełniany Rynek","network":"Gorzów","operator":"MZK Gorzów","public_transport":"stop_position","railway":"tram_stop","tram":"yes"}},{"type":"node","id":7728214256,"lat":52.7518508,"lon":15.2607375,"tags":{"name":"Walczaka Szpital","network":"Gorzów","operator":"MZK Gorzów","public_transport":"stop_position","railway":"tram_stop","tram":"yes"}},{"type":"node","id":7728214259,"lat":52.7543357,"lon":15.2641376,"tags":{"name":"Medyk","network":"Gorzów","operator":"MZK Gorzów","public_transport":"stop_position","railway":"tram_stop","tram":"yes"}},{"type":"node","id":7728214260,"lat":52.7543136,"lon":15.2641806,"tags":{"name":"Medyk","network":"Gorzów","operator":"MZK Gorzów","public_transport":"stop_position","railway":"tram_stop","tram":"yes"}},{"type":"node","id":7746577492,"lat":52.7299651,"lon":15.2306119,"tags":{"bus":"yes","name":"Dworcowa - Zakład Energetyczny","network":"Gorzów","operator":"MZK Gorzów","public_transport":"stop_position","railway":"tram_stop","tram":"yes"}},{"type":"node","id":8167163760,"lat":52.7323456,"lon":15.2436079,"tags":{"name":"Herberta - Plac Parad","network":"Gorzów","operator":"MZK Gorzów","public_transport":"stop_position","railway":"tram_stop","tram":"yes"}},{"type":"node","id":9397511799,"lat":52.7196271,"lon":15.18297,"tags":{"name":"Zajezdnia Kostrzyńska","network":"Gorzów","operator":"MZK Gorzów","public_transport":"stop_position","railway":"tram_stop","tram":"yes"}},{"type":"node","id":9936122774,"lat":52.7314245,"lon":15.2379355,"tags":{"name":"Katedra","network":"Gorzów","operator":"MZK Gorzów","public_transport":"stop_position","railway":"tram_stop","tram":"yes"}},{"type":"node","id":9936122775,"lat":52.7331183,"lon":15.2365285,"tags":{"name":"Wybickiego - Słońce","network":"Gorzów","operator":"MZK Gorzów","public_transport":"stop_position","railway":"tram_stop","tram":"yes"}},{"type":"node","id":9936122777,"lat":52.7348005,"lon":15.2351651,"tags":{"name":"Plac Nieznanego Żołnierza","network":"Gorzów","operator":"MZK Gorzów","public_transport":"stop_position","railway":"tram_stop","tram":"yes"}},{"type":"node","id":9936122778,"lat":52.7347414,"lon":15.2352598,"tags":{"name":"Plac Nieznanego Żołnierza","network":"Gorzów","operator":"MZK Gorzów","public_transport":"stop_position","railway":"tram_stop","tram":"yes"}},{"type":"node","id":10570691851,"lat":52.760293,"lon":15.2722699,"tags":{"name":"Szarych Szeregów","network":"Gorzów","operator":"MZK Gorzów","public_transport":"stop_position","railway":"tram_stop","tram":"yes"}},{"type":"node","id":11039191235,"lat":52.7338149,"lon":15.2512863,"tags":{"name":"CEZiB","network":"Gorzów","operator":"MZK Gorzów","public_transport":"stop_position","railway":"tram_stop","tram":"yes"}},{"type":"node","id":11064850768,"lat":52.7602705,"lon":15.2723147,"tags":{"name":"Szarych Szeregów","network":"Gorzów","operator":"MZK Gorzów","public_transport":"stop_position","railway":"tram_stop","tram":"yes"}},{"type":"node","id":11064850770,"lat":52.7624854,"lon":15.275335,"tags":{"name":"Fieldorfa\"Nila\" - Silwana","network":"Gorzów","operator":"MZK Gorzów","public_transport":"stop_position","railway":"tram_stop","tram":"yes"}},{"type":"node","id":11064850771,"lat":52.762509,"lon":15.2752891,"tags":{"name":"Fieldorfa\"Nila\" - Silwana","network":"Gorzów","operator":"MZK Gorzów","public_transport":"stop_position","railway":"tram_stop","tram":"yes"}},{"type":"node","id":11366791128,"lat":52.7284637,"lon":15.229078,"tags":{"name":"Dworzec Główny","network":"Gorzów","operator":"MZK Gorzów","public_transport":"stop_position","railway":"tram_stop","tram":"yes"}},{"type":"node","id":11544164398,"lat":52.7333527,"lon":15.2470272,"tags":{"name":"Plac Staromiejski","network":"Gorzów","operator":"MZK Gorzów","public_transport":"stop_position","railway":"tram_stop","tram":"yes"}},{"type":"node","id":13527264809,"lat":52.7530769,"lon":15.2322856,"tags":{"name":"Piaski","network":"Gorzów","operator":"MZK Gorzów","public_transport":"stop_position","railway":"tram_stop","tram":"yes"}}]}