{"elements":[{"type":"node","id":270230517,"lat":39.2067314,"lon":117.109401,"tags":{"name":"刘园","name:en":"Liuyuan","name:zh":"刘圆","public_transport":"stop_position","railway":"stop","subway":"yes","wheelchair":"yes","wikidata":"Q5973968"}},{"type":"node","id":270231002,"lat":39.1907832,"lon":117.1216509,"tags":{"name":"佳园里","name:en":"Jiayuanli","public_transport":"stop_position","railway":"stop","subway":"yes"}},{"type":"node","id":270231003,"lat":39.1989869,"lon":117.115341,"tags":{"name":"瑞景新苑","name:en":"Ruijingxinyuan","public_transport":"stop_position","railway":"stop","subway":"yes"}},{"type":"node","id":270231193,"lat":39.1842434,"lon":117.1329624,"tags":{"name":"本溪路","name:en":"Benxilu","public_transport":"stop_position","railway":"stop","subway":"yes"}},{"type":"node","id":270233993,"lat":39.1771136,"lon":117.1472552,"tags":{"name":"勤俭道","name:en":"Qinjiandao","public_transport":"stop_position","railway":"stop","subway":"yes"}},{"type":"node","id":270234032,"lat":39.1697055,"lon":117.1554694,"tags":{"name":"洪湖里","name:en":"Honghuli","public_transport":"stop_position","railway":"stop","subway":"yes"}},{"type":"node","id":270234789,"lat":39.1459459,"lon":117.1650123,"tags":{"internet_access":"yes","name":"西北角","name:en":"Xibeijiao","name:zh":"西北角","name:zh-Hans":"西北角","name:zh-Hant":"西北角","public_transport":"stop_position","railway":"stop","subway":"yes","wheelchair":"limited"}},{"type":"node","id":270234803,"lat":39.155167,"lon":117.1585542,"tags":{"name":"西站","name:en":"Xizhan","name:zh":"西站","name:zh-Hans":"西站","name:zh-Hant":"西站","public_transport":"stop_position","railway":"stop","station":"subway","subway":"yes"}},{"type":"node","id":274812049,"lat":39.1364785,"lon":117.1656065,"tags":{"name":"西南角","name:en":"Xi'nanjiao","name:zh":"西南角","name:zh-Hans":"西南角","name:zh-Hant":"西南角","public_transport":"stop_position","railway":"stop","subway":"yes","wheelchair":"yes"}},{"type":"node","id":274812053,"lat":39.1301118,"lon":117.1683293,"tags":{"name":"二纬路","name:en":"Erweilu","name:zh":"二纬路","name:zh-Hans":"二纬路","name:zh-Hant":"二緯路","public_transport":"stop_position","railway":"stop","subway":"yes","wheelchair":"yes"}},{"type":"node","id":274812260,"lat":39.1139144,"lon":117.2089903,"tags":{"name":"小白楼","name:en":"Xiaobailou","name:zh":"小白楼","name:zh-Hans":"小白楼","name:zh-Hant":"小白樓","public_transport":"stop_position","railway":"stop","subway":"yes","wheelchair":"yes"}},{"type":"node","id":274812320,"lat":39.1043729,"lon":117.2165404,"tags":{"name":"下瓦房","name:en":"Xiawafang","public_transport":"stop_position","railway":"stop","subway":"yes"}},{"type":"node","id":274812326,"lat":39.095392,"lon":117.2174845,"tags":{"name":"南楼","name:en":"Nanlou","public_transport":"stop_position","railway":"stop","subway":"yes"}},{"type":"node","id":274813095,"lat":39.0883368,"lon":117.2257199,"tags":{"name":"土城","name:en":"Tucheng","public_transport":"stop_position","railway":"stop","subway":"yes","wheelchair":"yes"}},{"type":"node","id":274815285,"lat":39.082497,"lon":117.2422237,"tags":{"name":"陈塘庄","name:en":"Chentangzhuang","public_transport":"stop_position","railway":"stop","subway":"yes"}},{"type":"node","id":274815293,"lat":39.0762194,"lon":117.2538742,"tags":{"name":"复兴门","name:en":"Fuxingmen","public_transport":"stop_position","railway":"stop","subway":"yes"}},{"type":"node","id":274816269,"lat":39.0651659,"lon":117.2556135,"tags":{"name":"华山里","name:en":"Huashanli","public_transport":"stop_position","railway":"stop","subway":"yes"}},{"type":"node","id":274816317,"lat":39.0629466,"lon":117.2706484,"tags":{"name":"财经大学","name:en":"Caijingdaxue","public_transport":"stop_position","railway":"stop","subway":"yes","wikidata":"Q5017532"}},{"type":"node","id":274816358,"lat":39.0562631,"lon":117.2857765,"tags":{"name":"双林","name:en":"Shuanglin","public_transport":"stop_position","subway":"yes"}},{"type":"node","id":274817938,"lat":39.1191632,"lon":117.182189,"tags":{"internet_access":"yes","name":"鞍山道","name:en":"Anshandao","name:zh":"鞍山道","name:zh-Hans":"鞍山道","name:zh-Hant":"鞍山道","public_transport":"stop_position","railway":"stop","subway":"yes","wheelchair":"yes"}},{"type":"node","id":323094325,"lat":39.0999471,"lon":117.2580182,"tags":{"name":"中山门","name:en":"Zhongshanmen","public_transport":"stop_position","railway":"stop","subway":"yes"}},{"type":"node","id":568447699,"lat":39.028689,"lon":117.6549387,"tags":{"name":"塘沽","name:en":"Tanggu","public_transport":"stop_position","railway":"stop","subway":"yes"}},{"type":"node","id":568448069,"lat":39.0246169,"lon":117.673224,"tags":{"name":"泰达","name:en":"Taida","public_transport":"stop_position","railway":"stop","subway":"yes"}},{"type":"node","id":583521116,"lat":39.0950995,"lon":117.2766287,"tags":{"name":"一号桥","name:en":"Yihaoqiao","public_transport":"stop_position","railway":"stop","subway":"yes","wikidata":"Q5976444"}},{"type":"node","id":583521122,"lat":39.0942015,"lon":117.2868182,"tags":{"name":"二号桥","name:en":"Erhaoqiao","public_transport":"stop_position","railway":"stop","subway":"yes","wikidata":"Q5385860"}},{"type":"node","id":583521140,"lat":39.084868,"lon":117.3296366,"tags":{"name":"新立","name:en":"Xinli","public_transport":"stop_position","railway":"stop","subway":"yes"}},{"type":"node","id":583521141,"lat":39.0847542,"lon":117.3296047,"tags":{"name":"新立","name:en":"Xinli","public_transport":"stop_position","railway":"stop","subway":"yes"}},{"type":"node","id":583521224,"lat":39.0172874,"lon":117.6968476,"tags":{"name":"市民广场","name:en":"Shiminguangchang","public_transport":"stop_position","railway":"stop","subway":"yes","wikidata":"Q5122582"}},{"type":"node","id":583521233,"lat":39.0469996,"lon":117.4496424,"tags":{"name":"军粮城","name:en":"Junliangcheng","public_transport":"stop_position","railway":"stop","subway":"yes","wikidata":"Q6314008"}},{"type":"node","id":583521249,"lat":39.0388577,"lon":117.497551,"tags":{"name":"钢管公司","name:en":"Gangguangongsi","public_transport":"stop_position","railway":"stop","subway":"yes"}},{"type":"node","id":583521302,"lat":39.0397988,"lon":117.6012827,"tags":{"name":"胡家园","name:en":"Hujiayuan","public_transport":"stop_position","railway":"stop","subway":"yes","wikidata":"Q5935798"}},{"type":"node","id":583521310,"lat":39.0290513,"lon":117.7254473,"tags":{"name":"会展中心","name:en":"Convention and Exhibition Center","public_transport":"stop_position","railway":"stop","subway":"yes","wikidata":"Q5166245"}},{"type":"node","id":583521323,"lat":39.0397137,"lon":117.7310342,"tags":{"name":"东海路","name:en":"Donghailu","public_transport":"stop_position","railway":"stop","subway":"yes","wikidata":"Q5295916"}},{"type":"node","id":603612963,"lat":39.1174432,"lon":117.1910799,"tags":{"name":"营口道","name:en":"Yingkoudao","name:zh":"营口道","name:zh-Hans":"营口道","name:zh-Hant":"營口道","public_transport":"stop_position","railway":"stop","subway":"yes"}},{"type":"node","id":1669852148,"lat":39.1027056,"lon":117.2359941,"tags":{"name":"东兴路","name:en":"Dongxinglu","public_transport":"stop_position","railway":"stop","subway":"yes","wikidata":"Q5937993"}},{"type":"node","id":2267634056,"lat":39.2049064,"lon":117.2087543,"tags":{"name":"天士力","name:en":"Tianshili","public_transport":"stop_position","railway":"stop","subway":"yes","wikidata":"Q43645"}},{"type":"node","id":2267637183,"lat":39.1964024,"lon":117.2122341,"tags":{"name":"宜兴埠","name:en":"Yixingfu","public_transport":"stop_position","railway":"stop","subway":"yes","wikidata":"Q43636"}},{"type":"node","id":2267639277,"lat":39.1909472,"lon":117.2084648,"tags":{"name":"张兴庄","name:en":"Zhangxingzhuang","public_transport":"stop_position","railway":"stop","subway":"yes"}},{"type":"node","id":2267666693,"lat":39.161347,"lon":117.1989711,"tags":{"name":"中山路","name:en":"Zhongshanlu","public_transport":"stop_position","railway":"stop","subway":"yes","wikidata":"Q43634"}},{"type":"node","id":2267666697,"lat":39.1499923,"lon":117.2015867,"tags":{"name":"金狮桥","name:en":"Jinshiqiao","public_transport":"stop_position","railway":"stop","subway":"yes"}},{"type":"node","id":2267666708,"lat":39.165653,"lon":117.2015067,"tags":{"name":"北站","name:en":"Beizhan","public_transport":"stop_position","railway":"stop","subway":"yes"}},{"type":"node","id":2267671162,"lat":39.1303266,"lon":117.2012362,"tags":{"name":"津湾广场","name:en":"Jinwan­'guangchang","name:zh":"津湾广场","name:zh-Hans":"津湾广场","name:zh-Hant":"津灣廣場","public_transport":"stop_position","railway":"stop","subway":"yes","wikidata":"Q43640","wikipedia":"en:Jinwan'guangchang station"}},{"type":"node","id":2267671981,"lat":39.1258872,"lon":117.1981879,"tags":{"name":"和平路","name:en":"Hepinglu","name:zh":"和平路","name:zh-Hans":"和平路","name:zh-Hant":"和平路","public_transport":"stop_position","railway":"stop","subway":"yes","wikidata":"Q43649","wikipedia":"en:Hepinglu station (Tianjin Metro)"}},{"type":"node","id":2267672256,"lat":39.1111864,"lon":117.1816557,"tags":{"name":"西康路","name:en":"Xikanglu","public_transport":"stop_position","railway":"stop","subway":"yes","wikidata":"Q43641"}},{"type":"node","id":2267680549,"lat":39.099004,"lon":117.1797986,"tags":{"name":"吴家窑","name:en":"Wujiayao","public_transport":"stop_position","railway":"stop","subway":"yes","wikidata":"Q43728"}},{"type":"node","id":2267680554,"lat":39.0947403,"lon":117.1702767,"tags":{"description:en":"Tianjin Radio & Television Tower","name":"天塔","name:en":"Tianta","public_transport":"stop_position","railway":"stop","subway":"yes"}},{"type":"node","id":2267684969,"lat":39.0916279,"lon":117.1418059,"tags":{"name":"红旗南路","name:en":"Hongqinanlu","public_transport":"stop_position","railway":"stop","subway":"yes"}},{"type":"node","id":2267685815,"lat":39.0906864,"lon":117.1319423,"tags":{"name":"王顶堤","name:en":"Wangdingdi","public_transport":"stop_position","railway":"stop","station":"subway","subway":"yes","wikidata":"Q43724"}},{"type":"node","id":2267686670,"lat":39.0860011,"lon":117.1222885,"tags":{"name":"华苑","name:en":"Huayuan","public_transport":"stop_position","railway":"stop","subway":"yes","wikidata":"Q43646"}},{"type":"node","id":2267734103,"lat":39.1450052,"lon":117.1030855,"tags":{"name":"卞兴","name:en":"Bianxing","public_transport":"stop_position","subway":"yes"}},{"type":"node","id":2267734108,"lat":39.1442111,"lon":117.0844736,"tags":{"name":"曹庄","name:en":"Caozhuang","public_transport":"stop_position","railway":"stop","subway":"yes"}},{"type":"node","id":2267749048,"lat":39.1411768,"lon":117.1134927,"tags":{"name":"芥园西道","name:en":"Jieyuanxidao","public_transport":"stop_position","subway":"yes"}},{"type":"node","id":2267751779,"lat":39.1366249,"lon":117.1289347,"tags":{"name":"咸阳路","name:en":"Xianyanglu","public_transport":"stop_position","railway":"stop","subway":"yes"}},{"type":"node","id":2267751783,"lat":39.1366154,"lon":117.1433357,"tags":{"name":"长虹公园","name:en":"Changhong­gongyuan","public_transport":"stop_position","railway":"stop","station":"subway","subway":"yes"}},{"type":"node","id":2267752284,"lat":39.1362955,"lon":117.1670348,"tags":{"name":"西南角","name:en":"Xi'nanjiao","name:zh":"西南角","name:zh-Hans":"西南角","name:zh-Hant":"西南角","public_transport":"stop_position","railway":"stop","station":"subway","subway":"yes"}},{"type":"node","id":2267752946,"lat":39.1358304,"lon":117.1843595,"tags":{"name":"东南角","name:en":"Dongnanjiao","public_transport":"stop_position","railway":"stop","subway":"yes"}},{"type":"node","id":2722021928,"lat":39.0563135,"lon":117.2858233,"tags":{"name":"双林","name:en":"Shuanglin","public_transport":"stop_position","subway":"yes"}},{"type":"node","id":3279351937,"lat":39.1565034,"lon":117.3284164,"tags":{"name":"空港经济区","name:en":"Konggangjingjiqu","public_transport":"stop_position","railway":"stop","subway":"yes"}},{"type":"node","id":3279351938,"lat":39.1430056,"lon":117.2507264,"tags":{"name":"翠阜新村","name:en":"Cuifuxincun","public_transport":"stop_position","subway":"yes"}},{"type":"node","id":3279351939,"lat":39.1500061,"lon":117.2904017,"tags":{"name":"登州路","name:en":"Dengzhoulu","public_transport":"stop_position","subway":"yes"}},{"type":"node","id":3279351940,"lat":39.1379704,"lon":117.1949395,"tags":{"name":"建国道意风区","name:en":"Jianguodaoyifengqu","public_transport":"stop_position","subway":"yes"}},{"type":"node","id":3279351941,"lat":39.1416699,"lon":117.2379934,"tags":{"name":"靖江路","name:en":"Jingjianglu","public_transport":"stop_position","railway":"stop","subway":"yes"}},{"type":"node","id":3279351943,"lat":39.1404751,"lon":117.2276297,"tags":{"name":"顺驰桥","name:en":"Shunchiqiao","public_transport":"stop_position","railway":"stop","subway":"yes"}},{"type":"node","id":3279351944,"lat":39.1463751,"lon":117.2733394,"tags":{"name":"屿东城","name:en":"Yudongcheng","public_transport":"stop_position","railway":"stop","subway":"yes","wikidata":"Q8060240"}},{"type":"node","id":3279351946,"lat":39.0559005,"lon":117.0557516,"tags":{"name":"南站","name:en":"Nanzhan","public_transport":"stop_position","railway":"stop","subway":"yes"}},{"type":"node","id":3279356973,"lat":39.1261724,"lon":117.2119258,"tags":{"name":"大王庄","name:en":"Dawangzhuang","public_transport":"stop_position","railway":"stop","subway":"yes","wikidata":"Q5242278"}},{"type":"node","id":3279356988,"lat":39.1371769,"lon":117.2036265,"tags":{"name":"天津站","name:en":"Tianjin Station","name:zh":"天津站","name:zh-Hans":"天津站","name:zh-Hant":"天津站","public_transport":"stop_position","railway":"stop","subway":"yes"}},{"type":"node","id":3279356994,"lat":39.1357323,"lon":117.2157517,"tags":{"description:en":"Yuanyang International Center","name":"远洋国际中心","name:en":"Yuanyang­guoji­zhongxin","public_transport":"stop_position","railway":"stop","station":"subway","subway":"yes"}},{"type":"node","id":3279357054,"lat":39.1532758,"lon":117.3033796,"tags":{"name":"国山路","name:en":"Guoshanlu","public_transport":"stop_position","subway":"yes"}},{"type":"node","id":3521665138,"lat":39.2370767,"lon":117.2297725,"tags":{"name":"丰产河","name:en":"Fengchanhe","public_transport":"stop_position","railway":"stop","subway":"yes","wikidata":"Q43651"}},{"type":"node","id":3824054397,"lat":39.1790676,"lon":117.2010708,"tags":{"name":"铁东路","name:en":"Tiedonglu","public_transport":"stop_position","railway":"stop","subway":"yes","wikidata":"Q43635"}},{"type":"node","id":3824054400,"lat":39.2264857,"lon":117.2213398,"tags":{"name":"华北集团","name:en":"Huabeijituan","public_transport":"stop_position","railway":"stop","subway":"yes","wikidata":"Q43650"}},{"type":"node","id":3824054404,"lat":39.2381095,"lon":117.2513011,"tags":{"name":"小淀","name:en":"Xiaodian","public_transport":"stop_position","railway":"stop","subway":"yes","wikidata":"Q46488"}},{"type":"node","id":3824093643,"lat":39.0671626,"lon":117.0632104,"tags":{"name":"杨伍庄","name:en":"Yangwuzhuang","public_transport":"stop_position","railway":"stop","subway":"yes","wikidata":"Q15923284"}},{"type":"node","id":3824093649,"lat":39.0712861,"lon":117.1056887,"tags":{"name":"大学城","name:en":"Daxuecheng","public_transport":"stop_position","railway":"stop","subway":"yes","wikidata":"Q10934797"}},{"type":"node","id":3824094365,"lat":39.0707817,"lon":117.0922482,"tags":{"name":"高新区","name:en":"Gaoxinqu","public_transport":"stop_position","railway":"stop","subway":"yes","wikidata":"Q43644"}},{"type":"node","id":3824094438,"lat":39.0707626,"lon":117.0721929,"tags":{"description:en":"Xuefu Industrial Zone","name":"学府工业区","name:en":"Xuefugongyequ","public_transport":"stop_position","railway":"stop","subway":"yes","wikidata":"Q15922476"}},{"type":"node","id":4018019032,"lat":39.1204583,"lon":117.2175379,"tags":{"name":"十一经路","name:en":"Shiyijinglu","public_transport":"stop_position","railway":"stop","subway":"yes","wikidata":"Q5936934"}},{"type":"node","id":4340307087,"lat":39.1365418,"lon":117.1549972,"tags":{"name":"广开四马路","name:en":"Guangkai­simalu","public_transport":"stop_position","subway":"yes"}},{"type":"node","id":4340307121,"lat":39.1308841,"lon":117.3558423,"tags":{"name":"滨海国际机场","name:en":"Binhai International Airport","public_transport":"stop_position","subway":"yes"}},{"type":"node","id":4341602570,"lat":39.0856418,"lon":117.1431305,"tags":{"name":"迎风道","name:en":"Yingfengdao","public_transport":"stop_position","railway":"stop","subway":"yes"}},{"type":"node","id":4341602583,"lat":39.1022163,"lon":117.1430863,"tags":{"name":"一中心医院","name:en":"Yizhongxinyiyuan","public_transport":"stop_position","railway":"stop","subway":"yes"}},{"type":"node","id":4341602584,"lat":39.1079068,"lon":117.1431024,"tags":{"name":"天拖","name:en":"Tiantuo","public_transport":"stop_position","railway":"stop","subway":"yes"}},{"type":"node","id":4341602585,"lat":39.1154623,"lon":117.1430692,"tags":{"name":"鞍山西道","name:en":"Anshanxidao","public_transport":"stop_position","railway":"stop","subway":"yes"}},{"type":"node","id":4341602587,"lat":39.1253013,"lon":117.1430399,"tags":{"name":"宜宾道","name:en":"Yibindao","public_transport":"stop_position","railway":"stop","subway":"yes"}},{"type":"node","id":4341602610,"lat":39.1372814,"lon":117.2045404,"tags":{"name":"天津站","name:en":"Tianjin Station","name:zh":"天津站","name:zh-Hans":"天津站","name:zh-Hant":"天津站","public_transport":"stop_position","railway":"stop","subway":"yes"}},{"type":"node","id":4356367634,"lat":39.110278,"lon":117.2273717,"tags":{"name":"直沽","name:en":"Zhigu","public_transport":"stop_position","railway":"stop","subway":"yes"}},{"type":"node","id":4356368293,"lat":39.0910897,"lon":117.3015381,"tags":{"name":"张贵庄","name:en":"Zhangguizhuang","public_transport":"stop_position","railway":"stop","subway":"yes","wikidata":"Q11067669"}},{"type":"node","id":4356368389,"lat":39.0632563,"lon":117.3968555,"tags":{"name":"小东庄","name:en":"Xiaodongzhuang","public_transport":"stop_position","railway":"stop","subway":"yes","wikidata":"Q6119262"}},{"type":"node","id":4356399635,"lat":39.0189544,"lon":117.7171884,"tags":{"name":"太湖路","name:en":"Taihulu","public_transport":"stop_position","railway":"stop","subway":"yes","wikidata":"Q28070896"}},{"type":"node","id":4585528779,"lat":39.145495,"lon":117.14331,"tags":{"name":"人民医院","name:en":"Renminyiyuan","public_transport":"stop_position","railway":"stop","subway":"yes"}},{"type":"node","id":4585528787,"lat":39.1545501,"lon":117.1517164,"tags":{"name":"复兴路","name:en":"Fuxinglu","name:zh":"复兴路","name:zh-Hans":"复兴路","name:zh-Hant":"復興路","public_transport":"stop_position","railway":"stop","subway":"yes"}},{"type":"node","id":4585529803,"lat":39.1672888,"lon":117.1774078,"tags":{"name":"天泰路","name:en":"Tiantailu","public_transport":"stop_position","railway":"stop","subway":"yes"}},{"type":"node","id":4585529807,"lat":39.1702832,"lon":117.1856492,"tags":{"name":"外院附中","name:en":"Waiyuanfuzhong","public_transport":"stop_position","railway":"stop","subway":"yes"}},{"type":"node","id":4585529810,"lat":39.1677847,"lon":117.1967075,"tags":{"name":"新开河","name:en":"Xinkaihe","public_transport":"stop_position","railway":"stop","subway":"yes"}},{"type":"node","id":4585529831,"lat":39.1676294,"lon":117.2274839,"tags":{"name":"民权门","name:en":"Minquanmen","public_transport":"stop_position","railway":"stop","subway":"yes"}},{"type":"node","id":4585529849,"lat":39.1907159,"lon":117.248118,"tags":{"name":"徐庄子","name:en":"Xuzhuangzi","public_transport":"stop_position","railway":"stop","subway":"yes"}},{"type":"node","id":4585529858,"lat":39.1988336,"lon":117.2592768,"tags":{"name":"金钟街","name:en":"Jinzhongjie","public_transport":"stop_position","railway":"stop","subway":"yes"}},{"type":"node","id":4585529861,"lat":39.2020503,"lon":117.272902,"tags":{"name":"大毕庄","name:en":"Dabizhuang","public_transport":"stop_position","railway":"stop","subway":"yes"}},{"type":"node","id":4585529864,"lat":39.2051927,"lon":117.2847512,"tags":{"name":"南何庄","name:en":"Nanhezhuang","public_transport":"stop_position","railway":"stop","subway":"yes"}},{"type":"node","id":4585529879,"lat":39.2053717,"lon":117.3119917,"tags":{"name":"南孙庄","name:en":"Nansunzhuang","public_transport":"stop_position","railway":"stop","subway":"yes"}},{"type":"node","id":4697758437,"lat":39.0669031,"lon":117.1655991,"tags":{"name":"凌宾路","name:en":"Lingbinlu","public_transport":"stop_position","railway":"stop","subway":"yes"}},{"type":"node","id":4697758638,"lat":39.1786953,"lon":117.2283304,"tags":{"name":"建昌道","name:en":"Jianchangdao","public_transport":"stop_position","railway":"stop","subway":"yes"}},{"type":"node","id":4698844569,"lat":39.0102093,"lon":117.2831373,"tags":{"name":"景荔道","name:en":"Jinglidao Station","public_transport":"stop_position","railway":"stop","subway":"yes"}},{"type":"node","id":4698844571,"lat":39.0784225,"lon":117.166517,"tags":{"name":"水上公园东路","name:en":"Shuishanggongyuandonglu","public_transport":"stop_position","railway":"stop","subway":"yes"}},{"type":"node","id":4698844804,"lat":39.0870552,"lon":117.2178141,"tags":{"name":"尖山路","name:en":"Jianshanlu","public_transport":"stop_position","railway":"stop","subway":"yes"}},{"type":"node","id":4698844807,"lat":39.0945938,"lon":117.2098068,"tags":{"name":"西南楼","name:en":"Xinanlou","public_transport":"stop_position","railway":"stop","station":"subway","subway":"yes"}},{"type":"node","id":4698844820,"lat":38.9804229,"lon":117.3513893,"tags":{"name":"和慧南路站","name:en":"Heihuinanlu","public_transport":"stop_position","railway":"stop","subway":"yes"}},{"type":"node","id":4698844823,"lat":39.1043486,"lon":117.2166872,"tags":{"name":"下瓦房","name:en":"Xiawafang","public_transport":"stop_position","railway":"stop","station":"subway","subway":"yes"}},{"type":"node","id":4699184801,"lat":39.164489,"lon":117.2398421,"tags":{"name":"月牙河","name:en":"Yueyahe","public_transport":"stop_position","railway":"stop","subway":"yes"}},{"type":"node","id":4699184807,"lat":39.2514383,"lon":117.1571458,"tags":{"name":"丹河北道","name:en":"Danhebeidao","public_transport":"stop_position","railway":"stop","subway":"yes"}},{"type":"node","id":4699184864,"lat":39.2023084,"lon":117.1990514,"tags":{"name":"宜兴埠北","name:en":"Yixingbubei","public_transport":"stop_position","railway":"stop","subway":"yes"}},{"type":"node","id":4699184870,"lat":39.1168645,"lon":117.2364215,"tags":{"name":"津塘路","name:en":"Jintanglu","public_transport":"stop_position","railway":"stop","subway":"yes"}},{"type":"node","id":4699184873,"lat":39.0727972,"lon":117.1660153,"tags":{"name":"体育中心","name:en":"Tiyuzhongxin","public_transport":"stop_position","railway":"stop","subway":"yes"}},{"type":"node","id":4699184874,"lat":39.2394963,"lon":117.1673009,"tags":{"name":"北辰道","name:en":"Beichendao","public_transport":"stop_position","railway":"stop","subway":"yes"}},{"type":"node","id":4704180399,"lat":39.0110667,"lon":117.4020222,"tags":{"name":"东沽路","name:en":"Donggulu","public_transport":"stop_position","railway":"stop","subway":"yes","wikidata":"Q81973288"}},{"type":"node","id":4704180416,"lat":39.0533173,"lon":117.3109139,"tags":{"name":"李楼","name:en":"Lilou","public_transport":"stop_position","subway":"yes"}},{"type":"node","id":4705977471,"lat":39.0439566,"lon":117.24862,"tags":{"name":"梅林路","name:en":"Meilin Road","public_transport":"stop_position","railway":"stop","subway":"yes"}},{"type":"node","id":4705977475,"lat":39.0903558,"lon":117.2108983,"tags":{"name":"乐园道","name:en":"Leyuandao","public_transport":"stop_position","railway":"stop","subway":"yes"}},{"type":"node","id":4705977632,"lat":39.0444472,"lon":117.2625103,"tags":{"name":"渌水道","name:en":"Lushui Avenue","public_transport":"stop_position","railway":"stop","subway":"yes"}},{"type":"node","id":4705977635,"lat":38.9875601,"lon":117.3171954,"tags":{"name":"海河教育园区站","name:en":"Haihe Educational Park","public_transport":"stop_position","railway":"stop","subway":"yes"}},{"type":"node","id":5214516043,"lat":39.1904196,"lon":117.2090747,"tags":{"name":"张兴庄","name:en":"Zhangxingzhuang","public_transport":"stop_position","railway":"stop","subway":"yes"}},{"type":"node","id":5214516044,"lat":39.1099631,"lon":117.2276054,"tags":{"name":"直沽","name:en":"Zhigu","public_transport":"stop_position","railway":"stop","subway":"yes"}},{"type":"node","id":5259620926,"lat":39.0915697,"lon":117.1571302,"tags":{"description:en":"Zhou Enlai & Deng Yingchao Memorial Hall","name":"周邓纪念馆","name:en":"Zhoudengji'nianguan","public_transport":"stop_position","railway":"stop","subway":"yes","wikidata":"Q43725"}},{"type":"node","id":5318343742,"lat":39.1212423,"lon":117.1711556,"tags":{"name":"海光寺","name:en":"Haiguangsi","name:zh":"海光寺","name:zh-Hans":"海光寺","name:zh-Hant":"海光寺","public_transport":"stop_position","railway":"stop","station":"subway","subway":"yes","wikidata":"Q5639117","wikipedia":"en:Haiguangsi station"}},{"type":"node","id":5347866410,"lat":39.1554208,"lon":117.1602978,"tags":{"name":"西站","name:en":"Xizhan","name:zh":"西站","name:zh-Hans":"西站","name:zh-Hant":"西站","public_transport":"stop_position","railway":"stop","subway":"yes"}},{"type":"node","id":5347866411,"lat":39.1362358,"lon":117.1430792,"tags":{"name":"长虹公园","name:en":"Changhong­gongyuan","public_transport":"stop_position","railway":"stop","station":"subway","subway":"yes"}},{"type":"node","id":5798383442,"lat":39.1655541,"lon":117.2015353,"tags":{"name":"北站","name:en":"Beizhan","public_transport":"stop_position","railway":"stop","station":"subway","subway":"yes"}},{"type":"node","id":5798383443,"lat":39.1420598,"lon":117.2380095,"tags":{"name":"靖江路","name:en":"Jingjianglu","public_transport":"stop_position","railway":"stop","subway":"yes"}},{"type":"node","id":5798383444,"lat":39.1372698,"lon":117.2036877,"tags":{"name":"天津站","name:en":"Tianjin Station","name:zh":"天津站","name:zh-Hans":"天津站","name:zh-Hant":"天津站","public_transport":"stop_position","railway":"stop","subway":"yes"}},{"type":"node","id":5798383445,"lat":39.1175059,"lon":117.1914597,"tags":{"air_conditioning":"yes","internet_access":"yes","name":"营口道","name:en":"Yingkoudao","name:zh":"营口道","name:zh-Hans":"营口道","name:zh-Hant":"營口道","public_transport":"stop_position","railway":"stop","subway":"yes","wheelchair":"no"}},{"type":"node","id":5798383447,"lat":39.0920012,"lon":117.1431035,"tags":{"name":"红旗南路","name:en":"Hongqinanlu","public_transport":"stop_position","railway":"stop","subway":"yes"}},{"type":"node","id":5798527352,"lat":39.0781894,"lon":117.1779651,"tags":{"name":"肿瘤医院","name:en":"Zhongliuiyuan","public_transport":"stop_position","railway":"stop","subway":"yes"}},{"type":"node","id":5798527753,"lat":39.0843602,"lon":117.1925177,"tags":{"name":"天津宾馆","name:en":"Tianjinbinguan","public_transport":"stop_position","railway":"stop","subway":"yes"}},{"type":"node","id":5798527754,"lat":39.084476,"lon":117.1924187,"tags":{"name":"天津宾馆","name:en":"Tianjinbinguan","public_transport":"stop_position","railway":"stop","subway":"yes"}},{"type":"node","id":5798527756,"lat":39.0889292,"lon":117.2006038,"tags":{"name":"文化中心","name:en":"Wenhuazhongxin","public_transport":"stop_position","railway":"stop","subway":"yes"}},{"type":"node","id":5798527757,"lat":39.0684302,"lon":117.2192514,"tags":{"name":"梅江道","name:en":"Meijiangdao","public_transport":"stop_position","railway":"stop","subway":"yes"}},{"type":"node","id":5798527760,"lat":39.0588317,"lon":117.2113402,"tags":{"name":"左江道","name:en":"Zuojiangdao","public_transport":"stop_position","railway":"stop","subway":"yes"}},{"type":"node","id":5798527764,"lat":39.0426903,"lon":117.239525,"tags":{"name":"洞庭路","name:en":"Dongtinglu","public_transport":"stop_position","railway":"stop","subway":"yes"}},{"type":"node","id":5798527768,"lat":39.0397847,"lon":117.2275791,"tags":{"name":"解放南路","name:en":"Jiefangnanlu","public_transport":"stop_position","railway":"stop","subway":"yes"}},{"type":"node","id":5798527769,"lat":39.0514185,"lon":117.2113423,"tags":{"name":"梅江公园","name:en":"Meijianggongyuan","public_transport":"stop_position","railway":"stop","subway":"yes","wikidata":"Q53673336"}},{"type":"node","id":5798527770,"lat":39.0796191,"lon":117.2177113,"tags":{"name":"医大二院","name:en":"Yidaeryuan","public_transport":"stop_position","railway":"stop","subway":"yes"}},{"type":"node","id":6008255896,"lat":39.2670582,"lon":117.1431124,"tags":{"name":"北辰科技园北","name:en":"Beichenkejiyuanbei","public_transport":"stop_position","railway":"stop","subway":"yes"}},{"type":"node","id":6008255897,"lat":39.2301237,"lon":117.1753791,"tags":{"name":"职业大学","name:en":"Zhiyedaxue","public_transport":"stop_position","railway":"stop","subway":"yes"}},{"type":"node","id":6008255898,"lat":39.2174604,"lon":117.1861833,"tags":{"name":"淮河道","name:en":"Huaihedao","public_transport":"stop_position","railway":"stop","subway":"yes"}},{"type":"node","id":6008255899,"lat":39.2092479,"lon":117.19316,"tags":{"name":"辽河北道","name:en":"Liaohebeidao","public_transport":"stop_position","railway":"stop","subway":"yes"}},{"type":"node","id":6008255900,"lat":39.1865855,"lon":117.212327,"tags":{"name":"志成路","name:en":"Zhichenglu","public_transport":"stop_position","railway":"stop","subway":"yes"}},{"type":"node","id":6008255905,"lat":39.1820171,"lon":117.2208879,"tags":{"name":"思源路","name:en":"Siyuanlu","public_transport":"stop_position","railway":"stop","subway":"yes"}},{"type":"node","id":6008255908,"lat":39.1710625,"lon":117.235515,"tags":{"name":"金钟河大街","name:en":"Jinzhonghedajie","public_transport":"stop_position","railway":"stop","subway":"yes"}},{"type":"node","id":6008255912,"lat":39.1530992,"lon":117.2379771,"tags":{"name":"幸福公园","name:en":"Xinfugongyuan","public_transport":"stop_position","railway":"stop","subway":"yes"}},{"type":"node","id":6008255916,"lat":39.1292343,"lon":117.2392495,"tags":{"name":"成林道","name:en":"Chenglindao","public_transport":"stop_position","railway":"stop","subway":"yes"}},{"type":"node","id":6008255950,"lat":39.0781292,"lon":117.1779905,"tags":{"name":"肿瘤医院","name:en":"Zhongliuyiyuan","public_transport":"stop_position","railway":"stop","subway":"yes"}},{"type":"node","id":6008255956,"lat":39.0556929,"lon":117.178309,"tags":{"name":"昌凌路","name:en":"Changlinglu","public_transport":"stop_position","railway":"stop","subway":"yes"}},{"type":"node","id":6008255960,"lat":39.0448617,"lon":117.1782908,"tags":{"name":"中医一附院","name:en":"Zhongyiyifuyuan","public_transport":"stop_position","railway":"stop","subway":"yes"}},{"type":"node","id":6272078746,"lat":39.0418701,"lon":117.3547242,"tags":{"name":"高庄子","name:en":"Gaozhuangzi","public_transport":"stop_position","railway":"stop","subway":"yes"}},{"type":"node","id":6467018385,"lat":39.170682,"lon":117.2363551,"tags":{"name":"金钟河大街","name:en":"Jinzhonghedajie","public_transport":"stop_position","railway":"stop","subway":"yes"}},{"type":"node","id":6898666815,"lat":39.1309122,"lon":117.2800527,"tags":{"name":"香山道","name:en":"Xiangshandao","public_transport":"stop_position","railway":"stop","subway":"yes"}},{"type":"node","id":6898666854,"lat":39.1177765,"lon":117.2617181,"tags":{"name":"万东路","name:en":"Wandonglu","public_transport":"stop_position","railway":"stop","subway":"yes","wikidata":"Q60675281"}},{"type":"node","id":6898666912,"lat":39.1154714,"lon":117.2988126,"tags":{"name":"登州南路","name:en":"Dengzhounanlu","public_transport":"stop_position","railway":"stop","subway":"yes","wikidata":"Q108917515"}},{"type":"node","id":6939625962,"lat":39.0083825,"lon":117.4141658,"tags":{"name":"咸水沽北","name:en":"Xianshuigubei","public_transport":"stop_position","railway":"stop","subway":"yes"}},{"type":"node","id":6939825220,"lat":38.9818931,"lon":117.3347936,"tags":{"name":"南开大学津南校区","name:en":"Nankaidaxuejinnanxiaoqu","public_transport":"stop_position","railway":"stop","subway":"yes"}},{"type":"node","id":7104108073,"lat":39.0208118,"lon":117.3841842,"tags":{"name":"国瑞路","name:en":"Guoruilu","operator":"天津轨道交通集团有限公司","public_transport":"stop_position","railway":"stop","subway":"yes","wikidata":"Q81973369"}},{"type":"node","id":7104108074,"lat":39.0278313,"lon":117.3775098,"tags":{"name":"国家会展中心","name:en":"Guojiahuizhanzhongxin","operator":"天津轨道交通集团有限公司","public_transport":"stop_position","subway":"yes"}},{"type":"node","id":7984748023,"lat":39.0621016,"lon":117.2364453,"tags":{"name":"春海路","name:en":"Chunhailu","public_transport":"stop_position","railway":"stop","subway":"yes"}},{"type":"node","id":7984748033,"lat":39.0619839,"lon":117.2538358,"tags":{"name":"微山路","name:en":"Weishanlu","public_transport":"stop_position","railway":"stop","subway":"yes"}},{"type":"node","id":7999652999,"lat":39.0465772,"lon":117.3384033,"tags":{"name":"洪泥河东","name:en":"Hongnihedong","public_transport":"stop_position","railway":"stop","subway":"yes"}},{"type":"node","id":7999669481,"lat":39.0353779,"lon":117.1642664,"tags":{"name":"李七庄南","name:en":"Liqizhuangnan","note":"暂缓开通","public_transport":"stop_position","railway":"stop","subway":"yes"}},{"type":"node","id":7999982275,"lat":39.1549913,"lon":117.1570442,"tags":{"name":"西站","name:en":"Xizhan","name:zh":"西站","name:zh-Hans":"西站","name:zh-Hant":"西站","public_transport":"stop_position","railway":"stop","subway":"yes"}},{"type":"node","id":8000410996,"lat":39.1291119,"lon":117.2403362,"tags":{"name":"成林道","name:en":"Chenglindao","public_transport":"stop_position","railway":"stop","subway":"yes"}},{"type":"node","id":8000498331,"lat":39.0934402,"lon":117.2809564,"tags":{"name":"龙涵道","name:en":"Longhandao","public_transport":"stop_position","railway":"stop","subway":"yes"}},{"type":"node","id":8001862443,"lat":39.029956,"lon":117.2709282,"tags":{"name":"双港","name:en":"Shuangjiang","public_transport":"stop_position","railway":"stop","subway":"yes"}},{"type":"node","id":8001862445,"lat":39.019578,"lon":117.2773676,"tags":{"name":"景荷道","name:en":"Jinghedao","public_transport":"stop_position","railway":"stop","subway":"yes"}},{"type":"node","id":8001875178,"lat":38.9916966,"lon":117.3023505,"tags":{"name":"天津大学北洋园校区","name:en":"Tianjindaxuebeiyangyuanxiaoqu","public_transport":"stop_position","railway":"stop","subway":"yes"}},{"type":"node","id":8001988441,"lat":39.1012259,"lon":117.1733661,"tags":{"name":"南开大学八里台","name:en":"Nankaidaxuebalitai","public_transport":"stop_position","railway":"stop","subway":"yes"}},{"type":"node","id":8036358945,"lat":39.0990298,"lon":117.1590185,"tags":{"name":"水上公园西路","name:en":"Shuishanggongyuanxilu","public_transport":"stop_position","railway":"stop","subway":"yes"}},{"type":"node","id":8036358973,"lat":39.0930648,"lon":117.1969029,"tags":{"name":"迎宾馆","name:en":"Yingbinguan","public_transport":"stop_position","railway":"stop","subway":"yes"}},{"type":"node","id":8036372661,"lat":39.0799547,"lon":117.304477,"tags":{"name":"招远路","name:en":"Zhaoyuanlu","public_transport":"stop_position","railway":"stop","subway":"yes"}},{"type":"node","id":8138090483,"lat":39.1495178,"lon":117.7856805,"tags":{"name":"软件园","public_transport":"stop_position","railway":"stop","subway":"yes"}},{"type":"node","id":8139912736,"lat":38.9795568,"lon":117.3675487,"tags":{"name":"咸水沽西","name:en":"Xianshuiguxi","public_transport":"stop_position","railway":"stop","subway":"yes"}},{"type":"node","id":8139971219,"lat":39.1074214,"lon":117.3428237,"tags":{"name":"民航大学","name:en":"Minhangdaxue","public_transport":"stop_position","railway":"stop","subway":"yes","wikidata":"Q108917518"}},{"type":"node","id":8150996291,"lat":39.1002396,"lon":117.3641888,"tags":{"name":"新兴村","name:en":"Xinxingcun","public_transport":"stop_position","railway":"stop","subway":"yes"}},{"type":"node","id":8208769839,"lat":39.0455386,"lon":117.1561428,"tags":{"name":"于台","name:en":"Yutai","public_transport":"stop_position","railway":"stop","subway":"yes"}},{"type":"node","id":8242640584,"lat":39.0733906,"lon":117.2655982,"tags":{"name":"学苑北路","name:en":"Xueyuanbeilu","public_transport":"stop_position","subway":"yes"}},{"type":"node","id":8445992767,"lat":39.1592062,"lon":117.1665115,"tags":{"name":"北竹林","name:en":"Beizhulin","name:zh":"北竹林","name:zh-Hans":"北竹林","name:zh-Hant":"北竹林","public_transport":"stop_position","railway":"stop","subway":"yes"}},{"type":"node","id":8448462788,"lat":39.1212627,"lon":117.2503,"tags":{"name":"泰昌路","name:en":"Taichanglu","name:zh":"泰昌路","public_transport":"stop_position","railway":"stop","subway":"yes"}},{"type":"node","id":8649316532,"lat":39.1359697,"lon":117.1841537,"tags":{"name":"东南角","name:en":"Dongnanjiao","public_transport":"stop_position","railway":"stop","subway":"yes","wikidata":"Q5295974"}},{"type":"node","id":8649316533,"lat":39.130923,"lon":117.1858508,"tags":{"name":"金街","name:en":"Jinjie","public_transport":"stop_position","railway":"stop","subway":"yes"}},{"type":"node","id":8649316534,"lat":39.1256741,"lon":117.2005202,"tags":{"name":"和平路","name:en":"Hepinglu","name:zh":"和平路","name:zh-Hans":"和平路","name:zh-Hant":"和平路","public_transport":"stop_position","railway":"stop","subway":"yes"}},{"type":"node","id":8649316535,"lat":39.1145184,"lon":117.2122339,"tags":{"name":"徐州道","name:en":"Xuzhoudao","public_transport":"stop_position","railway":"stop","subway":"yes"}},{"type":"node","id":8649316536,"lat":39.1146561,"lon":117.2216793,"tags":{"name":"六纬路","name:en":"Liuweilu","public_transport":"stop_position","railway":"stop","subway":"yes"}},{"type":"node","id":8649316537,"lat":39.1163281,"lon":117.2826439,"tags":{"name":"沙柳南路","name:en":"Shaliunanlu","public_transport":"stop_position","railway":"stop","subway":"yes","wikidata":"Q108917513"}},{"type":"node","id":8649316538,"lat":39.1129222,"lon":117.3128996,"tags":{"name":"跃进北路","name:en":"Yuejinbeilu","public_transport":"stop_position","railway":"stop","subway":"yes","wikidata":"Q108917516"}},{"type":"node","id":8649316539,"lat":39.1100193,"lon":117.3275888,"tags":{"name":"航双路","name:en":"Hangshuanglu","public_transport":"stop_position","railway":"stop","subway":"yes","wikidata":"Q108917517"}},{"type":"node","id":8667816934,"lat":39.0615663,"lon":117.2461117,"tags":{"name":"玛钢厂","name:en":"Magangchang","public_transport":"stop_position","railway":"stop","subway":"yes"}},{"type":"node","id":9323307239,"lat":39.0355031,"lon":117.1641961,"tags":{"name":"李七庄南","name:en":"Liqizhuangnan","note":"暂缓开通","public_transport":"stop_position","railway":"stop","subway":"yes"}},{"type":"node","id":9404097351,"lat":39.1359681,"lon":117.1842034,"tags":{"name":"东南角","name:en":"Dongnanjiao","public_transport":"stop_position","railway":"stop","subway":"yes","wikidata":"Q5295974"}},{"type":"node","id":9404097358,"lat":39.1309342,"lon":117.1858746,"tags":{"name":"金街","name:en":"Jinjie","public_transport":"stop_position","railway":"stop","subway":"yes"}},{"type":"node","id":9404097379,"lat":39.1145323,"lon":117.2122714,"tags":{"name":"徐州道","name:en":"Xuzhoudao","public_transport":"stop_position","railway":"stop","subway":"yes"}},{"type":"node","id":9404097382,"lat":39.1257183,"lon":117.2005625,"tags":{"name":"和平路","name:en":"Hepinglu","name:zh":"和平路","name:zh-Hans":"和平路","name:zh-Hant":"和平路","public_transport":"stop_position","railway":"stop","subway":"yes"}},{"type":"node","id":9404097393,"lat":39.114728,"lon":117.2216217,"tags":{"name":"六纬路","name:en":"Liuweilu","public_transport":"stop_position","railway":"stop","subway":"yes"}},{"type":"node","id":9404097410,"lat":39.1291377,"lon":117.2403385,"tags":{"name":"成林道","name:en":"Chenglindao","public_transport":"stop_position","railway":"stop","subway":"yes"}},{"type":"node","id":9404103822,"lat":39.1213644,"lon":117.2502136,"tags":{"name":"泰昌路","name:en":"Taichanglu","name:zh":"泰昌路","public_transport":"stop_position","railway":"stop","subway":"yes"}},{"type":"node","id":9404103828,"lat":39.1177983,"lon":117.2617281,"tags":{"name":"万东路","name:en":"Wandonglu","public_transport":"stop_position","railway":"stop","subway":"yes"}},{"type":"node","id":9404103840,"lat":39.1163518,"lon":117.2826487,"tags":{"name":"沙柳南路","name:en":"Shaliunanlu","public_transport":"stop_position","railway":"stop","subway":"yes","wikidata":"Q108917513"}},{"type":"node","id":9404103847,"lat":39.115524,"lon":117.2988259,"tags":{"name":"登州南路","name:en":"Dengzhounanlu","public_transport":"stop_position","railway":"stop","subway":"yes","wikidata":"Q108917515"}},{"type":"node","id":9404103852,"lat":39.1129812,"lon":117.312919,"tags":{"name":"跃进北路","name:en":"Yuejinbeilu","public_transport":"stop_position","railway":"stop","subway":"yes","wikidata":"Q108917516"}},{"type":"node","id":9404103858,"lat":39.110105,"lon":117.3275959,"tags":{"name":"航双路","name:en":"Hangshuanglu","public_transport":"stop_position","railway":"stop","subway":"yes","wikidata":"Q108917517"}},{"type":"node","id":9404103865,"lat":39.1074862,"lon":117.3428246,"tags":{"name":"民航大学","name:en":"Minhangdaxue","public_transport":"stop_position","railway":"stop","subway":"yes","wikidata":"Q108917518"}},{"type":"node","id":9404103878,"lat":39.1003114,"lon":117.3642566,"tags":{"name":"新兴村","name:en":"Xinxingcun","public_transport":"stop_position","railway":"stop","subway":"yes"}},{"type":"node","id":9429914492,"lat":39.0445041,"lon":117.263619,"tags":{"name":"渌水道","name:en":"Lushui Avenue","public_transport":"stop_position","railway":"stop","subway":"yes"}},{"type":"node","id":9429914501,"lat":39.029945,"lon":117.2708735,"tags":{"name":"双港","name:en":"Shuangjiang","public_transport":"stop_position","railway":"stop","subway":"yes"}},{"type":"node","id":9429914504,"lat":39.0195629,"lon":117.2773293,"tags":{"name":"景荷道","name:en":"Jinghedao","public_transport":"stop_position","railway":"stop","subway":"yes"}},{"type":"node","id":9429914507,"lat":39.0101951,"lon":117.2830992,"tags":{"name":"景荔道","name:en":"Jinglidao Station","public_transport":"stop_position","railway":"stop","subway":"yes"}},{"type":"node","id":9429931320,"lat":38.9916753,"lon":117.3023412,"tags":{"name":"天津大学北洋园校区","name:en":"Tianjindaxuebeiyangyuanxiaoqu","public_transport":"stop_position","railway":"stop","subway":"yes"}},{"type":"node","id":9429931323,"lat":38.9874952,"lon":117.3171659,"tags":{"name":"海河教育园区站","name:en":"Haihe Educational Park","public_transport":"stop_position","railway":"stop","subway":"yes"}},{"type":"node","id":9429931330,"lat":38.9818788,"lon":117.3347899,"tags":{"name":"南开大学津南校区","name:en":"Nankaidaxuejinnanxiaoqu","public_transport":"stop_position","railway":"stop","subway":"yes"}},{"type":"node","id":9429931333,"lat":38.9804158,"lon":117.3513887,"tags":{"name":"和慧南路站","name:en":"Heihuinanlu","public_transport":"stop_position","railway":"stop","subway":"yes"}},{"type":"node","id":9429931336,"lat":38.9795339,"lon":117.3675463,"tags":{"name":"咸水沽西","name:en":"Xianshuiguxi","public_transport":"stop_position","railway":"stop","subway":"yes"}},{"type":"node","id":9758558888,"lat":39.1309203,"lon":117.2800957,"tags":{"name":"香山道","name:en":"Xiangshandao","public_transport":"stop_position","railway":"stop","subway":"yes"}},{"type":"node","id":9758558907,"lat":39.0934455,"lon":117.2810104,"tags":{"name":"龙涵道","name:en":"Longhandao","public_transport":"stop_position","railway":"stop","subway":"yes"}},{"type":"node","id":9758625025,"lat":39.0619301,"lon":117.2538406,"tags":{"name":"微山路","name:en":"Weishanlu","public_transport":"stop_position","railway":"stop","subway":"yes"}},{"type":"node","id":9758625027,"lat":39.0615125,"lon":117.2461171,"tags":{"name":"玛钢厂","name:en":"Magangchang","public_transport":"stop_position","railway":"stop","subway":"yes"}},{"type":"node","id":9758625033,"lat":39.0620688,"lon":117.236435,"tags":{"name":"春海路","name:en":"Chunhailu","public_transport":"stop_position","railway":"stop","subway":"yes"}},{"type":"node","id":9758625072,"lat":39.0454807,"lon":117.1562524,"tags":{"name":"于台","name:en":"Yutai","public_transport":"stop_position","railway":"stop","subway":"yes"}},{"type":"node","id":9916868073,"lat":39.0084732,"lon":117.4141715,"tags":{"name":"咸水沽北","name:en":"Xianshuigubei","public_transport":"stop_position","railway":"stop","subway":"yes"}},{"type":"node","id":9918963505,"lat":39.0398358,"lon":117.6012882,"tags":{"name":"胡家园","name:en":"Hujiayuan","public_transport":"stop_position","railway":"stop","subway":"yes","wikidata":"Q5935798"}},{"type":"node","id":9922459414,"lat":39.0783457,"lon":117.3509139,"tags":{"name":"东丽开发区","public_transport":"stop_position","railway":"stop","subway":"yes"}},{"type":"node","id":9922459543,"lat":39.0632095,"lon":117.3968357,"tags":{"name":"小东庄","name:en":"Xiaodongzhuang","public_transport":"stop_position","railway":"stop","subway":"yes","wikidata":"Q6119262"}},{"type":"node","id":9922459544,"lat":39.0783063,"lon":117.3508929,"tags":{"name":"东丽开发区","public_transport":"stop_position","railway":"stop","subway":"yes"}},{"type":"node","id":9922459571,"lat":39.0469484,"lon":117.4496312,"tags":{"name":"军粮城","name:en":"Junliangcheng","public_transport":"stop_position","railway":"stop","subway":"yes","wikidata":"Q6314008"}},{"type":"node","id":9922459606,"lat":39.0387708,"lon":117.4975304,"tags":{"name":"钢管公司","name:en":"Gangguangongsi","public_transport":"stop_position","railway":"stop","subway":"yes"}},{"type":"node","id":9927504616,"lat":39.0397316,"lon":117.7309557,"tags":{"name":"东海路","name:en":"Donghailu","public_transport":"stop_position","railway":"stop","subway":"yes","wikidata":"Q5295916"}},{"type":"node","id":9927513836,"lat":39.0189734,"lon":117.7171401,"tags":{"name":"太湖路","name:en":"Taihulu","public_transport":"stop_position","railway":"stop","subway":"yes","wikidata":"Q28070896"}},{"type":"node","id":9927513874,"lat":39.0290816,"lon":117.7254224,"tags":{"name":"会展中心","name:en":"Convention and Exhibition Center","public_transport":"stop_position","railway":"stop","subway":"yes","wikidata":"Q5166245"}},{"type":"node","id":9927513883,"lat":39.0287213,"lon":117.6549482,"tags":{"name":"塘沽","name:en":"Tanggu","public_transport":"stop_position","railway":"stop","subway":"yes"}},{"type":"node","id":9927513889,"lat":39.0173265,"lon":117.6968747,"tags":{"name":"市民广场","name:en":"Shiminguangchang","public_transport":"stop_position","railway":"stop","subway":"yes","wikidata":"Q5122582"}},{"type":"node","id":9927513909,"lat":39.0246494,"lon":117.6732353,"tags":{"name":"泰达","name:en":"Taida","public_transport":"stop_position","railway":"stop","subway":"yes"}},{"type":"node","id":10199149621,"lat":39.1473633,"lon":117.2730915,"tags":{"name":"屿东城","name:en":"Yudongcheng","public_transport":"stop_position","railway":"stop","subway":"yes"}},{"type":"node","id":10199149622,"lat":39.1473738,"lon":117.2731231,"tags":{"name":"屿东城","name:en":"Yudongcheng","public_transport":"stop_position","railway":"stop","subway":"yes"}},{"type":"node","id":10199149624,"lat":39.1376016,"lon":117.2773858,"tags":{"name":"崂山道","name:en":"Laoshandao","public_transport":"stop_position","railway":"stop","subway":"yes"}},{"type":"node","id":10199149625,"lat":39.1376172,"lon":117.2774524,"tags":{"name":"崂山道","name:en":"Laoshandao","public_transport":"stop_position","railway":"stop","subway":"yes"}},{"type":"node","id":10199149626,"lat":39.1237729,"lon":117.2812926,"tags":{"name":"万山道","name:en":"Wanshandao","public_transport":"stop_position","railway":"stop","subway":"yes"}},{"type":"node","id":10199149627,"lat":39.1237771,"lon":117.281362,"tags":{"name":"万山道","name:en":"Wanshandao","public_transport":"stop_position","railway":"stop","subway":"yes"}},{"type":"node","id":10199149628,"lat":39.1151278,"lon":117.2830362,"tags":{"name":"沙柳南路","name:en":"Shaliunanlu","public_transport":"stop_position","railway":"stop","subway":"yes"}},{"type":"node","id":10199149629,"lat":39.1151274,"lon":117.2831062,"tags":{"name":"沙柳南路","name:en":"Shaliunanlu","public_transport":"stop_position","railway":"stop","subway":"yes"}},{"type":"node","id":10199149630,"lat":39.1091251,"lon":117.2831437,"tags":{"name":"方山道","name:en":"Fangshandao","public_transport":"stop_position","railway":"stop","subway":"yes"}},{"type":"node","id":10199149631,"lat":39.1091034,"lon":117.2832085,"tags":{"name":"方山道","name:en":"Fangshandao","public_transport":"stop_position","railway":"stop","subway":"yes"}},{"type":"node","id":10199149632,"lat":39.1018179,"lon":117.2813613,"tags":{"name":"金贸产业园","name:en":"Jinmaochanyeyuan","public_transport":"stop_position","railway":"stop","subway":"yes"}},{"type":"node","id":10199149633,"lat":39.1018217,"lon":117.2814307,"tags":{"name":"金贸产业园","name:en":"Jinmaochanyeyuan","public_transport":"stop_position","railway":"stop","subway":"yes"}},{"type":"node","id":10199149634,"lat":39.0831118,"lon":117.2797341,"tags":{"name":"环宇道","name:en":"Huanyudao","public_transport":"stop_position","railway":"stop","subway":"yes"}},{"type":"node","id":10199149635,"lat":39.0831042,"lon":117.279839,"tags":{"name":"环宇道","name:en":"Huanyudao","public_transport":"stop_position","railway":"stop","subway":"yes"}},{"type":"node","id":10199149636,"lat":39.071418,"lon":117.2785974,"tags":{"name":"柳林路","name:en":"Liulinlu","public_transport":"stop_position","railway":"stop","subway":"yes"}},{"type":"node","id":10199149637,"lat":39.0714158,"lon":117.2785661,"tags":{"name":"柳林路","name:en":"Liulinlu","public_transport":"stop_position","railway":"stop","subway":"yes"}},{"type":"node","id":10199149638,"lat":39.0632693,"lon":117.2723796,"tags":{"name":"财经大学","name:en":"Caijingdaxue","public_transport":"stop_position","railway":"stop","subway":"yes"}},{"type":"node","id":10199149639,"lat":39.0632577,"lon":117.2723815,"tags":{"name":"财经大学","name:en":"Caijingdaxue","public_transport":"stop_position","railway":"stop","subway":"yes"}},{"type":"node","id":10199149643,"lat":39.0628439,"lon":117.1994857,"tags":{"name":"江湾二支路","name:en":"Jiangwanerzhilu","public_transport":"stop_position","railway":"stop","subway":"yes"}},{"type":"node","id":10199149644,"lat":39.0628234,"lon":117.1994851,"tags":{"name":"江湾二支路","name:en":"Jiangwanerzhilu","public_transport":"stop_position","railway":"stop","subway":"yes"}},{"type":"node","id":10199149645,"lat":39.0628178,"lon":117.2111486,"tags":{"name":"友谊南路","name:en":"Youyinanlu","public_transport":"stop_position","railway":"stop","subway":"yes"}},{"type":"node","id":10199149646,"lat":39.0628101,"lon":117.2111489,"tags":{"name":"友谊南路","name:en":"Youyinanlu","public_transport":"stop_position","railway":"stop","subway":"yes"}},{"type":"node","id":10199149647,"lat":39.0619818,"lon":117.1878291,"tags":{"name":"丽江道","name:en":"Lijiangdao","public_transport":"stop_position","railway":"stop","subway":"yes"}},{"type":"node","id":10199149648,"lat":39.061934,"lon":117.1878279,"tags":{"name":"丽江道","name:en":"Lijiangdao","public_transport":"stop_position","railway":"stop","subway":"yes"}},{"type":"node","id":10199149649,"lat":39.0536892,"lon":117.1685761,"tags":{"name":"瑶环路","name:en":"Yaohuanlu","public_transport":"stop_position","railway":"stop","subway":"yes"}},{"type":"node","id":10199149650,"lat":39.053659,"lon":117.1685855,"tags":{"name":"瑶环路","name:en":"Yaohuanlu","public_transport":"stop_position","railway":"stop","subway":"yes"}},{"type":"node","id":10199149651,"lat":39.0559219,"lon":117.1761678,"tags":{"name":"昌凌路","name:en":"Changlinglu","public_transport":"stop_position","railway":"stop","subway":"yes"}},{"type":"node","id":10199149652,"lat":39.0559015,"lon":117.1761787,"tags":{"name":"昌凌路","name:en":"Changlinglu","public_transport":"stop_position","railway":"stop","subway":"yes"}},{"type":"node","id":11060813827,"lat":39.1027011,"lon":117.2359878,"tags":{"name":"东兴路","name:en":"Dongxinglu","public_transport":"stop_position","railway":"stop","subway":"yes","wikidata":"Q5937993"}},{"type":"node","id":11060813830,"lat":39.1102569,"lon":117.2273175,"tags":{"name":"直沽","name:en":"Zhigu","public_transport":"stop_position","railway":"stop","subway":"yes"}},{"type":"node","id":11060813833,"lat":39.1204355,"lon":117.2174967,"tags":{"name":"十一经路","name:en":"Shiyijinglu","public_transport":"stop_position","railway":"stop","subway":"yes","wikidata":"Q5936934"}},{"type":"node","id":11060813835,"lat":39.1261497,"lon":117.2118813,"tags":{"name":"大王庄","name:en":"Dawangzhuang","public_transport":"stop_position","railway":"stop","subway":"yes","wikidata":"Q5242278"}},{"type":"node","id":11060813848,"lat":39.1371497,"lon":117.2036099,"tags":{"name":"天津站","name:en":"Tianjin Station","name:zh":"天津站","name:zh-Hans":"天津站","name:zh-Hant":"天津站","public_transport":"stop_position","railway":"stop","subway":"yes"}},{"type":"node","id":11060819433,"lat":39.099919,"lon":117.2579995,"tags":{"name":"中山门","name:en":"Zhongshanmen","public_transport":"stop_position","railway":"stop","subway":"yes"}},{"type":"node","id":11060819447,"lat":39.0950582,"lon":117.2766275,"tags":{"name":"一号桥","name:en":"Yihaoqiao","public_transport":"stop_position","railway":"stop","subway":"yes","wikidata":"Q5976444"}},{"type":"node","id":11060819454,"lat":39.0941619,"lon":117.2868075,"tags":{"name":"二号桥","name:en":"Erhaoqiao","public_transport":"stop_position","railway":"stop","subway":"yes","wikidata":"Q5385860"}},{"type":"node","id":11060819460,"lat":39.0910478,"lon":117.3015262,"tags":{"name":"张贵庄","name:en":"Zhangguizhuang","public_transport":"stop_position","railway":"stop","subway":"yes","wikidata":"Q11067669"}},{"type":"node","id":11332285432,"lat":39.0751376,"lon":117.3322602,"tags":{"name":"驯海路","name:en":"Xunhailu","public_transport":"stop_position","railway":"stop","subway":"yes"}},{"type":"node","id":11475876051,"lat":39.0640453,"lon":117.367628,"tags":{"name":"东丽六经路","name:en":"Dongliliujinglu","public_transport":"stop_position","subway":"yes"}},{"type":"node","id":11475876052,"lat":39.0642318,"lon":117.3677441,"tags":{"name":"东丽六经路","name:en":"Dongliliujinglu","public_transport":"stop_position","subway":"yes"}},{"type":"node","id":11475876053,"lat":39.0841817,"lon":117.2813359,"tags":{"name":"环宇道","name:en":"Huanyudao","public_transport":"stop_position","railway":"stop","subway":"yes"}},{"type":"node","id":11475876054,"lat":39.0843029,"lon":117.2813359,"tags":{"name":"环宇道","name:en":"Huanyudao","public_transport":"stop_position","railway":"stop","subway":"yes"}},{"type":"node","id":11475876055,"lat":39.0818315,"lon":117.270079,"tags":{"name":"海河东路","name:en":"Haihedonglu","public_transport":"stop_position","subway":"yes"}},{"type":"node","id":11475876056,"lat":39.0817876,"lon":117.2702344,"tags":{"name":"海河东路","name:en":"Haihedonglu","public_transport":"stop_position","subway":"yes"}},{"type":"node","id":11475876057,"lat":39.0672105,"lon":117.25272,"tags":{"name":"东江道","name:en":"Dongjiangdao","public_transport":"stop_position","subway":"yes"}},{"type":"node","id":11475876058,"lat":39.0673108,"lon":117.2527309,"tags":{"name":"东江道","name:en":"Dongjiangdao","public_transport":"stop_position","subway":"yes"}},{"type":"node","id":11475876059,"lat":39.0733519,"lon":117.2657379,"tags":{"name":"学苑北路","name:en":"Xueyuanbeilu","public_transport":"stop_position","subway":"yes"}},{"type":"node","id":11477356562,"lat":39.0692621,"lon":117.3519802,"tags":{"name":"东丽三经路","name:en":"Donglisanjinglu","public_transport":"stop_position","railway":"stop","subway":"yes"}},{"type":"node","id":11477356563,"lat":39.0693863,"lon":117.3520701,"tags":{"name":"东丽三经路","name:en":"Donglisanjinglu","public_transport":"stop_position","railway":"stop","subway":"yes"}},{"type":"node","id":11477356564,"lat":39.072193,"lon":117.3434213,"tags":{"name":"东丽一经路","name:en":"Dongliyijinglu","public_transport":"stop_position","railway":"stop","subway":"yes"}},{"type":"node","id":11477356565,"lat":39.0721298,"lon":117.3433914,"tags":{"name":"东丽一经路","name:en":"Dongliyijinglu","public_transport":"stop_position","railway":"stop","subway":"yes"}},{"type":"node","id":11477356566,"lat":39.0752291,"lon":117.3322976,"tags":{"name":"驯海路","name:en":"Xunhailu","public_transport":"stop_position","railway":"stop","subway":"yes"}},{"type":"node","id":11477356567,"lat":39.0779119,"lon":117.3223561,"tags":{"name":"东丽文体中心","name:en":"Dongliwentizhongxin","public_transport":"stop_position","railway":"stop","subway":"yes"}},{"type":"node","id":11477356568,"lat":39.0780668,"lon":117.3224337,"tags":{"name":"东丽文体中心","name:en":"Dongliwentizhongxin","public_transport":"stop_position","railway":"stop","subway":"yes"}},{"type":"node","id":11477363069,"lat":39.0798103,"lon":117.3044561,"tags":{"name":"招远路","name:en":"Zhaoyuanlu","public_transport":"stop_position","railway":"stop","subway":"yes"}},{"type":"node","id":11477363070,"lat":39.0819727,"lon":117.2934664,"tags":{"name":"雪莲南路","name:en":"Xueliannanlu","public_transport":"stop_position","railway":"stop","subway":"yes"}},{"type":"node","id":11477363071,"lat":39.0819408,"lon":117.2934468,"tags":{"name":"雪莲南路","name:en":"Xueliannanlu","public_transport":"stop_position","railway":"stop","subway":"yes"}},{"type":"node","id":11590995159,"lat":39.0302372,"lon":117.1507718,"tags":{"name":"京华东道","name:en":"Jinghuadongdao","public_transport":"stop_position","railway":"stop","subway":"yes"}},{"type":"node","id":11591004689,"lat":39.0202769,"lon":117.1182402,"tags":{"name":"精武","name:en":"Jingwu","public_transport":"stop_position","railway":"stop","subway":"yes"}},{"type":"node","id":11662116920,"lat":39.062681,"lon":117.2242999,"tags":{"name":"南珠桥","public_transport":"stop_position","railway":"stop","subway":"yes"}},{"type":"node","id":11662116921,"lat":39.0626695,"lon":117.2243004,"tags":{"name":"南珠桥","public_transport":"stop_position","railway":"stop","subway":"yes"}},{"type":"node","id":11934518146,"lat":39.0881105,"lon":117.2022139,"tags":{"name":"文化中心","name:en":"Wenhuazhongxin","public_transport":"stop_position","railway":"stop","subway":"yes"}},{"type":"node","id":12030203486,"lat":39.0016744,"lon":117.4243661,"tags":{"name":"双桥河","name:en":"Shuangqiaohe","public_transport":"stop_position","railway":"stop","subway":"yes"}},{"type":"node","id":12030203487,"lat":39.0016864,"lon":117.4245034,"tags":{"name":"双桥河","name:en":"Shuangqiaohe","public_transport":"stop_position","railway":"stop","subway":"yes"}},{"type":"node","id":12070438796,"lat":39.1281113,"lon":117.1742734,"tags":{"name":"福安大街","name:en":"Fu'an Street","public_transport":"stop_position","railway":"stop","subway":"yes"}},{"type":"node","id":12070438797,"lat":39.1116275,"lon":117.1732463,"tags":{"name":"天津大学六里台","public_transport":"stop_position","railway":"stop","subway":"yes"}},{"type":"node","id":12070438802,"lat":39.0278593,"lon":117.2116019,"tags":{"name":"张道口","public_transport":"stop_position","railway":"stop","subway":"yes"}},{"type":"node","id":12070438803,"lat":39.0181558,"lon":117.2098717,"tags":{"name":"兴华道","public_transport":"stop_position","railway":"stop","subway":"yes"}},{"type":"node","id":12070438804,"lat":39.0059556,"lon":117.2156462,"tags":{"name":"宏源道","public_transport":"stop_position","railway":"stop","subway":"yes"}},{"type":"node","id":12070438805,"lat":38.9901784,"lon":117.2230506,"tags":{"name":"芦北路","public_transport":"stop_position","railway":"stop","subway":"yes"}},{"type":"node","id":12070438806,"lat":38.9808197,"lon":117.2263439,"tags":{"name":"赛达路","name:en":"Saidalu","public_transport":"stop_position","railway":"stop","subway":"yes"}},{"type":"node","id":12077792938,"lat":39.0860259,"lon":117.1222678,"tags":{"name":"华苑","name:en":"Huayuan","public_transport":"stop_position","railway":"stop","subway":"yes","wikidata":"Q43646"}},{"type":"node","id":12077792963,"lat":39.0990097,"lon":117.1797234,"tags":{"name":"吴家窑","name:en":"Wujiayao","public_transport":"stop_position","railway":"stop","subway":"yes","wikidata":"Q43728"}},{"type":"node","id":12077798674,"lat":39.1175207,"lon":117.1909752,"tags":{"name":"营口道","name:en":"Yingkoudao","name:zh":"营口道","name:zh-Hans":"营口道","name:zh-Hant":"營口道","public_transport":"stop_position","railway":"stop","subway":"yes"}},{"type":"node","id":12077798682,"lat":39.1303758,"lon":117.2011435,"tags":{"name":"津湾广场","name:en":"Jinwan­'guangchang","name:zh":"津湾广场","name:zh-Hans":"津湾广场","name:zh-Hant":"津灣廣場","public_transport":"stop_position","railway":"stop","subway":"yes","wikidata":"Q43640","wikipedia":"en:Jinwan'guangchang station"}},{"type":"node","id":12077798695,"lat":39.1499559,"lon":117.201519,"tags":{"name":"金狮桥","name:en":"Jinshiqiao","public_transport":"stop_position","railway":"stop","subway":"yes"}},{"type":"node","id":12077798718,"lat":39.1790824,"lon":117.2009523,"tags":{"name":"铁东路","name:en":"Tiedonglu","public_transport":"stop_position","railway":"stop","subway":"yes","wikidata":"Q43635"}},{"type":"node","id":12077798727,"lat":39.1963505,"lon":117.2121352,"tags":{"name":"宜兴埠","name:en":"Yixingfu","public_transport":"stop_position","railway":"stop","subway":"yes","wikidata":"Q43636"}},{"type":"node","id":12077798729,"lat":39.2048886,"lon":117.208687,"tags":{"name":"天士力","name:en":"Tianshili","public_transport":"stop_position","railway":"stop","subway":"yes","wikidata":"Q43645"}},{"type":"node","id":12082959845,"lat":39.0946935,"lon":117.1702869,"tags":{"description:en":"Tianjin Radio & Television Tower","name":"天塔","name:en":"Tianta","public_transport":"stop_position","railway":"stop","subway":"yes"}},{"type":"node","id":12082959847,"lat":39.0671916,"lon":117.0631746,"tags":{"name":"杨伍庄","name:en":"Yangwuzhuang","public_transport":"stop_position","railway":"stop","subway":"yes","wikidata":"Q15923284"}},{"type":"node","id":12082959848,"lat":39.0708041,"lon":117.0721935,"tags":{"description:en":"Xuefu Industrial Zone","name":"学府工业区","name:en":"Xuefugongyequ","public_transport":"stop_position","railway":"stop","subway":"yes","wikidata":"Q15922476"}},{"type":"node","id":12082959849,"lat":39.0708246,"lon":117.0922492,"tags":{"name":"高新区","name:en":"Gaoxinqu","public_transport":"stop_position","railway":"stop","subway":"yes","wikidata":"Q43644"}},{"type":"node","id":12082959850,"lat":39.0713324,"lon":117.1056879,"tags":{"name":"大学城","name:en":"Daxuecheng","public_transport":"stop_position","railway":"stop","subway":"yes","wikidata":"Q10934797"}},{"type":"node","id":12082959851,"lat":39.0907523,"lon":117.1319144,"tags":{"name":"王顶堤","name:en":"Wangdingdi","public_transport":"stop_position","railway":"stop","station":"subway","subway":"yes","wikidata":"Q43724"}},{"type":"node","id":12082959852,"lat":39.0916789,"lon":117.1418037,"tags":{"name":"红旗南路","name:en":"Hongqinanlu","public_transport":"stop_position","railway":"stop","subway":"yes"}},{"type":"node","id":12082959853,"lat":39.0916672,"lon":117.1571889,"tags":{"description:en":"Zhou Enlai & Deng Yingchao Memorial Hall","name":"周邓纪念馆","name:en":"Zhoudengji'nianguan","public_transport":"stop_position","railway":"stop","subway":"yes","wikidata":"Q43725"}},{"type":"node","id":12082959859,"lat":39.1111968,"lon":117.1816449,"tags":{"name":"西康路","name:en":"Xikanglu","public_transport":"stop_position","railway":"stop","subway":"yes","wikidata":"Q43641"}},{"type":"node","id":12082959860,"lat":39.1259134,"lon":117.1981104,"tags":{"name":"和平路","name:en":"Hepinglu","name:zh":"和平路","name:zh-Hans":"和平路","name:zh-Hant":"和平路","public_transport":"stop_position","railway":"stop","subway":"yes","wikidata":"Q43649","wikipedia":"en:Hepinglu station (Tianjin Metro)"}},{"type":"node","id":12082959861,"lat":39.1373012,"lon":117.2044752,"tags":{"name":"天津站","name:en":"Tianjin Station","name:zh":"天津站","name:zh-Hans":"天津站","name:zh-Hant":"天津站","public_transport":"stop_position","railway":"stop","subway":"yes"}},{"type":"node","id":12082991879,"lat":39.1904663,"lon":117.209031,"tags":{"name":"张兴庄","name:en":"Zhangxingzhuang","public_transport":"stop_position","railway":"stop","subway":"yes"}},{"type":"node","id":12082991880,"lat":39.226496,"lon":117.2212977,"tags":{"name":"华北集团","name:en":"Huabeijituan","public_transport":"stop_position","railway":"stop","subway":"yes","wikidata":"Q43650"}},{"type":"node","id":12082991881,"lat":39.2371138,"lon":117.2297675,"tags":{"name":"丰产河","name:en":"Fengchanhe","public_transport":"stop_position","railway":"stop","subway":"yes","wikidata":"Q43651"}},{"type":"node","id":12082991882,"lat":39.2381401,"lon":117.251285,"tags":{"name":"小淀","name:en":"Xiaodian","public_transport":"stop_position","railway":"stop","subway":"yes","wikidata":"Q46488"}},{"type":"node","id":12090045773,"lat":39.1613397,"lon":117.1989111,"tags":{"name":"中山路","name:en":"Zhongshanlu","public_transport":"stop_position","railway":"stop","subway":"yes"}},{"type":"node","id":12090189297,"lat":39.1657049,"lon":117.2014645,"tags":{"name":"北站","name:en":"Beizhan","public_transport":"stop_position","railway":"stop","subway":"yes"}},{"type":"node","id":12090194485,"lat":39.0559031,"lon":117.0557034,"tags":{"name":"南站","name:en":"Nanzhan","public_transport":"stop_position","railway":"stop","subway":"yes"}},{"type":"node","id":12207577764,"lat":38.9483617,"lon":117.0732961,"tags":{"name":"团泊医学园","name:en":"Tuanboyixueyuan","public_transport":"stop_position","railway":"stop","subway":"yes"}},{"type":"node","id":12207577765,"lat":38.9730684,"lon":117.0802243,"tags":{"name":"团泊健康城","name:en":"Tuanbojiankangcheng","public_transport":"stop_position","railway":"stop","subway":"yes"}},{"type":"node","id":12430209441,"lat":39.1566239,"lon":117.3284134,"tags":{"name":"空港经济区","name:en":"Konggangjingjiqu","public_transport":"stop_position","railway":"stop","subway":"yes"}},{"type":"node","id":12468380607,"lat":39.0934395,"lon":117.1729771,"tags":{"description:en":"Tianjin Radio & Television Tower","name":"天塔","name:en":"Tianta","public_transport":"stop_position","railway":"stop","subway":"yes"}},{"type":"node","id":12471374033,"lat":39.0988732,"lon":117.1590189,"tags":{"name":"水上公园西路","name:en":"Shuishanggongyuanxilu","public_transport":"stop_position","railway":"stop","subway":"yes"}},{"type":"node","id":12471374034,"lat":39.1006088,"lon":117.1711609,"tags":{"name":"南开大学八里台","name:en":"Nankaidaxuebalitai","public_transport":"stop_position","railway":"stop","subway":"yes"}},{"type":"node","id":12471374035,"lat":39.1006443,"lon":117.1711478,"tags":{"name":"南开大学八里台","name:en":"Nankaidaxuebalitai","public_transport":"stop_position","railway":"stop","subway":"yes"}},{"type":"node","id":12471374036,"lat":39.0998549,"lon":117.1813555,"tags":{"name":"吴家窑","name:en":"Wujiayao","public_transport":"stop_position","railway":"stop","subway":"yes"}},{"type":"node","id":12471374037,"lat":39.0998377,"lon":117.1813535,"tags":{"name":"吴家窑","name:en":"Wujiayao","public_transport":"stop_position","railway":"stop","subway":"yes"}},{"type":"node","id":12471374038,"lat":39.0987231,"lon":117.1920284,"tags":{"name":"佟楼","name:en":"Tonglou","public_transport":"stop_position","railway":"stop","subway":"yes"}},{"type":"node","id":12471374039,"lat":39.0987448,"lon":117.1920326,"tags":{"name":"佟楼","name:en":"Tonglou","public_transport":"stop_position","railway":"stop","subway":"yes"}},{"type":"node","id":12471374040,"lat":39.0930718,"lon":117.1967784,"tags":{"name":"迎宾馆","name:en":"Yingbinguan","public_transport":"stop_position","railway":"stop","subway":"yes"}},{"type":"node","id":12471374041,"lat":39.0849221,"lon":117.2010958,"tags":{"name":"文化中心","name:en":"Wenhuazhongxin","public_transport":"stop_position","railway":"stop","subway":"yes"}},{"type":"node","id":12471374042,"lat":39.0849027,"lon":117.2010489,"tags":{"name":"文化中心","name:en":"Wenhuazhongxin","public_transport":"stop_position","railway":"stop","subway":"yes"}},{"type":"node","id":12471374045,"lat":39.0804151,"lon":117.2164912,"tags":{"name":"医大二院","name:en":"Yidaeryuan","public_transport":"stop_position","railway":"stop","subway":"yes"}},{"type":"node","id":12471374046,"lat":39.0804915,"lon":117.2164919,"tags":{"name":"医大二院","name:en":"Yidaeryuan","public_transport":"stop_position","railway":"stop","subway":"yes"}},{"type":"node","id":12471374060,"lat":39.0817938,"lon":117.2272379,"tags":{"name":"澧水道","name:en":"Lishuidao","public_transport":"stop_position","railway":"stop","subway":"yes"}},{"type":"node","id":12471374061,"lat":39.0817454,"lon":117.2272409,"tags":{"name":"澧水道","name:en":"Lishuidao","public_transport":"stop_position","railway":"stop","subway":"yes"}},{"type":"node","id":12471374062,"lat":39.0766683,"lon":117.2392926,"tags":{"name":"内江路","name:en":"Neijianglu","public_transport":"stop_position","railway":"stop","subway":"yes"}},{"type":"node","id":12471374063,"lat":39.0766637,"lon":117.2394132,"tags":{"name":"内江路","name:en":"Neijianglu","public_transport":"stop_position","railway":"stop","subway":"yes"}},{"type":"node","id":12471374070,"lat":39.0695624,"lon":117.2436309,"tags":{"name":"陈塘","name:en":"Chentang","public_transport":"stop_position","railway":"stop","subway":"yes"}},{"type":"node","id":12471374071,"lat":39.0696445,"lon":117.2436638,"tags":{"name":"陈塘","name:en":"Chentang","public_transport":"stop_position","railway":"stop","subway":"yes"}},{"type":"node","id":12473280690,"lat":39.0302865,"lon":117.1507476,"tags":{"name":"京华东道","name:en":"Jinghuadongdao","public_transport":"stop_position","railway":"stop","subway":"yes"}},{"type":"node","id":12514109547,"lat":39.1360988,"lon":117.1748252,"tags":{"name":"鼓楼","name:en":"Gulou","public_transport":"stop_position","railway":"stop","subway":"yes"}},{"type":"node","id":12578784852,"lat":39.2202913,"lon":117.823925,"tags":{"name":"汉沽医院","public_transport":"stop_position","railway":"stop","subway":"yes"}},{"type":"node","id":12644792251,"lat":39.118941,"lon":117.1734522,"tags":{"name":"海光寺","name:en":"Haiguangsi","public_transport":"stop_position","railway":"stop","subway":"yes"}},{"type":"node","id":12644792253,"lat":39.0790229,"lon":117.1756297,"tags":{"name":"肿瘤医院","name:en":"Zhongliuiyuan","public_transport":"stop_position","railway":"stop","subway":"yes"}},{"type":"node","id":12644792289,"lat":39.2696821,"lon":117.1014337,"tags":{"name":"柴楼","name:en":"Chailou","public_transport":"stop_position","railway":"stop","subway":"yes","wikidata":"Q135234999"}},{"type":"node","id":12644792290,"lat":39.2824144,"lon":117.0984114,"tags":{"name":"郎园","name:en":"Langyuan","name:zh":"郎园","public_transport":"stop_position","railway":"stop","subway":"yes"}},{"type":"node","id":12958762545,"lat":39.13443,"lon":117.1747451,"tags":{"name":"鼓楼","name:en":"Gulou","public_transport":"stop_position","railway":"stop","subway":"yes"}},{"type":"node","id":12999947265,"lat":39.1866946,"lon":117.1581882,"tags":{"name":"柳滩","name:en":"Liutan","public_transport":"stop_position","railway":"stop","subway":"yes"}},{"type":"node","id":12999947266,"lat":39.1977104,"lon":117.145442,"tags":{"name":"天穆","name:en":"Tianmu","public_transport":"stop_position","railway":"stop","subway":"yes"}},{"type":"node","id":12999947267,"lat":39.1825437,"lon":117.1654844,"tags":{"name":"白庙","name:en":"Baimiao","public_transport":"stop_position","railway":"stop","subway":"yes"}},{"type":"node","id":12999947268,"lat":39.1654941,"lon":117.1597876,"tags":{"name":"同城商务区西于庄","name:en":"Tongchengshangwuquxiyuzhuang","public_transport":"stop_position","railway":"stop","subway":"yes"}},{"type":"node","id":12999947269,"lat":39.1715598,"lon":117.1652353,"tags":{"name":"西沽公园","name:en":"Xigugongyuan","public_transport":"stop_position","railway":"stop","subway":"yes"}},{"type":"node","id":12999947270,"lat":39.1766,"lon":117.1733281,"tags":{"name":"北洋桥","name:en":"Beiyangqiao","public_transport":"stop_position","railway":"stop","subway":"yes"}},{"type":"node","id":13004783244,"lat":39.2137149,"lon":117.1318462,"tags":{"name":"果园南道","name:en":"Guoyuannandao","public_transport":"stop_position","railway":"stop","subway":"yes"}},{"type":"node","id":13006276795,"lat":39.2066091,"lon":117.1374632,"tags":{"name":"南仓","name:en":"Nancang","public_transport":"stop_position","railway":"stop","subway":"yes"}},{"type":"node","id":13006276796,"lat":39.2209438,"lon":117.1239329,"tags":{"name":"北仓","name:en":"Beicang","public_transport":"stop_position","railway":"stop","subway":"yes"}},{"type":"node","id":13006276797,"lat":39.2319534,"lon":117.1174566,"tags":{"name":"延吉道","name:en":"Yanjidao","public_transport":"stop_position","railway":"stop","subway":"yes"}},{"type":"node","id":13006307901,"lat":39.2613817,"lon":117.1041681,"tags":{"name":"双街","name:en":"Shuangjie","public_transport":"stop_position","railway":"stop","subway":"yes"}},{"type":"node","id":13006307902,"lat":39.2510115,"lon":117.1094069,"tags":{"name":"西赵庄","name:en":"Xizhaozhuang","public_transport":"stop_position","railway":"stop","subway":"yes"}},{"type":"node","id":13020315215,"lat":39.3039152,"lon":117.0912155,"tags":{"name":"小街","name:en":"Xiaojie","public_transport":"stop_position","railway":"stop","subway":"yes"}},{"type":"node","id":13020315221,"lat":39.3038997,"lon":117.091164,"tags":{"name":"小街","name:en":"Xiaojie","public_transport":"stop_position","railway":"stop","subway":"yes"}},{"type":"node","id":13020315229,"lat":39.2696899,"lon":117.1014938,"tags":{"name":"柴楼","name:en":"Chailou","public_transport":"stop_position","railway":"stop","subway":"yes","wikidata":"Q135234999"}},{"type":"node","id":13021498675,"lat":39.2209522,"lon":117.1239503,"tags":{"name":"北仓","name:en":"Beicang","public_transport":"stop_position","railway":"stop","subway":"yes"}},{"type":"node","id":13021505560,"lat":39.1549875,"lon":117.1569748,"tags":{"name":"西站","name:en":"Xizhan","name:zh":"西站","name:zh-Hans":"西站","name:zh-Hant":"西站","public_transport":"stop_position","railway":"stop","subway":"yes"}},{"type":"node","id":13059223317,"lat":39.0604948,"lon":117.1865234,"tags":{"name":"丽江道","name:en":"Lijiangdao","public_transport":"stop_position","railway":"stop","subway":"yes"}},{"type":"node","id":13069428799,"lat":39.0357002,"lon":117.1994297,"tags":{"name":"梅江会展中心南","public_transport":"stop_position","railway":"stop","subway":"yes"}},{"type":"node","id":13069533271,"lat":39.2824314,"lon":117.0985073,"tags":{"name":"郎园","name:en":"Langyuan","name:zh":"郎园","public_transport":"stop_position","railway":"stop","subway":"yes"}},{"type":"node","id":13069533274,"lat":39.2613853,"lon":117.1041919,"tags":{"name":"双街","name:en":"Shuangjie","public_transport":"stop_position","railway":"stop","subway":"yes"}},{"type":"node","id":13069533276,"lat":39.2510168,"lon":117.1094352,"tags":{"name":"西赵庄","name:en":"Xizhaozhuang","public_transport":"stop_position","railway":"stop","subway":"yes"}},{"type":"node","id":13069533278,"lat":39.2319564,"lon":117.117503,"tags":{"name":"延吉道","name:en":"Yanjidao","public_transport":"stop_position","railway":"stop","subway":"yes"}},{"type":"node","id":13069559776,"lat":39.213731,"lon":117.1318796,"tags":{"name":"果园南道","name:en":"Guoyuannandao","public_transport":"stop_position","railway":"stop","subway":"yes"}},{"type":"node","id":13069559779,"lat":39.2066311,"lon":117.1375227,"tags":{"name":"南仓","name:en":"Nancang","public_transport":"stop_position","railway":"stop","subway":"yes"}},{"type":"node","id":13069559780,"lat":39.1977274,"lon":117.1454705,"tags":{"name":"天穆","name:en":"Tianmu","public_transport":"stop_position","railway":"stop","subway":"yes"}},{"type":"node","id":13069559782,"lat":39.1867105,"lon":117.1582162,"tags":{"name":"柳滩","name:en":"Liutan","public_transport":"stop_position","railway":"stop","subway":"yes"}},{"type":"node","id":13069559784,"lat":39.1825585,"lon":117.1654995,"tags":{"name":"白庙","name:en":"Baimiao","public_transport":"stop_position","railway":"stop","subway":"yes"}},{"type":"node","id":13069559786,"lat":39.1766022,"lon":117.1733774,"tags":{"name":"北洋桥","name:en":"Beiyangqiao","public_transport":"stop_position","railway":"stop","subway":"yes"}},{"type":"node","id":13069559789,"lat":39.1717607,"lon":117.165611,"tags":{"name":"西沽公园","name:en":"Xigugongyuan","public_transport":"stop_position","railway":"stop","subway":"yes"}},{"type":"node","id":13069559791,"lat":39.1654857,"lon":117.1598084,"tags":{"name":"同城商务区西于庄","name:en":"Tongchengshangwuquxiyuzhuang","public_transport":"stop_position","railway":"stop","subway":"yes"}},{"type":"node","id":13103852544,"lat":39.1309048,"lon":117.3558268,"tags":{"name":"滨海国际机场","name:en":"Binhai International Airport","public_transport":"stop_position","subway":"yes"}},{"type":"node","id":13172836365,"lat":39.049411,"lon":117.1888307,"tags":{"name":"王兰庄","public_transport":"stop_position","railway":"stop","subway":"yes"}},{"type":"node","id":13174659528,"lat":38.9809078,"lon":117.2264284,"tags":{"name":"赛达路","name:en":"Saidalu","public_transport":"stop_position","railway":"stop","subway":"yes"}},{"type":"node","id":13174714679,"lat":38.9901617,"lon":117.2231681,"tags":{"name":"芦北路","public_transport":"stop_position","railway":"stop","subway":"yes"}},{"type":"node","id":13174714692,"lat":39.0060272,"lon":117.2156809,"tags":{"name":"宏源道","public_transport":"stop_position","railway":"stop","subway":"yes"}},{"type":"node","id":13174715501,"lat":39.0181528,"lon":117.209923,"tags":{"name":"兴华道","public_transport":"stop_position","railway":"stop","subway":"yes"}},{"type":"node","id":13174715510,"lat":39.0278606,"lon":117.2116349,"tags":{"name":"张道口","public_transport":"stop_position","railway":"stop","subway":"yes"}},{"type":"node","id":13174715519,"lat":39.0357318,"lon":117.1994401,"tags":{"name":"梅江会展中心南","public_transport":"stop_position","railway":"stop","subway":"yes"}},{"type":"node","id":13174715531,"lat":39.0493747,"lon":117.1888732,"tags":{"name":"王兰庄","public_transport":"stop_position","railway":"stop","subway":"yes"}},{"type":"node","id":13174715551,"lat":39.0790268,"lon":117.1756743,"tags":{"name":"肿瘤医院","name:en":"Zhongliuiyuan","public_transport":"stop_position","railway":"stop","subway":"yes"}},{"type":"node","id":13174715552,"lat":39.0605016,"lon":117.186548,"tags":{"name":"丽江道","name:en":"Lijiangdao","public_transport":"stop_position","railway":"stop","subway":"yes"}},{"type":"node","id":13174715669,"lat":39.0934421,"lon":117.173008,"tags":{"name":"天塔","name:en":"Tianta","public_transport":"stop_position","railway":"stop","subway":"yes"}},{"type":"node","id":13174715680,"lat":39.1012283,"lon":117.173388,"tags":{"name":"南开大学八里台","name:en":"Nankaidaxuebalitai","public_transport":"stop_position","railway":"stop","subway":"yes"}},{"type":"node","id":13174715685,"lat":39.1116244,"lon":117.1732768,"tags":{"name":"天津大学六里台","public_transport":"stop_position","railway":"stop","subway":"yes"}},{"type":"node","id":13174715689,"lat":39.1189396,"lon":117.1734758,"tags":{"name":"海光寺","name:en":"Haiguangsi","public_transport":"stop_position","railway":"stop","subway":"yes"}},{"type":"node","id":13174715694,"lat":39.1344279,"lon":117.174774,"tags":{"name":"鼓楼","name:en":"Gulou","public_transport":"stop_position","railway":"stop","subway":"yes"}},{"type":"node","id":13174715697,"lat":39.1281096,"lon":117.1742885,"tags":{"name":"福安大街","name:en":"Fu'an Street","public_transport":"stop_position","railway":"stop","subway":"yes"}},{"type":"node","id":13325803473,"lat":39.0445205,"lon":117.2636598,"tags":{"name":"渌水道","name:en":"Lushui Avenue","public_transport":"stop_position","railway":"stop","subway":"yes"}},{"type":"node","id":13364981094,"lat":39.2203758,"lon":117.8239498,"tags":{"name":"汉沽医院","public_transport":"stop_position","railway":"stop","subway":"yes"}},{"type":"node","id":13380405122,"lat":39.2262248,"lon":117.8115926,"tags":{"construction:public_transport":"stop_position","name":"寨上","name:en":"Zhangshang","public_transport":"stop_position","railway":"stop","subway":"yes"}},{"type":"node","id":13380405123,"lat":39.2262644,"lon":117.8116666,"tags":{"construction:public_transport":"stop_position","name":"寨上","name:en":"Zhangshang","public_transport":"stop_position","railway":"stop","subway":"yes"}},{"type":"node","id":13380405126,"lat":39.0925721,"lon":117.7179133,"tags":{"name":"北塘","name:en":"Beitang","public_transport":"stop_position","railway":"stop","subway":"yes"}},{"type":"node","id":13380405127,"lat":39.0923137,"lon":117.7180696,"tags":{"name":"北塘","name:en":"Beitang","public_transport":"stop_position","railway":"stop","subway":"yes"}},{"type":"node","id":13408640449,"lat":39.1909795,"lon":117.20853,"tags":{"name":"张兴庄","name:en":"Zhangxingzhuang","public_transport":"stop_position","railway":"stop","subway":"yes"}},{"type":"node","id":13409106205,"lat":39.1373127,"lon":117.2037113,"tags":{"name":"天津站","name:en":"Tianjin Station","name:zh":"天津站","name:zh-Hans":"天津站","name:zh-Hant":"天津站","public_transport":"stop_position","railway":"stop","subway":"yes"}},{"type":"node","id":13418397033,"lat":39.0444139,"lon":117.2625095,"tags":{"name":"渌水道","name:en":"Lushui Avenue","public_transport":"stop_position","railway":"stop","subway":"yes"}},{"type":"node","id":13430447620,"lat":38.9483597,"lon":117.0732446,"tags":{"name":"团泊医学园","name:en":"Tuanboyixueyuan","public_transport":"stop_position","railway":"stop","subway":"yes"}},{"type":"node","id":13430447968,"lat":39.2053261,"lon":117.3119913,"tags":{"name":"南孙庄","name:en":"Nansunzhuang","public_transport":"stop_position","railway":"stop","subway":"yes"}},{"type":"node","id":13435826431,"lat":39.2514674,"lon":117.1571914,"tags":{"name":"丹河北道","name:en":"Danhebeidao","public_transport":"stop_position","railway":"stop","subway":"yes"}},{"type":"node","id":13435826460,"lat":39.2092799,"lon":117.1932189,"tags":{"name":"辽河北道","name:en":"Liaohebeidao","public_transport":"stop_position","railway":"stop","subway":"yes"}},{"type":"node","id":13435826461,"lat":39.2174727,"lon":117.1862052,"tags":{"name":"淮河道","name:en":"Huaihedao","public_transport":"stop_position","railway":"stop","subway":"yes"}},{"type":"node","id":13435826467,"lat":39.1866102,"lon":117.2123792,"tags":{"name":"志成路","name:en":"Zhichenglu","public_transport":"stop_position","railway":"stop","subway":"yes"}},{"type":"node","id":13435826477,"lat":39.1820625,"lon":117.2209266,"tags":{"name":"思源路","name:en":"Siyuanlu","public_transport":"stop_position","railway":"stop","subway":"yes"}},{"type":"node","id":13435826487,"lat":39.1787352,"lon":117.2283908,"tags":{"name":"建昌道","name:en":"Jianchangdao","public_transport":"stop_position","railway":"stop","subway":"yes"}},{"type":"node","id":13435826503,"lat":39.1644865,"lon":117.2399408,"tags":{"name":"月牙河","name:en":"Yueyahe","public_transport":"stop_position","railway":"stop","subway":"yes"}},{"type":"node","id":13435826519,"lat":39.12924,"lon":117.2393083,"tags":{"name":"成林道","name:en":"Chenglindao","public_transport":"stop_position","railway":"stop","subway":"yes"}},{"type":"node","id":13435826534,"lat":39.1168553,"lon":117.2364395,"tags":{"name":"津塘路","name:en":"Jintanglu","public_transport":"stop_position","railway":"stop","subway":"yes"}},{"type":"node","id":13435826539,"lat":39.1099352,"lon":117.2276349,"tags":{"name":"直沽","name:en":"Zhigu","public_transport":"stop_position","railway":"stop","subway":"yes"}},{"type":"node","id":13435826563,"lat":39.0945908,"lon":117.2098699,"tags":{"name":"西南楼","name:en":"Xinanlou","public_transport":"stop_position","railway":"stop","station":"subway","subway":"yes"}},{"type":"node","id":13435826579,"lat":39.0880863,"lon":117.2022176,"tags":{"name":"文化中心","name:en":"Wenhuazhongxin","public_transport":"stop_position","railway":"stop","subway":"yes"}},{"type":"node","id":13435826609,"lat":39.0668982,"lon":117.1656687,"tags":{"name":"凌宾路","name:en":"Lingbinlu","public_transport":"stop_position","railway":"stop","subway":"yes"}},{"type":"node","id":13435826624,"lat":39.055695,"lon":117.178337,"tags":{"name":"昌凌路","name:en":"Changlinglu","public_transport":"stop_position","railway":"stop","subway":"yes"}},{"type":"node","id":13437920361,"lat":39.2052181,"lon":117.2847408,"tags":{"name":"南何庄","name:en":"Nanhezhuang","public_transport":"stop_position","railway":"stop","subway":"yes"}},{"type":"node","id":13437920367,"lat":39.2020824,"lon":117.2728792,"tags":{"name":"大毕庄","name:en":"Dabizhuang","public_transport":"stop_position","railway":"stop","subway":"yes"}},{"type":"node","id":13437920382,"lat":39.1907212,"lon":117.248083,"tags":{"name":"徐庄子","name:en":"Xuzhuangzi","public_transport":"stop_position","railway":"stop","subway":"yes"}},{"type":"node","id":13437920393,"lat":39.1707216,"lon":117.2363244,"tags":{"name":"金钟河大街","name:en":"Jinzhonghedajie","public_transport":"stop_position","railway":"stop","subway":"yes"}},{"type":"node","id":13437920400,"lat":39.167667,"lon":117.2274852,"tags":{"name":"民权门","name:en":"Minquanmen","public_transport":"stop_position","railway":"stop","subway":"yes"}},{"type":"node","id":13437920440,"lat":39.1551986,"lon":117.1585438,"tags":{"name":"西站","name:en":"Xizhan","name:zh":"西站","name:zh-Hans":"西站","name:zh-Hant":"西站","public_transport":"stop_position","railway":"stop","station":"subway","subway":"yes"}},{"type":"node","id":13437920461,"lat":39.136233,"lon":117.1430326,"tags":{"name":"长虹公园","name:en":"Changhong­gongyuan","public_transport":"stop_position","railway":"stop","station":"subway","subway":"yes"}},{"type":"node","id":13437920462,"lat":39.1253023,"lon":117.1430058,"tags":{"name":"宜宾道","name:en":"Yibindao","public_transport":"stop_position","railway":"stop","subway":"yes"}},{"type":"node","id":13437920481,"lat":39.0789555,"lon":117.1523077,"tags":{"name":"南翠屏","name:en":"Nancuiping","public_transport":"stop_position","subway":"yes"}},{"type":"node","id":13437920484,"lat":39.0783597,"lon":117.1665209,"tags":{"name":"水上公园东路","name:en":"Shuishanggongyuandonglu","public_transport":"stop_position","railway":"stop","subway":"yes"}},{"type":"node","id":13439770291,"lat":39.0903447,"lon":117.210898,"tags":{"name":"乐园道","name:en":"Leyuandao","public_transport":"stop_position","railway":"stop","subway":"yes"}},{"type":"node","id":13439820313,"lat":39.0684291,"lon":117.2192285,"tags":{"name":"梅江道","name:en":"Meijiangdao","public_transport":"stop_position","railway":"stop","subway":"yes"}},{"type":"node","id":13439820339,"lat":39.0588257,"lon":117.2112322,"tags":{"name":"左江道","name:en":"Zuojiangdao","public_transport":"stop_position","railway":"stop","subway":"yes"}},{"type":"node","id":13441873790,"lat":39.0439367,"lon":117.2486215,"tags":{"name":"梅林路","name:en":"Meilin Road","public_transport":"stop_position","railway":"stop","subway":"yes"}},{"type":"node","id":13442376653,"lat":39.1022165,"lon":117.1430227,"tags":{"name":"一中心医院","name:en":"Yizhongxinyiyuan","public_transport":"stop_position","railway":"stop","subway":"yes"}},{"type":"node","id":13447592865,"lat":39.1442262,"lon":117.0844722,"tags":{"name":"曹庄","name:en":"Caozhuang","public_transport":"stop_position","railway":"stop","subway":"yes"}},{"type":"node","id":13447592871,"lat":39.1450642,"lon":117.1030851,"tags":{"name":"卞兴","name:en":"Bianxing","public_transport":"stop_position","subway":"yes"}},{"type":"node","id":13447592877,"lat":39.141081,"lon":117.1137182,"tags":{"name":"芥园西道","name:en":"Jieyuanxidao","public_transport":"stop_position","subway":"yes"}},{"type":"node","id":13447592888,"lat":39.1366565,"lon":117.1427363,"tags":{"name":"长虹公园","name:en":"Changhong­gongyuan","public_transport":"stop_position","railway":"stop","subway":"yes"}},{"type":"node","id":13447592891,"lat":39.1363295,"lon":117.1670397,"tags":{"name":"西南角","name:en":"Xi'nanjiao","public_transport":"stop_position","subway":"yes"}},{"type":"node","id":13447592895,"lat":39.1359049,"lon":117.1843595,"tags":{"name":"东南角","name:en":"Dongnanjiao","public_transport":"stop_position","railway":"stop","subway":"yes"}},{"type":"node","id":13447598806,"lat":39.1378996,"lon":117.1946589,"tags":{"name":"建国道意风区","name:en":"Jianguodaoyifengqu","public_transport":"stop_position","subway":"yes"}},{"type":"node","id":13447662272,"lat":39.1404854,"lon":117.2276237,"tags":{"name":"顺驰桥","name:en":"Shunchiqiao","public_transport":"stop_position","railway":"stop","subway":"yes"}},{"type":"node","id":13447662287,"lat":39.1464596,"lon":117.2737228,"tags":{"name":"屿东城","name:en":"Yudongcheng","public_transport":"stop_position","subway":"yes"}},{"type":"node","id":13447662291,"lat":39.1501109,"lon":117.2903441,"tags":{"name":"登州路","name:en":"Dengzhoulu","public_transport":"stop_position","subway":"yes"}},{"type":"node","id":13447662293,"lat":39.153233,"lon":117.3027439,"tags":{"name":"国山路","name:en":"Guoshanlu","public_transport":"stop_position","subway":"yes"}},{"type":"node","id":13447670212,"lat":39.1430806,"lon":117.2506985,"tags":{"name":"翠阜新村","name:en":"Cuifuxincun","public_transport":"stop_position","subway":"yes"}},{"type":"node","id":13452521434,"lat":39.0629658,"lon":117.2706477,"tags":{"name":"财经大学","name:en":"Caijingdaxue","public_transport":"stop_position","railway":"stop","subway":"yes","wikidata":"Q5017532"}},{"type":"node","id":13455769361,"lat":39.208062,"lon":117.8441856,"tags":{"name":"中心渔港","public_transport":"stop_position","railway":"stop","subway":"yes"}},{"type":"node","id":13455769362,"lat":39.2080415,"lon":117.844138,"tags":{"name":"中心渔港","public_transport":"stop_position","railway":"stop","subway":"yes"}},{"type":"node","id":13455769363,"lat":39.1819337,"lon":117.8121366,"tags":{"name":"玉砂道","public_transport":"stop_position","railway":"stop","subway":"yes"}},{"type":"node","id":13455769364,"lat":39.1818964,"lon":117.8121682,"tags":{"name":"玉砂道","public_transport":"stop_position","railway":"stop","subway":"yes"}},{"type":"node","id":13455769384,"lat":39.1656008,"lon":117.7956082,"tags":{"name":"航母公园","public_transport":"stop_position","railway":"stop","subway":"yes"}},{"type":"node","id":13455769385,"lat":39.1655516,"lon":117.7957506,"tags":{"name":"航母公园","public_transport":"stop_position","railway":"stop","subway":"yes"}},{"type":"node","id":13455769389,"lat":39.1494785,"lon":117.7858224,"tags":{"name":"软件园","public_transport":"stop_position","railway":"stop","subway":"yes"}},{"type":"node","id":13455769395,"lat":39.1343103,"lon":117.7726201,"tags":{"name":"绿创园","public_transport":"stop_position","railway":"stop","subway":"yes"}},{"type":"node","id":13455769396,"lat":39.1342876,"lon":117.7726649,"tags":{"name":"绿创园","public_transport":"stop_position","railway":"stop","subway":"yes"}},{"type":"node","id":13455807305,"lat":39.1179165,"lon":117.7565116,"tags":{"name":"和顺路","public_transport":"stop_position","railway":"stop","subway":"yes"}},{"type":"node","id":13455807306,"lat":39.11789,"lon":117.7565569,"tags":{"name":"和顺路","public_transport":"stop_position","railway":"stop","subway":"yes"}},{"type":"node","id":13455807315,"lat":39.107245,"lon":117.7459563,"tags":{"name":"中新生态城","public_transport":"stop_position","railway":"stop","subway":"yes"}},{"type":"node","id":13455807316,"lat":39.1072168,"lon":117.746008,"tags":{"name":"中新生态城","public_transport":"stop_position","railway":"stop","subway":"yes"}},{"type":"node","id":13461971298,"lat":39.1990064,"lon":117.1153767,"tags":{"name":"瑞景新苑","name:en":"Ruijingxinyuan","public_transport":"stop_position","railway":"stop","subway":"yes"}},{"type":"node","id":13461971299,"lat":39.1908026,"lon":117.1217028,"tags":{"name":"佳园里","name:en":"Jiayuanli","public_transport":"stop_position","railway":"stop","subway":"yes","wikidata":"Q5619666"}},{"type":"node","id":13461971309,"lat":39.1842714,"lon":117.1329833,"tags":{"name":"本溪路","name:en":"Benxilu","public_transport":"stop_position","railway":"stop","subway":"yes"}},{"type":"node","id":13461971334,"lat":39.1697103,"lon":117.155505,"tags":{"name":"洪湖里","name:en":"Honghuli","public_transport":"stop_position","railway":"stop","subway":"yes"}},{"type":"node","id":13461971342,"lat":39.1554214,"lon":117.160335,"tags":{"name":"西站","name:en":"Xizhan","name:zh":"西站","name:zh-Hans":"西站","name:zh-Hant":"西站","public_transport":"stop_position","railway":"stop","subway":"yes"}},{"type":"node","id":13461971354,"lat":39.1364828,"lon":117.1656398,"tags":{"name":"西南角","name:en":"Xi'nanjiao","name:zh":"西南角","name:zh-Hans":"西南角","name:zh-Hant":"西南角","public_transport":"stop_position","railway":"stop","subway":"yes","wheelchair":"yes"}},{"type":"node","id":13461971360,"lat":39.1301105,"lon":117.1683761,"tags":{"name":"二纬路","name:en":"Erweilu","name:zh":"二纬路","name:zh-Hans":"二纬路","name:zh-Hant":"二緯路","public_transport":"stop_position","railway":"stop","subway":"yes","wheelchair":"yes"}},{"type":"node","id":13461971368,"lat":39.1212524,"lon":117.1711744,"tags":{"name":"海光寺","name:en":"Haiguangsi","name:zh":"海光寺","name:zh-Hans":"海光寺","name:zh-Hant":"海光寺","public_transport":"stop_position","railway":"stop","station":"subway","subway":"yes","wikidata":"Q5639117","wikipedia":"en:Haiguangsi station"}},{"type":"node","id":13461971375,"lat":39.1191828,"lon":117.182193,"tags":{"name":"鞍山道","name:en":"Anshandao","public_transport":"stop_position","railway":"stop","subway":"yes"}},{"type":"node","id":13461971392,"lat":39.1139431,"lon":117.2090145,"tags":{"name":"小白楼","name:en":"Xiaobailou","public_transport":"stop_position","railway":"stop","subway":"yes"}},{"type":"node","id":13461971425,"lat":39.0953892,"lon":117.2175296,"tags":{"name":"南楼","name:en":"Nanlou","public_transport":"stop_position","railway":"stop","subway":"yes"}},{"type":"node","id":13461971438,"lat":39.0883852,"lon":117.2257501,"tags":{"name":"土城","name:en":"Tucheng","public_transport":"stop_position","railway":"stop","subway":"yes","wheelchair":"yes"}},{"type":"node","id":13461971463,"lat":39.0762825,"lon":117.2539116,"tags":{"name":"复兴门","name:en":"Fuxingmen","public_transport":"stop_position","railway":"stop","subway":"yes"}},{"type":"node","id":13461971498,"lat":39.065171,"lon":117.2556424,"tags":{"name":"华山里","name:en":"Huashanli","public_transport":"stop_position","railway":"stop","subway":"yes"}},{"type":"node","id":13462060028,"lat":39.1417278,"lon":117.2379873,"tags":{"name":"靖江路","name:en":"Jingjianglu","public_transport":"stop_position","railway":"stop","subway":"yes"}},{"type":"node","id":13462060030,"lat":39.1357514,"lon":117.2157449,"tags":{"description:en":"Yuanyang International Center","name":"远洋国际中心","name:en":"Yuanyang­guoji­zhongxin","public_transport":"stop_position","railway":"stop","station":"subway","subway":"yes"}},{"type":"node","id":13462060031,"lat":39.1361461,"lon":117.1748248,"tags":{"name":"鼓楼","name:en":"Gulou","public_transport":"stop_position","railway":"stop","subway":"yes"}},{"type":"node","id":13462060032,"lat":39.1365628,"lon":117.1549979,"tags":{"name":"广开四马路","name:en":"Guangkai­simalu","public_transport":"stop_position","subway":"yes"}},{"type":"node","id":13462060043,"lat":39.1366411,"lon":117.1289347,"tags":{"name":"咸阳路","name:en":"Xianyanglu","public_transport":"stop_position","railway":"stop","subway":"yes"}},{"type":"node","id":13462219819,"lat":39.0533793,"lon":117.310924,"tags":{"name":"李楼","name:en":"Lilou","public_transport":"stop_position","subway":"yes"}},{"type":"node","id":13462219826,"lat":39.0466113,"lon":117.3384257,"tags":{"name":"洪泥河东","name:en":"Hongnihedong","public_transport":"stop_position","railway":"stop","subway":"yes"}},{"type":"node","id":13462219832,"lat":39.0418959,"lon":117.3547702,"tags":{"name":"高庄子","name:en":"Gaozhuangzi","public_transport":"stop_position","railway":"stop","subway":"yes"}},{"type":"node","id":13462219848,"lat":39.0208319,"lon":117.3842172,"tags":{"name":"国瑞路","name:en":"Guoruilu","operator":"天津轨道交通集团有限公司","public_transport":"stop_position","railway":"stop","subway":"yes","wikidata":"Q81973369"}},{"type":"node","id":13462219864,"lat":39.0110783,"lon":117.4022137,"tags":{"name":"东沽路","name:en":"Donggulu","public_transport":"stop_position","railway":"stop","subway":"yes"}},{"type":"node","id":13462469737,"lat":39.1771446,"lon":117.1472865,"tags":{"name":"勤俭道","name:en":"Qinjiandao","public_transport":"stop_position","railway":"stop","subway":"yes"}},{"type":"node","id":13462469740,"lat":39.2067518,"lon":117.1094454,"tags":{"name":"刘园","name:en":"Liuyuan","name:zh":"刘圆","public_transport":"stop_position","railway":"stop","subway":"yes","wheelchair":"yes","wikidata":"Q5973968"}},{"type":"node","id":13462469741,"lat":39.1459504,"lon":117.165028,"tags":{"internet_access":"yes","name":"西北角","name:en":"Xibeijiao","name:zh":"西北角","name:zh-Hans":"西北角","name:zh-Hant":"西北角","public_transport":"stop_position","railway":"stop","subway":"yes","wheelchair":"limited"}},{"type":"node","id":13462469747,"lat":39.1175367,"lon":117.1914736,"tags":{"air_conditioning":"yes","internet_access":"yes","name":"营口道","name:en":"Yingkoudao","name:zh":"营口道","name:zh-Hans":"营口道","name:zh-Hant":"營口道","public_transport":"stop_position","railway":"stop","subway":"yes","wheelchair":"no"}},{"type":"node","id":13462469748,"lat":39.1043832,"lon":117.2165644,"tags":{"name":"下瓦房","name:en":"Xiawafang","public_transport":"stop_position","railway":"stop","subway":"yes"}},{"type":"node","id":13462469749,"lat":39.0825409,"lon":117.2422461,"tags":{"name":"陈塘庄","name:en":"Chentangzhuang","public_transport":"stop_position","railway":"stop","subway":"yes"}},{"type":"node","id":13462469752,"lat":39.0278659,"lon":117.3775744,"tags":{"name":"国家会展中心","name:en":"Guojiahuizhanzhongxin","operator":"天津轨道交通集团有限公司","public_transport":"stop_position","subway":"yes"}},{"type":"node","id":13462507404,"lat":39.0426732,"lon":117.2395377,"tags":{"name":"洞庭路","name:en":"Dongtinglu","public_transport":"stop_position","railway":"stop","subway":"yes"}},{"type":"node","id":13462507409,"lat":39.198855,"lon":117.2592676,"tags":{"name":"金钟街","name:en":"Jinzhongjie","public_transport":"stop_position","railway":"stop","subway":"yes"}},{"type":"node","id":13468363849,"lat":39.2670921,"lon":117.1431987,"tags":{"name":"北辰科技园北","name:en":"Beichenkejiyuanbei","public_transport":"stop_position","railway":"stop","subway":"yes"}},{"type":"node","id":13478851871,"lat":39.0727947,"lon":117.1660465,"tags":{"name":"体育中心","name:en":"Tiyuzhongxin","public_transport":"stop_position","railway":"stop","subway":"yes"}},{"type":"node","id":13478851874,"lat":39.0448704,"lon":117.1783451,"tags":{"name":"中医一附院","name:en":"Zhongyiyifuyuan","public_transport":"stop_position","railway":"stop","subway":"yes"}},{"type":"node","id":13481429185,"lat":39.1154633,"lon":117.143031,"tags":{"name":"鞍山西道","name:en":"Anshanxidao","public_transport":"stop_position","railway":"stop","subway":"yes"}},{"type":"node","id":13481429187,"lat":39.1079051,"lon":117.1430379,"tags":{"name":"天拖","name:en":"Tiantuo","public_transport":"stop_position","railway":"stop","subway":"yes"}},{"type":"node","id":13481429189,"lat":39.1454953,"lon":117.1432871,"tags":{"name":"人民医院","name:en":"Renminyiyuan","public_transport":"stop_position","railway":"stop","subway":"yes"}},{"type":"node","id":13481429192,"lat":39.0856426,"lon":117.1430124,"tags":{"name":"迎风道","name:en":"Yingfengdao","public_transport":"stop_position","railway":"stop","subway":"yes"}},{"type":"node","id":13481429196,"lat":39.0397687,"lon":117.2275828,"tags":{"name":"解放南路","name:en":"Jiefangnanlu","public_transport":"stop_position","railway":"stop","subway":"yes"}},{"type":"node","id":13481429197,"lat":39.0437727,"lon":117.2113436,"tags":{"name":"梅江会展中心","name:en":"Meijianghuizhanzhongxin","public_transport":"stop_position","railway":"stop","subway":"yes"}},{"type":"node","id":13481429198,"lat":39.0437687,"lon":117.2113857,"tags":{"name":"梅江会展中心","name:en":"Meijianghuizhanzhongxin","public_transport":"stop_position","railway":"stop","subway":"yes"}},{"type":"node","id":13481461002,"lat":39.0870546,"lon":117.2177107,"tags":{"name":"尖山路","name:en":"Jianshanlu","public_transport":"stop_position","railway":"stop","subway":"yes"}},{"type":"node","id":13481461004,"lat":39.0796193,"lon":117.2176753,"tags":{"name":"医大二院","name:en":"Yidaeryuan","public_transport":"stop_position","railway":"stop","subway":"yes"}},{"type":"node","id":13481870348,"lat":39.2301594,"lon":117.1754597,"tags":{"name":"职业大学","name:en":"Zhiyedaxue","public_transport":"stop_position","railway":"stop","subway":"yes"}},{"type":"node","id":13481870350,"lat":39.2395372,"lon":117.1673776,"tags":{"name":"北辰道","name:en":"Beichendao","public_transport":"stop_position","railway":"stop","subway":"yes"}},{"type":"node","id":13481870352,"lat":39.2023473,"lon":117.1991341,"tags":{"name":"宜兴埠北","name:en":"Yixingbubei","public_transport":"stop_position","railway":"stop","subway":"yes"}},{"type":"node","id":13481870354,"lat":39.0843438,"lon":117.192535,"tags":{"name":"天津宾馆","name:en":"Tianjinbinguan","public_transport":"stop_position","railway":"stop","subway":"yes"}},{"type":"node","id":13481870355,"lat":39.0844603,"lon":117.1924324,"tags":{"name":"天津宾馆","name:en":"Tianjinbinguan","public_transport":"stop_position","railway":"stop","subway":"yes"}},