{"version":0.6,"generator":"Overpass API 0.7.62.4 2390de5a","osm3s":{"timestamp_osm_base":"2026-07-10T13:27:23Z","copyright":"The data included in this document is from www.openstreetmap.org. The data is made available under ODbL."},"elements":[{"type":"node","id":1012690887,"lat":41.8064316,"lon":123.4826902,"tags":{"name":"滂江街","name:en":"Pangjiangjie","public_transport":"station","railway":"station","station":"subway","subway":"yes","wikidata":"Q11564545","wikipedia":"en:Pangjiangjie station"}},{"type":"node","id":4068159530,"lat":41.7630021,"lon":123.2536001,"tags":{"name":"七号街","name:en":"Qihaojie","public_transport":"station","railway":"station","station":"subway","subway":"yes","wikidata":"Q10864528","wikipedia":"en:Qihaojie station"}},{"type":"node","id":4068159531,"lat":41.7630323,"lon":123.2368927,"tags":{"name":"中央大街","name:en":"Zhongyangdajie","public_transport":"station","railway":"station","station":"subway","subway":"yes","wikidata":"Q10875065","wikipedia":"en:Zhongyangdajie station"}},{"type":"node","id":4068168494,"lat":41.7919584,"lon":123.2998403,"tags":{"name":"于洪广场","name:en":"Yuhongguangchang","public_transport":"station","railway":"station","station":"subway","subway":"yes","wikidata":"Q10880644","wikipedia":"en:Yuhongguangchang station"}},{"type":"node","id":4068168495,"lat":41.7637553,"lon":123.2715225,"tags":{"name":"四号街","name:en":"Sihaojie","public_transport":"station","railway":"station","station":"subway","subway":"yes","wikidata":"Q10924581","wikipedia":"en:Sihaojie station"}},{"type":"node","id":4068168496,"lat":41.7786585,"lon":123.2994476,"tags":{"name":"开发大道","name:en":"Kaifadadao","public_transport":"station","railway":"station","station":"subway","subway":"yes","wikidata":"Q11065701","wikipedia":"en:Kaifadadao station"}},{"type":"node","id":4068168497,"lat":41.7692469,"lon":123.2877819,"tags":{"name":"张士","name:en":"Zhangshi","public_transport":"station","railway":"station","station":"subway","subway":"yes","wikidata":"Q11066732","wikipedia":"en:Zhangshi station"}},{"type":"node","id":4068168504,"lat":41.7992557,"lon":123.3036492,"tags":{"name":"迎宾路","name:en":"Yingbinlu","public_transport":"station","railway":"station","station":"subway","subway":"yes","wikidata":"Q11638357","wikipedia":"en:Yingbinlu station"}},{"type":"node","id":4068168505,"lat":41.8026771,"lon":123.3261164,"tags":{"name":"重工街","name:en":"Zhonggongjie","public_transport":"station","railway":"station","station":"subway","subway":"yes","wikidata":"Q11644756","wikipedia":"en:Zhonggongjie station"}},{"type":"node","id":4068169164,"lat":41.7941414,"lon":123.3744057,"tags":{"name":"云峰北街","name:en":"Yunfengbeijie","public_transport":"station","railway":"station","station":"subway","subway":"yes","wikidata":"Q10881206","wikipedia":"en:Yunfengbeijie station"}},{"type":"node","id":4068169165,"lat":41.7980252,"lon":123.3498907,"tags":{"name":"保工街","name:en":"Baogongjie","public_transport":"station","railway":"station","station":"subway","subway":"yes","wikidata":"Q10887651","wikipedia":"en:Baogongjie station"}},{"type":"node","id":4068169166,"lat":41.8013629,"lon":123.3373573,"tags":{"name":"启工街","name:en":"Qigongjie","public_transport":"station","railway":"station","station":"subway","subway":"yes","wikidata":"Q10918543","wikipedia":"en:Qigongjie station"}},{"type":"node","id":4068171741,"lat":41.7869997,"lon":123.4138334,"tags":{"name":"南市场","name:en":"Nanshichang","public_transport":"station","railway":"station","station":"subway","subway":"yes","wikidata":"Q10907754","wikipedia":"en:Nanshichang station"}},{"type":"node","id":4068171742,"lat":41.7871738,"lon":123.4003564,"tags":{"name":"太原街","name:en":"Taiyuanjie","public_transport":"station","railway":"station","station":"subway","subway":"yes"}},{"type":"node","id":4068182756,"lat":41.7946004,"lon":123.4412152,"tags":{"name":"怀远门","name:en":"Huaiyuanmen","public_transport":"station","railway":"station","station":"subway","subway":"yes","wikidata":"Q11495303","wikipedia":"en:Huaiyuanmen station"}},{"type":"node","id":5334815579,"lat":41.7899073,"lon":123.4267044,"tags":{"name":"青年大街","name:en":"Qingniandajie","public_transport":"station","railway":"station","station":"subway","subway":"yes"}},{"type":"node","id":5639801343,"lat":41.9153397,"lon":123.3972305,"tags":{"name":"航空航天大学","name:en":"Shenyang Aerospace University","public_transport":"station","railway":"station","station":"subway","subway":"yes"}},{"type":"node","id":5639801344,"lat":41.7172416,"lon":123.4558636,"tags":{"name":"世纪大厦","name:en":"Century Mansion","public_transport":"station","railway":"station","station":"subway","subway":"yes"}},{"type":"node","id":5639801345,"lat":41.7055283,"lon":123.4755778,"tags":{"name":"全运路","name:en":"Quan Yun Road","public_transport":"station","railway":"station","station":"subway","subway":"yes"}},{"type":"node","id":5639801346,"lat":41.706982,"lon":123.4657448,"tags":{"name":"白塔河路","name:en":"Bai Ta He Road","public_transport":"station","railway":"station","station":"subway","subway":"yes"}},{"type":"node","id":5768586817,"lat":41.7407372,"lon":123.4475795,"tags":{"name":"奥体中心","name:en":"Olympic Sports Center","public_transport":"station","railway":"station","station":"subway","subway":"yes","wikidata":"Q10942479"}},{"type":"node","id":6445848074,"lat":41.8402942,"lon":123.3829894,"tags":{"name":"怒江公园","name:en":"Nujianggongyuan","public_transport":"station","railway":"station","station":"subway","subway":"yes"}},{"type":"node","id":6445850197,"lat":41.7490126,"lon":123.3411391,"tags":{"name":"大通湖街","name:en":"Datonghujie","public_transport":"station","railway":"station","station":"subway","subway":"yes"}},{"type":"node","id":6445850209,"lat":41.7223712,"lon":123.3925404,"tags":{"name":"胜利南街","name:en":"Shenglinanjie","public_transport":"station","railway":"station","station":"subway","subway":"yes","wikidata":"Q64148163"}},{"type":"node","id":6509965510,"lat":41.7449571,"lon":123.5100297,"tags":{"air_conditioning":"yes","level":"-2","name":"建筑大学","name:en":"Jianzhudaxue","operator":"沈阳地铁集团有限公司","public_transport":"station","railway":"station","start_date":"2019-5-25","station":"subway","subway":"yes","wikidata":"Q64148145","wikipedia":"zh:建筑大学站"}},{"type":"node","id":6509965511,"lat":41.7420885,"lon":123.4957851,"tags":{"name":"长青南街","name:en":"Changqingnanjie","public_transport":"station","railway":"station","station":"subway","subway":"yes"}},{"type":"node","id":6509965512,"lat":41.7387905,"lon":123.4787415,"tags":{"name":"朗日街","name:en":"Langrijie","public_transport":"station","railway":"station","station":"subway","subway":"yes","wikidata":"Q64148148"}},{"type":"node","id":6509965517,"lat":41.7412257,"lon":123.462011,"tags":{"name":"天成街","name:en":"Tianchengjie","public_transport":"station","railway":"station","station":"subway","subway":"yes","wikidata":"Q64148151"}},{"type":"node","id":6509965520,"lat":41.7316959,"lon":123.4351933,"tags":{"name":"彩霞街","name:en":"Caixiajie","public_transport":"station","railway":"station","station":"subway","subway":"yes","wikidata":"Q64148156"}},{"type":"node","id":6509965522,"lat":41.7290982,"lon":123.4236342,"tags":{"name":"金阳大街","name:en":"Jinyangdajie","public_transport":"station","railway":"station","station":"subway","subway":"yes","wikidata":"Q64148157"}},{"type":"node","id":6509965523,"lat":41.7272725,"lon":123.4152666,"tags":{"name":"榆树台","name:en":"Yushutai","public_transport":"station","railway":"station","station":"subway","subway":"yes","wikidata":"Q64148158"}},{"type":"node","id":6509965528,"lat":41.7261112,"lon":123.3622548,"tags":{"name":"浑河站","name:en":"Hunhezhan","public_transport":"station","railway":"station","station":"subway","subway":"yes","wikidata":"Q64148164"}},{"type":"node","id":6509965530,"lat":41.7300351,"lon":123.354856,"tags":{"name":"曹仲","name:en":"Caozhong","public_transport":"station","railway":"station","station":"subway","subway":"yes"}},{"type":"node","id":6509971325,"lat":41.7587899,"lon":123.3398322,"tags":{"name":"吉力湖街","name:en":"Jilihujie","public_transport":"station","railway":"station","station":"subway","subway":"yes"}},{"type":"node","id":6509971329,"lat":41.7698511,"lon":123.3526928,"tags":{"name":"滑翔","name:en":"Huaxiang","public_transport":"station","railway":"station","station":"subway","subway":"yes"}},{"type":"node","id":6509971330,"lat":41.7801481,"lon":123.3560011,"tags":{"name":"沈辽路","name:en":"Shenliaolu","public_transport":"station","railway":"station","station":"subway","subway":"yes"}},{"type":"node","id":6509971331,"lat":41.7848958,"lon":123.3595876,"tags":{"name":"兴华公园","name:en":"Xinghuagongyuan","public_transport":"station","railway":"station","station":"subway","subway":"yes"}},{"type":"node","id":6509971334,"lat":41.8026917,"lon":123.3730123,"tags":{"name":"北二路","name:en":"Beierlu","public_transport":"station","railway":"station","station":"subway","subway":"yes"}},{"type":"node","id":6509971339,"lat":41.8104963,"lon":123.3777156,"tags":{"name":"重型文化广场","name:en":"Zhongxingwenhuaguangchang","public_transport":"station","railway":"station","station":"subway","subway":"yes","wikidata":"Q64148199"}},{"type":"node","id":6509971342,"lat":41.828189,"lon":123.3846297,"tags":{"name":"淮河街沈医二院","name:en":"Huaihejieshenyieryuan","public_transport":"station","railway":"station","station":"subway","subway":"yes","wikidata":"Q64148200"}},{"type":"node","id":6690632888,"lat":41.7917107,"lon":123.3646363,"tags":{"name":"铁西广场","name:en":"Tiexiguangchang","public_transport":"station","railway":"station","station":"subway","subway":"yes"}},{"type":"node","id":7484683847,"lat":41.7180725,"lon":123.5078728,"tags":{"name":"张沙布","name:en":"Zhangshabu","public_transport":"station","railway":"station","station":"subway","subway":"yes"}},{"type":"node","id":7484708388,"lat":41.7312233,"lon":123.4992901,"tags":{"name":"理工大学","name:en":"Ligongdaxue","public_transport":"station","railway":"station","station":"subway","subway":"yes"}},{"type":"node","id":7484755795,"lat":41.7584042,"lon":123.4903831,"tags":{"name":"长青桥","name:en":"Changqingqiao","public_transport":"station","railway":"station","station":"subway","subway":"yes"}},{"type":"node","id":7484776104,"lat":41.7673576,"lon":123.4819475,"tags":{"name":"江东街","name:en":"Jiangdongjie","public_transport":"station","railway":"station","station":"subway","subway":"yes"}},{"type":"node","id":7484786201,"lat":41.7752804,"lon":123.472416,"tags":{"name":"泉园","name:en":"Quanyuan","public_transport":"station","railway":"station","station":"subway","subway":"yes"}},{"type":"node","id":7484793316,"lat":41.7881783,"lon":123.4775871,"tags":{"name":"万莲","name:en":"Wanlian","public_transport":"station","railway":"station","station":"subway","subway":"yes","wikidata":"Q97300727"}},{"type":"node","id":7484814792,"lat":41.7969933,"lon":123.4802009,"tags":{"name":"长安路","name:en":"Chang'anlu","public_transport":"station","railway":"station","station":"subway","subway":"yes"}},{"type":"node","id":7484856286,"lat":41.8182394,"lon":123.4757423,"tags":{"name":"东北大马路","name:en":"Dongbeidamalu","public_transport":"station","railway":"station","station":"subway","subway":"yes"}},{"type":"node","id":7484863396,"lat":41.8269648,"lon":123.4678978,"tags":{"name":"合作街","name:en":"Hezuojie","public_transport":"station","railway":"station","station":"subway","subway":"yes","wikidata":"Q97300733"}},{"type":"node","id":7484871961,"lat":41.8310672,"lon":123.4493268,"tags":{"name":"北塔","name:en":"Beita","public_transport":"station","railway":"station","station":"subway","subway":"yes","wikidata":"Q93596981"}},{"type":"node","id":7484886585,"lat":41.8305974,"lon":123.4383505,"tags":{"name":"陵东街","name:en":"Lingdongjie","public_transport":"station","railway":"station","station":"subway","subway":"yes"}},{"type":"node","id":7484922885,"lat":41.8299838,"lon":123.4231551,"tags":{"name":"中医药大学","name:en":"Zhongyiyaodaxue;Liaoning University of Traditional Chinese Medicine","public_transport":"station","railway":"station","station":"subway","subway":"yes"}},{"type":"node","id":7484928524,"lat":41.8285057,"lon":123.3949612,"tags":{"name":"百鸟公园","name:en":"Bainiaogongyuan","public_transport":"station","railway":"station","station":"subway","subway":"yes"}},{"type":"node","id":7484929416,"lat":41.8291586,"lon":123.4073852,"tags":{"name":"长江街","name:en":"Changjiangjie","public_transport":"station","railway":"station","station":"subway","subway":"yes"}},{"type":"node","id":7484929557,"lat":41.8486929,"lon":123.3500838,"tags":{"name":"元江街","name:en":"Yuanjiangjie","public_transport":"station","railway":"station","station":"subway","subway":"yes","wikidata":"Q97300729"}},{"type":"node","id":7484954112,"lat":41.8272089,"lon":123.3682791,"tags":{"name":"塔湾街","name:en":"Tawanjie","public_transport":"station","railway":"station","station":"subway","subway":"yes"}},{"type":"node","id":7484954445,"lat":41.8333263,"lon":123.3577648,"tags":{"name":"向工街","name:en":"Xianggongjie","public_transport":"station","railway":"station","station":"subway","subway":"yes","wikidata":"Q97300734"}},{"type":"node","id":7484956082,"lat":41.8614794,"lon":123.3419241,"tags":{"name":"丁香湖","name:en":"Dingxianghu","public_transport":"station","railway":"station","station":"subway","subway":"yes","wikidata":"Q92825878"}},{"type":"node","id":11224048717,"lat":41.6529147,"lon":123.4071879,"tags":{"name":"创新路","name:en":"Chuangxin Lu","public_transport":"station","railway":"station","station":"subway","subway":"yes","wikidata":"Q122854850"}},{"type":"node","id":11224048728,"lat":41.6658871,"lon":123.4034029,"tags":{"name":"沈阳南站","name:en":"Shenyang South Railway Station","public_transport":"station","railway":"station","station":"subway","subway":"yes","wikidata":"Q122854822"}},{"type":"node","id":11224064833,"lat":41.6877584,"lon":123.3967747,"tags":{"name":"红椿路","name:en":"Hongchun Lu","public_transport":"station","railway":"station","station":"subway","subway":"yes","wikidata":"Q122854825"}},{"type":"node","id":11224118344,"lat":41.6791088,"lon":123.4096225,"tags":{"name":"城建学院","name:en":"Chengjian Xueyuan","public_transport":"station","railway":"station","station":"subway","subway":"yes","wikidata":"Q122854823"}},{"type":"node","id":11224138441,"lat":41.6957539,"lon":123.3929204,"tags":{"name":"云杉路","name:en":"Yunshan Lu","public_transport":"station","railway":"station","station":"subway","subway":"yes","wikidata":"Q122854826"}},{"type":"node","id":11224138447,"lat":41.7079637,"lon":123.3999397,"tags":{"name":"金仓路","name:en":"Jincang Lu","public_transport":"station","railway":"station","station":"subway","subway":"yes","wikidata":"Q122854827"}},{"type":"node","id":11224138458,"lat":41.7248316,"lon":123.4032093,"tags":{"name":"长白南","name:en":"Changbainan","public_transport":"station","railway":"station","station":"subway","subway":"yes","wikidata":"Q64148160"}},{"type":"node","id":11224146925,"lat":41.8367434,"lon":123.4718041,"tags":{"name":"北大营","name:en":"Beidaying","public_transport":"station","railway":"station","station":"subway","subway":"yes","wikidata":"Q122854832"}},{"type":"node","id":11224146928,"lat":41.8458923,"lon":123.4765449,"tags":{"name":"观泉路","name:en":"Guanquan Lu","public_transport":"station","railway":"station","station":"subway","subway":"yes","wikidata":"Q122854831"}},{"type":"node","id":11224146935,"lat":41.8621027,"lon":123.4851334,"tags":{"name":"望花","name:en":"Wanghua","public_transport":"station","railway":"station","station":"subway","subway":"yes","wikidata":"Q122854830"}},{"type":"node","id":11224147541,"lat":41.7388151,"lon":123.3970778,"tags":{"name":"长白岛","name:en":"Changbaidao","public_transport":"station","railway":"station","station":"subway","subway":"yes","wikidata":"Q122854835"}},{"type":"node","id":11224147546,"lat":41.7492077,"lon":123.3929499,"tags":{"name":"南京桥","name:en":"Nanjingqiao","public_transport":"station","railway":"station","station":"subway","subway":"yes","wikidata":"Q122854836"}},{"type":"node","id":11224147554,"lat":41.7651149,"lon":123.3855035,"tags":{"name":"砂阳","name:en":"Shayang","public_transport":"station","railway":"station","station":"subway","subway":"yes","wikidata":"Q122854837"}},{"type":"node","id":11224147563,"lat":41.7808134,"lon":123.3939745,"tags":{"name":"南五马路","name:en":"Nanwu Malu","public_transport":"station","railway":"station","station":"subway","subway":"yes","wikidata":"Q122854821"}},{"type":"node","id":11224150327,"lat":41.8015793,"lon":123.4097754,"tags":{"name":"市府大路","name:en":"Shifu Dalu","public_transport":"station","railway":"station","station":"subway","subway":"yes","wikidata":"Q122854838"}},{"type":"node","id":11224150330,"lat":41.808827,"lon":123.4142144,"tags":{"name":"皇寺路","name:en":"Huangsi Lu","public_transport":"station","railway":"station","station":"subway","subway":"yes","wikidata":"Q122854839"}},{"type":"node","id":11224161464,"lat":41.8163577,"lon":123.4509687,"tags":{"name":"沈阳大学","name:en":"Shenyang University","public_transport":"station","railway":"station","station":"subway","subway":"yes","wikidata":"Q122854833"}},{"type":"node","id":11224161465,"lat":41.8197889,"lon":123.4611343,"tags":{"name":"洮昌街","name:en":"Taochangjie","public_transport":"station","railway":"station","station":"subway","subway":"yes","wikidata":"Q122854834"}},{"type":"node","id":11224161741,"lat":41.8144633,"lon":123.4311124,"tags":{"name":"沈阳北站","name:en":"Shenyang North Railway Station","public_transport":"station","railway":"station","station":"subway","subway":"yes","wikidata":"Q15917073"}},{"type":"node","id":11224179346,"lat":41.8686405,"lon":123.4805522,"tags":{"name":"文官街","name:en":"Wenguan Jie","public_transport":"station","railway":"station","station":"subway","subway":"yes","wikidata":"Q122854829"}},{"type":"node","id":11224179358,"lat":41.8803341,"lon":123.4742329,"tags":{"name":"正新路","name:en":"Zhengxinlu","public_transport":"station","railway":"station","station":"subway","subway":"yes","wikidata":"Q122854824"}},{"type":"node","id":11224378604,"lat":41.6910029,"lon":123.4733308,"tags":{"name":"沈本大街","name:en":"Shenben Dajie","public_transport":"station","railway":"station","station":"subway","subway":"yes","wikidata":"Q113435101"}},{"type":"node","id":11224378635,"lat":41.6858094,"lon":123.4584041,"tags":{"name":"沈中大街","name:en":"Shenzhen Dajie","public_transport":"station","railway":"station","station":"subway","subway":"yes","wikidata":"Q113435095"}},{"type":"node","id":11224418444,"lat":41.6765524,"lon":123.4520933,"tags":{"name":"省博物馆","public_transport":"station","railway":"station","station":"subway","subway":"yes","wikidata":"Q113435091"}},{"type":"node","id":11224418450,"lat":41.6641664,"lon":123.4519297,"tags":{"name":"中央公园","public_transport":"station","railway":"station","station":"subway","subway":"yes","wikidata":"Q113435079"}},{"type":"node","id":11224434151,"lat":41.6487597,"lon":123.451809,"tags":{"name":"创新一路","public_transport":"station","railway":"station","station":"subway","subway":"yes","wikidata":"Q113435078"}},{"type":"node","id":11224434159,"lat":41.6377916,"lon":123.4517526,"tags":{"name":"综合保税区","name:en":"Zonghe Baoshuiqu","public_transport":"station","railway":"station","station":"subway","subway":"yes","wikidata":"Q113435070"}},{"type":"node","id":11224434181,"lat":41.6314388,"lon":123.4885713,"tags":{"name":"桃仙机场","name:en":"Taoxian Airport","public_transport":"station","railway":"station","station":"subway","subway":"yes","wikidata":"Q113435045"}},{"type":"node","id":11224475038,"lat":41.7283072,"lon":123.4505196,"tags":{"name":"营盘街","name:en":"Ying Pan Street","public_transport":"station","railway":"station","station":"subway","subway":"yes"}},{"type":"node","id":11224475047,"lat":41.750779,"lon":123.4343687,"tags":{"name":"五里河","name:en":"Wu Li He","public_transport":"station","railway":"station","station":"subway","subway":"yes"}},{"type":"node","id":11224490170,"lat":41.7575812,"lon":123.4292873,"tags":{"name":"市图书馆","name:en":"Shenyang Library","public_transport":"station","railway":"station","station":"subway","subway":"yes"}},{"type":"node","id":11224490174,"lat":41.7708814,"lon":123.4293007,"tags":{"name":"工业展览馆","name:en":"Industrial Exhibition Hall","public_transport":"station","railway":"station","station":"subway","subway":"yes"}},{"type":"node","id":11224490179,"lat":41.7824169,"lon":123.4296842,"tags":{"name":"青年公园","name:en":"Qing Nian Park","public_transport":"station","railway":"station","station":"subway","subway":"yes"}},{"type":"node","id":11224503048,"lat":41.8025744,"lon":123.4280722,"tags":{"loc_name":"市府广场","name":"人民广场","name:en":"City Hall Square","official_name":"人民广场","old_name":"市府广场","public_transport":"station","railway":"station","station":"subway","subway":"yes"}},{"type":"node","id":11224503064,"lat":41.8095601,"lon":123.4325234,"tags":{"name":"金融中心","name:en":"Financial Center","public_transport":"station","railway":"station","station":"subway","subway":"yes"}},{"type":"node","id":11224503073,"lat":41.8200232,"lon":123.4229318,"tags":{"name":"岐山路","name:en":"Qi Shan Road","public_transport":"station","railway":"station","station":"subway","subway":"yes","wikidata":"Q11047953"}},{"type":"node","id":11224511931,"lat":41.836489,"lon":123.4177417,"tags":{"name":"北陵公园","name:en":"Beiling Park","public_transport":"station","railway":"station","station":"subway","subway":"yes"}},{"type":"node","id":11224511932,"lat":41.8453452,"lon":123.4126683,"tags":{"name":"新乐遗址","name:en":"Xinle Ancient Ruins Museum","public_transport":"station","railway":"station","station":"subway","subway":"yes"}},{"type":"node","id":11224511934,"lat":41.8535,"lon":123.4120595,"tags":{"name":"陵西","name:en":"Bei Ling Park West","public_transport":"station","railway":"station","station":"subway","subway":"yes"}},{"type":"node","id":11224522237,"lat":41.8656098,"lon":123.4109785,"tags":{"name":"三台子","name:en":"San Tai Zi","public_transport":"station","railway":"station","station":"subway","subway":"yes"}},{"type":"node","id":11224522240,"lat":41.8839625,"lon":123.4093558,"tags":{"name":"医学院","name:en":"Shenyang Medical College","public_transport":"station","railway":"station","station":"subway","subway":"yes"}},{"type":"node","id":11224522286,"lat":41.9043356,"lon":123.4034174,"tags":{"name":"师范大学","name:en":"Shenyang Normal University","public_transport":"station","railway":"station","station":"subway","subway":"yes"}},{"type":"node","id":11224522296,"lat":41.9273284,"lon":123.3876876,"tags":{"name":"辽宁大学","name:en":"Liaoning University","public_transport":"station","railway":"station","station":"subway","subway":"yes"}},{"type":"node","id":11224522304,"lat":41.9340929,"lon":123.3923895,"tags":{"name":"人杰湖公园","name:en":"Ren Jie Hu Park","public_transport":"station","railway":"station","station":"subway","subway":"yes"}},{"type":"node","id":11224522312,"lat":41.9442823,"lon":123.4025309,"tags":{"name":"蒲河路","name:en":"Pu He Road","public_transport":"station","railway":"station","station":"subway","subway":"yes"}},{"type":"node","id":11224522316,"lat":41.9537559,"lon":123.3994866,"tags":{"name":"蒲田路","name:en":"Pu Tian Road","public_transport":"station","railway":"station","station":"subway","subway":"yes"}},{"type":"node","id":11234519409,"lat":41.8187388,"lon":123.3806049,"tags":{"name":"皇姑屯站","name:en":"Huanggutunzhan","public_transport":"station","railway":"station","station":"subway","subway":"yes","wikidata":"Q86729856"}},{"type":"node","id":12462614422,"lat":41.6794862,"lon":123.1461793,"tags":{"name":"铁西汽车工厂","name:en":"Tiexiqichegongchang","public_transport":"station","railway":"station","station":"subway","subway":"yes"}},{"type":"node","id":12462614426,"lat":41.6655679,"lon":123.1356414,"tags":{"name":"李达","name:en":"Lida","public_transport":"station","railway":"station","station":"subway","subway":"yes"}},{"type":"node","id":12462614448,"lat":41.6932044,"lon":123.1663826,"tags":{"name":"马贝","name:en":"Mabei","public_transport":"station","railway":"station","station":"subway","subway":"yes","wikidata":"Q131598581","wikipedia":"zh:马贝站"}},{"type":"node","id":12462614464,"lat":41.709096,"lon":123.2126357,"tags":{"name":"细河悠谷","name:en":"Xiheyougu","public_transport":"station","railway":"station","station":"subway","subway":"yes"}},{"type":"node","id":12462626305,"lat":41.6977959,"lon":123.1846892,"tags":{"name":"中德大街","name:en":"Zhongdedajie","public_transport":"station","railway":"station","station":"subway","subway":"yes"}},{"type":"node","id":12462626306,"lat":41.718312,"lon":123.2316032,"tags":{"name":"翟家","name:en":"Zhaijia","public_transport":"station","railway":"station","station":"subway","subway":"yes"}},{"type":"node","id":12462626307,"lat":41.7279202,"lon":123.2567025,"tags":{"name":"工业大学","name:en":"Gongyedaxue","public_transport":"station","railway":"station","station":"subway","subway":"yes"}},{"type":"node","id":12462626308,"lat":41.7361021,"lon":123.2685465,"tags":{"name":"宁官","name:en":"Ningguan","public_transport":"station","railway":"station","station":"subway","subway":"yes"}},{"type":"node","id":12462626315,"lat":41.7376994,"lon":123.2776103,"tags":{"name":"余良","name:en":"Yuliang","public_transport":"station","railway":"station","station":"subway","subway":"yes"}},{"type":"node","id":12462626338,"lat":41.7440085,"lon":123.301195,"tags":{"name":"甘官","name:en":"Ganguan","public_transport":"station","railway":"station","station":"subway","subway":"yes"}},{"type":"node","id":12462626339,"lat":41.7411716,"lon":123.3174926,"tags":{"name":"千岛湖街","name:en":"Qiandaohujie","public_transport":"station","railway":"station","station":"subway","subway":"yes"}},{"type":"node","id":12462626368,"lat":41.7462883,"lon":123.327504,"tags":{"name":"南阳湖街","name:en":"Nanyanghujie","public_transport":"station","railway":"station","station":"subway","subway":"yes"}},{"type":"node","id":12462626375,"lat":41.7500482,"lon":123.3420613,"tags":{"name":"大通湖街","name:en":"Datonghujie","public_transport":"station","railway":"station","station":"subway","subway":"yes"}},{"type":"node","id":12462626378,"lat":41.7557004,"lon":123.3563185,"tags":{"name":"南李官","name:en":"Nanliguan","public_transport":"station","railway":"station","station":"subway","subway":"yes"}},{"type":"node","id":12948934667,"lat":41.7630826,"lon":123.2231705,"tags":{"name":"十三号街","name:en":"Shisanhao Jie","public_transport":"station","railway":"station","station":"subway","subway":"yes","wikidata":"Q10904365","wikipedia":"en:Shisanhaojie station"}},{"type":"node","id":12948968716,"lat":41.8058617,"lon":123.498362,"tags":{"name":"黎明广场","name:en":"Liming Square","public_transport":"station","railway":"station","station":"subway","subway":"yes","wikidata":"Q11178774","wikipedia":"en:Limingguangchang station"}},{"type":"node","id":12948981728,"lat":41.8042579,"lon":123.5159281,"tags":{"name":"新惠街","name:en":"Xinhuijie","public_transport":"station","railway":"station","station":"subway","subway":"yes","wikidata":"Q135131985","wikipedia":"zh:新惠街站"}},{"type":"node","id":12949048248,"lat":41.8111068,"lon":123.5257907,"tags":{"name":"新宁街","name:en":"Xinningjie","public_transport":"station","railway":"station","station":"subway","subway":"yes","wikidata":"Q135131987","wikipedia":"zh:新宁街站"}},{"type":"node","id":12949048249,"lat":41.8161266,"lon":123.5393811,"tags":{"name":"东大营街","name:en":"Dongdayingjie","public_transport":"station","railway":"station","station":"subway","subway":"yes","wikidata":"Q135131992","wikipedia":"zh:东大营街站"}},{"type":"node","id":12949048250,"lat":41.8194981,"lon":123.5586648,"tags":{"name":"农业大学","name:en":"Nongyedaxue","public_transport":"station","railway":"station","station":"subway","subway":"yes","wikidata":"Q135131995","wikipedia":"zh:农业大学站 (沈阳市)"}},{"type":"node","id":12949048251,"lat":41.8204231,"lon":123.5737772,"tags":{"name":"前陵","name:en":"Qianling","public_transport":"station","railway":"station","station":"subway","subway":"yes","wikidata":"Q135132000","wikipedia":"zh:前陵站"}},{"type":"node","id":12949048252,"lat":41.8274491,"lon":123.589713,"tags":{"name":"东陵公园","name:en":"Donglinggongyuan","public_transport":"station","railway":"station","station":"subway","subway":"yes","wikidata":"Q135132005","wikipedia":"zh:东陵公园站"}},{"type":"node","id":12949048253,"lat":41.8434981,"lon":123.6098507,"tags":{"name":"水泉","name:en":"Shuiquan","public_transport":"station","railway":"station","station":"subway","subway":"yes","wikidata":"Q135132006","wikipedia":"zh:水泉站 (沈阳市)"}},{"type":"node","id":12949048254,"lat":41.8527774,"lon":123.6204874,"tags":{"name":"伯官北大街","name:en":"Boguanbeidajie","public_transport":"station","railway":"station","station":"subway","subway":"yes","wikidata":"Q135132010","wikipedia":"zh:伯官北大街站"}},{"type":"node","id":12949048255,"lat":41.8516319,"lon":123.6337445,"tags":{"name":"植物园","name:en":"Zhiwuyuan","public_transport":"station","railway":"station","station":"subway","subway":"yes","wikidata":"Q135132014","wikipedia":"zh:植物园站 (沈阳市)"}},{"type":"node","id":12949048256,"lat":41.852931,"lon":123.6531184,"tags":{"name":"双马","name:en":"Shuangma","public_transport":"station","railway":"station","station":"subway","subway":"yes","wikidata":"Q135132019"}},{"type":"node","id":12985462293,"lat":41.8004317,"lon":123.4652131,"tags":{"name":"东中街","name:en":"Dongzhongjie","public_transport":"station","railway":"station","station":"subway","subway":"yes","wikidata":"Q10869362","wikipedia":"en:Dongzhongjie station"}},{"type":"node","id":12985502986,"lat":41.7989685,"lon":123.4543812,"tags":{"name":"中街","name:en":"Zhongjie","public_transport":"station","railway":"station","station":"subway","subway":"yes","wikidata":"Q10876615","wikipedia":"en:Zhongjie station"}},{"type":"node","id":13028356638,"lat":41.7915203,"lon":123.3899672,"tags":{"name":"沈阳站","name:en":"Shenyangzhan","public_transport":"station","railway":"station","station":"subway","subway":"yes","wikidata":"Q11138985","wikipedia":"en:Shenyangzhan station"}},{"type":"node","id":13470768985,"lat":41.7489862,"lon":123.3410831,"tags":{"name":"大通湖街","name:en":"Datonghujie","public_transport":"stop_position","railway":"stop","station":"subway","subway":"yes"}},{"type":"node","id":13470769149,"lat":41.7490485,"lon":123.3412155,"tags":{"name":"大通湖街","name:en":"Datonghujie","public_transport":"stop_position","railway":"stop","station":"subway","subway":"yes"}},{"type":"node","id":13989565660,"lat":41.7668788,"lon":123.3703223,"tags":{"name":"凌空","name:en":"Lingkong","public_transport":"station","railway":"station","station":"subway","subway":"yes"}},{"type":"way","id":658333063,"center":{"lat":41.7384501,"lon":123.4791743},"nodes":[6165045776,6165045777,6165045778,6165045779,6165045776],"tags":{"building":"yes","public_transport":"station","railway":"station","station":"subway","subway":"yes"}},{"type":"way","id":658333064,"center":{"lat":41.7391993,"lon":123.4792251},"nodes":[6165045780,6165045781,6165045782,6165045783,6165045780],"tags":{"building":"yes","public_transport":"station","railway":"station","station":"subway","subway":"yes"}},{"type":"way","id":1467198501,"center":{"lat":41.6656429,"lon":123.3882886},"nodes":[13457314508,13457314509,13457314510,13457314511,13457314508],"tags":{"building":"construction","layer":"-1","location":"underground","name":"体育学院（建设中）","public_transport":"station","railway":"station","station":"subway","subway":"yes"}}]}