{"elements":[{"type":"node","id":387132826,"lat":1.3180138,"lon":103.8920584,"tags":{"destination:ref:carriages:forward":"D;F|none|A;B;C;E","destination:symbol:carriages:forward":"none|none|EWL","exit:carriages:forward":"escalator|lift|escalator;stairs","local_ref":"B","name":"Paya Lebar","name:en":"Paya Lebar","name:hi":"பாய லேபார்","name:ms":"Paya Lebar","name:zh":"巴耶利峇","network":"Circle Line (CCL)","operator":"SMRT","public_transport":"stop_position","railway":"stop","side":"right","subway":"yes"}},{"type":"node","id":387132839,"lat":1.3028989,"lon":103.8754768,"tags":{"name":"Stadium","name:en":"Stadium","name:ms":"Stadium","name:ta":"ஸ்டேடியம்","name:zh":"体育场","network":"Circle Line (CCL)","operator":"SMRT","public_transport":"stop_position","railway":"stop","station":"subway","subway":"yes","wheelchair":"yes"}},{"type":"node","id":387132984,"lat":1.2933814,"lon":103.8555099,"tags":{"destination:ref:carriages:forward":"A;B;D|F;G|F;G","exit:carriages:forward":"escalator;stairs|lift|escalator;stairs","local_ref":"A","name":"Esplanade","name:en":"Esplanade","name:ms":"Esplanade","name:ta":"எஸ்பிளனேட்","name:zh":"滨海中心","network":"Circle Line (CCL)","operator":"SMRT","public_transport":"stop_position","railway":"stop","side":"right","station":"subway","subway":"yes"}},{"type":"node","id":387133039,"lat":1.2997426,"lon":103.8636976,"tags":{"exit:carriages:forward":"escalator;lift;flat|no|no","local_ref":"B","name":"Nicoll Highway","name:en":"Nicoll Highway","name:ms":"Nicoll Highway","name:ta":"நிக்கல் நெடுஞ்சாலை","name:zh":"尼诰大道","network":"Circle Line (CCL)","operator":"SMRT","public_transport":"stop_position","railway":"stop","side":"right","station":"subway","subway":"yes"}},{"type":"node","id":387133091,"lat":1.3062268,"lon":103.8825098,"tags":{"name":"Mountbatten","name:en":"Mountbatten","name:ms":"Mountbatten","name:ta":"மவுண்ட்பேட்டன்","name:zh":"蒙巴登","network":"Circle Line (CCL)","operator":"SMRT","public_transport":"stop_position","railway":"stop","station":"subway","subway":"yes"}},{"type":"node","id":387133490,"lat":1.3354751,"lon":103.8882938,"tags":{"name":"Tai Seng","name:en":"Tai Seng","name:ms":"Tai Seng","name:ta":"தை செங்","name:zh":"大成","network":"Circle Line (CCL)","operator":"SMRT","public_transport":"stop_position","railway":"stop","station":"subway","subway":"yes"}},{"type":"node","id":388553160,"lat":1.2704685,"lon":103.8098475,"tags":{"name":"Telok Blangah","name:en":"Telok Blangah","name:ms":"Telok Blangah","name:ta":"தெலுக் பிளாங்கா","name:zh":"直落布兰雅","network":"Circle Line (CCL)","operator":"SMRT","public_transport":"stop_position","railway":"stop","station":"subway","subway":"yes"}},{"type":"node","id":388555785,"lat":1.2723178,"lon":103.802786,"tags":{"name":"Labrador Park","name:en":"Labrador Park","name:ms":"Labrador Park","name:ta":"லாப்ரடார் பூங்கா","name:zh":"拉柏多公园","network":"Circle Line (CCL)","operator":"SMRT","public_transport":"stop_position","railway":"stop","station":"subway","subway":"yes"}},{"type":"node","id":388558260,"lat":1.2825883,"lon":103.7816833,"tags":{"name":"Haw Par Villa","name:en":"Haw Par Villa","name:ms":"Haw Par Villa","name:ta":"ஹா பர் வில்லா","name:zh":"虎豹别墅","network":"Circle Line (CCL)","operator":"SMRT","public_transport":"stop_position","railway":"stop","station":"subway","subway":"yes"}},{"type":"node","id":388560505,"lat":1.2935851,"lon":103.7843245,"tags":{"name":"Kent Ridge","name:en":"Kent Ridge","name:ms":"Kent Ridge","name:ta":"கெண்ட் ரிஜ்","name:zh":"肯特岗","network":"Circle Line (CCL)","operator":"SMRT","public_transport":"stop_position","railway":"stop","station":"subway","subway":"yes"}},{"type":"node","id":388560610,"lat":1.2996315,"lon":103.7872494,"tags":{"name":"one-north","name:en":"one-north","name:ms":"one-north","name:ta":"ஒன்-நார்த்","name:zh":"纬壹","network":"Circle Line (CCL)","operator":"SMRT","public_transport":"stop_position","railway":"stop","station":"subway","subway":"yes"}},{"type":"node","id":388561205,"lat":1.3222717,"lon":103.8151372,"tags":{"exit:carriages:forward":"lift|escalator;stairs|no","local_ref":"B","name":"Botanic Gardens","network":"Circle Line (CCL)","operator":"SMRT","public_transport":"stop_position","railway":"stop","side":"right","subway":"yes"}},{"type":"node","id":388561979,"lat":1.3375794,"lon":103.8395262,"tags":{"exit:carriages:forward":"lift|escalator;stairs|no","local_ref":"B","name":"Caldecott","name:en":"Caldecott","name:ms":"Caldecott","name:ta":"கால்டிகாட்","name:zh":"加利谷","network":"Circle Line (CCL)","operator":"SMRT","public_transport":"stop_position","railway":"stop","side":"right","subway":"yes"}},{"type":"node","id":1090384588,"lat":1.3516368,"lon":103.8483029,"tags":{"destination:ref:carriages:forward":"D|none|A;B;C;E","destination:symbol:carriages:forward":"none|none|NSL","exit:carriages:forward":"escalator;stairs|lift|escalator","local_ref":"B","name":"Bishan","network":"Circle Line (CCL)","operator":"SMRT","public_transport":"stop_position","railway":"stop","side":"right","subway":"yes"}},{"type":"node","id":1840733425,"lat":1.3514787,"lon":103.8633774,"tags":{"exit:carriages:forward":"no|escalator;stairs|lift","local_ref":"B","name":"Lorong Chuan","name:en":"Lorong Chuan","name:ms":"Lorong Chuan","name:ta":"லோரோங் சுவான்","name:zh":"罗弄泉","network":"Circle Line (CCL)","operator":"SMRT","public_transport":"stop_position","railway":"stop","side":"right","station":"subway","subway":"yes"}},{"type":"node","id":2578601203,"lat":1.3486712,"lon":103.8393592,"tags":{"name":"Marymount","name:en":"Marymount","name:ms":"Marymount","name:ta":"மேரிமவுண்ட்","name:zh":"玛丽蒙","network":"Circle Line (CCL)","operator":"SMRT","public_transport":"stop_position","railway":"stop","station":"subway","subway":"yes","wheelchair":"yes"}},{"type":"node","id":5233734955,"lat":1.3261283,"lon":103.8903674,"tags":{"destination:carriages:forward":"Platform C|none|Platform D","destination:symbol:carriages:forward":"DTL|none|DTL","exit:carriages:forward":"escalator;stairs;lift|escalator;stairs|escalator;lift","local_ref":"B","name":"MacPherson","network":"Circle Line (CCL)","operator":"SMRT","public_transport":"stop_position","railway":"stop","side":"right","subway":"yes"}},{"type":"node","id":5313532700,"lat":1.2969288,"lon":103.8506449,"tags":{"destination:ref:carriages:forward":"A;B|none|C;D;E","exit:carriages:forward":"escalator;stairs|lift|stairs;escalator","local_ref":"A","name":"Bras Basah","name:en":"Bras Basah","name:hi":"பிராஸ் பாசா","name:ms":"Bras Basah","name:zh":"百胜","network":"Circle Line (CCL)","operator":"SMRT","public_transport":"stop_position","railway":"stop","side":"right","subway":"yes"}},{"type":"node","id":5313532702,"lat":1.2989179,"lon":103.8461812,"tags":{"destination:ref:carriages:forward":"A;B|C;D;E;F;G|C;D;E;F;G","destination:symbol:carriages:forward":"NSL|NEL|NEL","exit:carriages:forward":"escalator|stairs;lift|escalator","local_ref":"B","name":"Dhoby Ghaut","network":"Circle Line (CCL)","operator":"SMRT","public_transport":"stop_position","railway":"stop","side":"right","subway":"yes"}},{"type":"node","id":5388281880,"lat":1.275483,"lon":103.8549566,"tags":{"exit:carriages:forward":"escalator|stairs;lift|escalator","local_ref":"D","name":"Marina Bay","network":"Circle Line (CCL)","operator":"SMRT","public_transport":"stop_position","railway":"stop","ref":"CE2","side":"right","subway":"yes"}},{"type":"node","id":5388291979,"lat":1.2826281,"lon":103.8598036,"tags":{"destination:ref:carriages:forward":"A;E|none|B;C;D","destination:symbol:carriages:forward":"none|none|hotel;park","exit:carriages:forward":"escalator|escalator;stairs|escalator;stairs;lift","level:ref":"B2","local_ref":"B","name":"Bayfront","name:th":"เบย์ฟรอนท์","network":"Circle Line (CCL)","operator":"SMRT","public_transport":"stop_position","railway":"stop","side":"right","subway":"yes"}},{"type":"node","id":6531622803,"lat":1.2651882,"lon":103.8215557,"tags":{"exit:carriages:forward":"escalator;stairs|lift|escalator","local_ref":"B","name":"HarbourFront","name:en":"HarbourFront","name:ms":"HarbourFront","name:ta":"துறைமுகம்","name:zh":"港湾","operator":"SMRT","public_transport":"stop_position","railway":"stop","side":"right","subway":"yes","wheelchair":"yes"}},{"type":"node","id":6587643568,"lat":1.3498355,"lon":103.8736946,"tags":{"destination:carriages:forward":"NEL|none|none","exit:carriages:forward":"escalator|escalator;stairs;lift|no","local_ref":"B","name":"Serangoon","name:en":"Serangoon","name:ms":"Serangoon","name:ta":"சிராங்கூன்","name:zh":"实龙岗","network":"Circle Line (CCL)","operator":"SMRT","public_transport":"stop_position","railway":"stop","side":"right","subway":"yes","wheelchair":"yes"}},{"type":"node","id":6589313470,"lat":1.2927164,"lon":103.8611365,"tags":{"destination:carriages:forward":"none|none|Platforms C & D","destination:ref:carriages:forward":"B;C|B;C|A","destination:symbol:carriages:forward":"none|none|DTL","exit:carriages:forward":"escalator;stairs|escalator;lift|escalator;stairs;flat","local_ref":"A","name":"Promenade","name:en":"Promenade","name:ms":"Promenade","name:ta":"புரொமனெட்","name:zh":"宝门廊","network":"Circle Line (CCL)","operator":"SMRT","public_transport":"stop_position","railway":"stop","side":"left","subway":"yes"}},{"type":"node","id":6589313472,"lat":1.2927124,"lon":103.8611705,"tags":{"destination:carriages:forward":"none|Other Platforms|none","destination:ref:carriages:forward":"A|none|B;C","destination:symbol:carriages:forward":"none|DTL|none","exit:carriages:forward":"escalator;stairs|escalator;lift|escalator","local_ref":"B","name":"Promenade","name:en":"Promenade","name:ms":"Promenade","name:ta":"புரொமனெட்","name:zh":"宝门廊","network":"Circle Line (CCL)","operator":"SMRT","public_transport":"stop_position","railway":"stop","side":"right","subway":"yes"}},{"type":"node","id":7684326283,"lat":1.3063441,"lon":103.7904234,"tags":{"exit:carriages:forward":"no|escalator;stairs|lift","local_ref":"B","name":"Buona Vista","network":"Circle Line (CCL)","operator":"SMRT","public_transport":"stop_position","railway":"stop","side":"right","subway":"yes"}},{"type":"node","id":7691088900,"lat":1.308501,"lon":103.8892334,"tags":{"name":"Dakota","network":"Circle Line (CCL)","operator":"SMRT","public_transport":"stop_position","railway":"stop","subway":"yes"}},{"type":"node","id":7691088944,"lat":1.3174998,"lon":103.8074292,"tags":{"name":"Farrer Road","name:en":"Farrer Road","name:zh":"花拉路","network":"Circle Line (CCL)","operator":"SMRT","public_transport":"stop_position","railway":"stop","subway":"yes"}},{"type":"node","id":7691088945,"lat":1.3122965,"lon":103.7963375,"tags":{"abbreviation":"HLV","name":"Holland Village","public_transport":"stop_position","railway":"stop","subway":"yes"}},{"type":"node","id":7691352819,"lat":1.2761815,"lon":103.7913289,"tags":{"name":"Pasir Panjang","name:zh":"巴西班让","network":"Circle Line (CCL)","operator":"SMRT","public_transport":"stop_position","railway":"stop","subway":"yes"}},{"type":"node","id":10554032454,"lat":1.2652933,"lon":103.8215527,"tags":{"exit:carriages:forward":"escalator|lift|escalator;stairs","local_ref":"A","name":"HarbourFront","name:en":"HarbourFront","name:ms":"HarbourFront","name:ta":"துறைமுகம்","name:zh":"港湾","operator":"SMRT","public_transport":"stop_position","railway":"stop","side":"right","subway":"yes","wheelchair":"yes"}},{"type":"node","id":12842228333,"lat":1.2933383,"lon":103.855477,"tags":{"destination:ref:carriages:forward":"F;G|F;G|A;B;D","exit:carriages:forward":"escalator;stairs|lift|escalator;stairs","local_ref":"B","name":"Esplanade","name:en":"Esplanade","name:ms":"Esplanade","name:ta":"எஸ்பிளனேட்","name:zh":"滨海中心","network":"Circle Line (CCL)","operator":"SMRT","public_transport":"stop_position","railway":"stop","side":"right","station":"subway","subway":"yes"}},{"type":"node","id":12842228350,"lat":1.282684,"lon":103.8597021,"tags":{"destination:ref:carriages:forward":"B;C;D|A;E|none","destination:symbol:carriages:forward":"hotel;park|none|none","exit:carriages:forward":"escalator;stairs;lift|escalator|no","level:ref":"B3","local_ref":"D","name":"Bayfront","name:th":"เบย์ฟรอนท์","network":"Circle Line (CCL)","operator":"SMRT","public_transport":"stop_position","railway":"stop","side":"left","subway":"yes"}},{"type":"node","id":12842228355,"lat":1.2755037,"lon":103.8549092,"tags":{"exit:carriages:forward":"escalator|stairs;lift|escalator","local_ref":"C","name":"Marina Bay","network":"Circle Line (CCL)","operator":"SMRT","public_transport":"stop_position","railway":"stop","ref":"CE2","side":"right","subway":"yes"}},{"type":"node","id":12842237253,"lat":1.3375909,"lon":103.8396748,"tags":{"exit:carriages:forward":"no|escalator;stairs|lift","local_ref":"A","name":"Caldecott","name:en":"Caldecott","name:ms":"Caldecott","name:ta":"கால்டிகாட்","name:zh":"加利谷","network":"Circle Line (CCL)","operator":"SMRT","public_transport":"stop_position","railway":"stop","side":"right","subway":"yes"}},{"type":"node","id":12842237273,"lat":1.322172,"lon":103.8152598,"tags":{"exit:carriages:forward":"no|escalator;stairs|lift","local_ref":"A","name":"Botanic Gardens","network":"Circle Line (CCL)","operator":"SMRT","public_transport":"stop_position","railway":"stop","side":"right","subway":"yes"}},{"type":"node","id":12842237301,"lat":1.2994799,"lon":103.7873137,"tags":{"name":"one-north","name:en":"one-north","name:ms":"one-north","name:ta":"ஒன்-நார்த்","name:zh":"纬壹","network":"Circle Line (CCL)","operator":"SMRT","public_transport":"stop_position","railway":"stop","station":"subway","subway":"yes"}},{"type":"node","id":12842237341,"lat":1.2724828,"lon":103.802796,"tags":{"name":"Labrador Park","name:en":"Labrador Park","name:ms":"Labrador Park","name:ta":"லாப்ரடார் பூங்கா","name:zh":"拉柏多公园","network":"Circle Line (CCL)","operator":"SMRT","public_transport":"stop_position","railway":"stop","station":"subway","subway":"yes"}},{"type":"node","id":12842237342,"lat":1.2763998,"lon":103.7914017,"tags":{"name":"Pasir Panjang","name:zh":"巴西班让","network":"Circle Line (CCL)","operator":"SMRT","public_transport":"stop_position","railway":"stop","subway":"yes"}},{"type":"node","id":12842237343,"lat":1.2706189,"lon":103.8098567,"tags":{"name":"Telok Blangah","name:en":"Telok Blangah","name:ms":"Telok Blangah","name:ta":"தெலுக் பிளாங்கா","name:zh":"直落布兰雅","network":"Circle Line (CCL)","operator":"SMRT","public_transport":"stop_position","railway":"stop","station":"subway","subway":"yes"}},{"type":"node","id":12842237344,"lat":1.282669,"lon":103.7818405,"tags":{"name":"Haw Par Villa","name:en":"Haw Par Villa","name:ms":"Haw Par Villa","name:ta":"ஹா பர் வில்லா","name:zh":"虎豹别墅","network":"Circle Line (CCL)","operator":"SMRT","public_transport":"stop_position","railway":"stop","station":"subway","subway":"yes"}},{"type":"node","id":12842237345,"lat":1.2935696,"lon":103.7844751,"tags":{"name":"Kent Ridge","name:en":"Kent Ridge","name:ms":"Kent Ridge","name:ta":"கெண்ட் ரிஜ்","name:zh":"肯特岗","network":"Circle Line (CCL)","operator":"SMRT","public_transport":"stop_position","railway":"stop","station":"subway","subway":"yes"}},{"type":"node","id":12842237346,"lat":1.3062707,"lon":103.790601,"tags":{"exit:carriages:forward":"lift|escalator;stairs|no","local_ref":"A","name":"Buona Vista","network":"Circle Line (CCL)","operator":"SMRT","public_transport":"stop_position","railway":"stop","side":"right","subway":"yes"}},{"type":"node","id":12842237347,"lat":1.3121601,"lon":103.7964225,"tags":{"abbreviation":"HLV","name":"Holland Village","public_transport":"stop_position","railway":"stop","subway":"yes"}},{"type":"node","id":12842237348,"lat":1.3173939,"lon":103.807532,"tags":{"name":"Farrer Road","name:en":"Farrer Road","name:zh":"花拉路","network":"Circle Line (CCL)","operator":"SMRT","public_transport":"stop_position","railway":"stop","subway":"yes"}},{"type":"node","id":12842237349,"lat":1.3486539,"lon":103.8395059,"tags":{"name":"Marymount","name:en":"Marymount","name:ms":"Marymount","name:ta":"மேரிமவுண்ட்","name:zh":"玛丽蒙","network":"Circle Line (CCL)","operator":"SMRT","public_transport":"stop_position","railway":"stop","station":"subway","subway":"yes","wheelchair":"yes"}},{"type":"node","id":12842237350,"lat":1.3514765,"lon":103.8482604,"tags":{"destination:ref:carriages:forward":"A;B;C;E|none|D","destination:symbol:carriages:forward":"NSL|none|none","exit:carriages:forward":"escalator|lift|escalator;stairs","local_ref":"A","name":"Bishan","network":"Circle Line (CCL)","operator":"SMRT","public_transport":"stop_position","railway":"stop","side":"right","subway":"yes"}},{"type":"node","id":12842237351,"lat":1.3514248,"lon":103.8633841,"tags":{"exit:carriages:forward":"lift|escalator;stairs|no","local_ref":"A","name":"Lorong Chuan","name:en":"Lorong Chuan","name:ms":"Lorong Chuan","name:ta":"லோரோங் சுவான்","name:zh":"罗弄泉","network":"Circle Line (CCL)","operator":"SMRT","public_transport":"stop_position","railway":"stop","side":"right","station":"subway","subway":"yes"}},{"type":"node","id":12842237352,"lat":1.3497906,"lon":103.8736479,"tags":{"destination:carriages:forward":"none|none|NEL","exit:carriages:forward":"no|escalator;stairs;lift|escalator","local_ref":"A","name":"Serangoon","name:en":"Serangoon","name:ms":"Serangoon","name:ta":"சிராங்கூன்","name:zh":"实龙岗","network":"Circle Line (CCL)","operator":"SMRT","public_transport":"stop_position","railway":"stop","side":"right","subway":"yes","wheelchair":"yes"}},{"type":"node","id":12842237353,"lat":1.3428845,"lon":103.8796879,"tags":{"name":"Bartley","name:en":"Bartley","name:ms":"Bartley","name:ta":"பார்ட்லி","name:zh":"巴特礼","public_transport":"stop_position","railway":"stop","subway":"yes"}},{"type":"node","id":12842237354,"lat":1.342798,"lon":103.8796456,"tags":{"name":"Bartley","name:en":"Bartley","name:ms":"Bartley","name:ta":"பார்ட்லி","name:zh":"巴特礼","public_transport":"stop_position","railway":"stop","subway":"yes"}},{"type":"node","id":12842237355,"lat":1.3354555,"lon":103.8882396,"tags":{"name":"Tai Seng","name:en":"Tai Seng","name:ms":"Tai Seng","name:ta":"தை செங்","name:zh":"大成","network":"Circle Line (CCL)","operator":"SMRT","public_transport":"stop_position","railway":"stop","station":"subway","subway":"yes"}},{"type":"node","id":12842237356,"lat":1.3261084,"lon":103.8902919,"tags":{"destination:carriages:forward":"Platform D|none|Platform C","destination:symbol:carriages:forward":"DTL|none|DTL","exit:carriages:forward":"escalator;lift|escalator;stairs|escalator;stairs;lift","local_ref":"A","name":"MacPherson","network":"Circle Line (CCL)","operator":"SMRT","public_transport":"stop_position","railway":"stop","side":"right","subway":"yes"}},{"type":"node","id":12842237357,"lat":1.3179957,"lon":103.8919674,"tags":{"destination:ref:carriages:forward":"A;B;C;E|none|D;F","destination:symbol:carriages:forward":"EWL|none|none","exit:carriages:forward":"escalator;stairs|lift|escalator","local_ref":"A","name":"Paya Lebar","name:en":"Paya Lebar","name:hi":"பாய லேபார்","name:ms":"Paya Lebar","name:zh":"巴耶利峇","network":"Circle Line (CCL)","operator":"SMRT","public_transport":"stop_position","railway":"stop","side":"right","subway":"yes"}},{"type":"node","id":12842237358,"lat":1.3085753,"lon":103.889207,"tags":{"name":"Dakota","network":"Circle Line (CCL)","operator":"SMRT","public_transport":"stop_position","railway":"stop","subway":"yes"}},{"type":"node","id":12842237359,"lat":1.3062958,"lon":103.882457,"tags":{"name":"Mountbatten","name:en":"Mountbatten","name:ms":"Mountbatten","name:ta":"மவுண்ட்பேட்டன்","name:zh":"蒙巴登","network":"Circle Line (CCL)","operator":"SMRT","public_transport":"stop_position","railway":"stop","station":"subway","subway":"yes"}},{"type":"node","id":12842237360,"lat":1.3029588,"lon":103.8754386,"tags":{"name":"Stadium","name:en":"Stadium","name:ms":"Stadium","name:ta":"ஸ்டேடியம்","name:zh":"体育场","network":"Circle Line (CCL)","operator":"SMRT","public_transport":"stop_position","railway":"stop","station":"subway","subway":"yes","wheelchair":"yes"}},{"type":"node","id":12842237361,"lat":1.2998015,"lon":103.8636609,"tags":{"exit:carriages:forward":"no|no|escalator;lift;flat","local_ref":"A","name":"Nicoll Highway","name:en":"Nicoll Highway","name:ms":"Nicoll Highway","name:ta":"நிக்கல் நெடுஞ்சாலை","name:zh":"尼诰大道","network":"Circle Line (CCL)","operator":"SMRT","public_transport":"stop_position","railway":"stop","side":"right","station":"subway","subway":"yes"}},{"type":"node","id":12842237362,"lat":1.2968889,"lon":103.8506184,"tags":{"destination:ref:carriages:forward":"C;D;E|none|A;B","exit:carriages:forward":"stairs;escalator|lift|escalator;stairs","local_ref":"B","name":"Bras Basah","name:en":"Bras Basah","name:hi":"பிராஸ் பாசா","name:ms":"Bras Basah","name:zh":"百胜","network":"Circle Line (CCL)","operator":"SMRT","public_transport":"stop_position","railway":"stop","side":"right","subway":"yes"}},{"type":"node","id":12842237363,"lat":1.2988709,"lon":103.8461513,"tags":{"destination:ref:carriages:forward":"C;D;E;F;G|C;D;E;F;G|A;B","destination:symbol:carriages:forward":"NEL|NEL|NSL","exit:carriages:forward":"escalator|stairs;lift|escalator","local_ref":"A","name":"Dhoby Ghaut","network":"Circle Line (CCL)","operator":"SMRT","public_transport":"stop_position","railway":"stop","side":"right","subway":"yes"}}]}