{"elements":[{"type":"node","id":1625341605,"lat":36.7173308,"lon":-4.4839353,"tags":{"light_rail":"yes","name":"El Cónsul","operator":"Metro de Málaga","public_transport":"stop_position","railway":"stop"}},{"type":"node","id":1625341623,"lat":36.7188162,"lon":-4.4943458,"tags":{"light_rail":"yes","name":"Andalucía Tech","network":"Consorcio de Transporte Metropolitano del Área de Málaga","network:short":"CTMAM","operator":"Metro de Málaga","public_transport":"stop_position","railway":"stop","wheelchair":"yes"}},{"type":"node","id":1912826078,"lat":36.716578,"lon":-4.4786253,"tags":{"light_rail":"yes","name":"Clínico","public_transport":"stop_position","wheelchair":"yes"}},{"type":"node","id":2609573405,"lat":36.7175678,"lon":-4.4234751,"tags":{"light_rail":"yes","name":"Atarazanas","public_transport":"stop_position","railway":"stop"}},{"type":"node","id":4943984613,"lat":36.7170673,"lon":-4.4721106,"tags":{"light_rail":"yes","name":"Universidad","operator":"Metro de Málaga","public_transport":"stop_position","wheelchair":"yes"}},{"type":"node","id":6018008455,"lat":36.7126845,"lon":-4.4323316,"tags":{"light_rail":"yes","name":"El Perchel","public_transport":"stop_position","railway":"stop"}},{"type":"node","id":6018008476,"lat":36.7159881,"lon":-4.4297352,"tags":{"light_rail":"yes","name":"Guadalmedina","public_transport":"stop_position","railway":"stop"}},{"type":"node","id":8568996859,"lat":36.7126582,"lon":-4.4323214,"tags":{"light_rail":"yes","name":"El Perchel","public_transport":"stop_position","railway":"stop"}},{"type":"node","id":10765517126,"lat":36.7159824,"lon":-4.4296593,"tags":{"light_rail":"yes","name":"Guadalmedina","public_transport":"stop_position","railway":"stop"}},{"type":"node","id":10858781452,"lat":36.7078766,"lon":-4.4354611,"tags":{"light_rail":"yes","name":"La Isla","public_transport":"stop_position","railway":"stop"}},{"type":"node","id":13084305608,"lat":36.7040628,"lon":-4.4403012,"tags":{"light_rail":"yes","name":"Princesa - Huelin","operator":"Metro de Málaga","public_transport":"stop_position","railway":"stop","wheelchair":"yes"}},{"type":"node","id":13084305609,"lat":36.6995369,"lon":-4.4460746,"tags":{"light_rail":"yes","name":"El Torcal","operator":"Metro de Málaga","public_transport":"stop_position","railway":"stop","wheelchair":"yes"}},{"type":"node","id":13084305610,"lat":36.6954114,"lon":-4.4513127,"tags":{"light_rail":"yes","name":"La Luz","operator":"Metro de Málaga","public_transport":"stop_position","railway":"stop","wheelchair":"yes"}},{"type":"node","id":13084305611,"lat":36.6917898,"lon":-4.4559108,"tags":{"light_rail":"yes","name":"Puerta Blanca","operator":"Metro de Málaga","public_transport":"stop_position","railway":"stop","wheelchair":"yes"}},{"type":"node","id":13084305612,"lat":36.6845541,"lon":-4.4582959,"tags":{"light_rail":"yes","name":"Palacio de los Deportes","operator":"Metro de Málaga","public_transport":"stop_position","railway":"stop","wheelchair":"yes"}},{"type":"node","id":13084305613,"lat":36.7106887,"lon":-4.440103,"tags":{"alt_name":"La Unión - Cruz del Humilladero","light_rail":"yes","name":"La Unión","operator":"Metro de Málaga","public_transport":"stop_position","railway":"stop","wheelchair":"yes"}},{"type":"node","id":13084305614,"lat":36.7115884,"lon":-4.4460484,"tags":{"light_rail":"yes","name":"Barbarela","operator":"Metro de Málaga","public_transport":"stop_position","railway":"stop","wheelchair":"yes"}},{"type":"node","id":13084305615,"lat":36.7186124,"lon":-4.4490881,"tags":{"light_rail":"yes","name":"Carranque","operator":"Metro de Málaga","public_transport":"stop_position","railway":"stop","wheelchair":"yes"}},{"type":"node","id":13084305616,"lat":36.7193601,"lon":-4.4530406,"tags":{"light_rail":"yes","name":"Portada Alta","operator":"Metro de Málaga","public_transport":"stop_position","railway":"stop","wheelchair":"yes"}},{"type":"node","id":13084305617,"lat":36.7180499,"lon":-4.463278,"tags":{"light_rail":"yes","name":"Ciudad de la Justicia","operator":"Metro de Málaga","public_transport":"stop_position","railway":"stop","wheelchair":"yes"}},{"type":"node","id":13084305618,"lat":36.717996,"lon":-4.4886366,"tags":{"light_rail":"yes","name":"Paraninfo","operator":"Metro de Málaga","public_transport":"stop_position","railway":"stop"}},{"type":"node","id":1625341600,"lat":36.7180202,"lon":-4.4633808,"tags":{"light_rail":"yes","name":"Ciudad de la Justicia","operator":"Metro de Málaga","platforms":"2","public_transport":"station","railway":"station","station":"light_rail","wheelchair":"yes","wikidata":"Q5846061","wikimedia_commons":"Category:Estación de Ciudad de la Justicia"}},{"type":"node","id":1625341615,"lat":36.7107004,"lon":-4.4401116,"tags":{"alt_name":"La Unión - Cruz del Humilladero","light_rail":"yes","name":"La Unión","operator":"Metro de Málaga","platforms":"2","public_transport":"station","railway":"station","station":"light_rail","wikidata":"Q5846540","wikimedia_commons":"Category:Estación de La Unión"}},{"type":"node","id":1625341635,"lat":36.7193474,"lon":-4.453026,"tags":{"light_rail":"yes","name":"Portada Alta","operator":"Metro de Málaga","platforms":"2","public_transport":"station","railway":"station","station":"light_rail","wheelchair":"yes","wikidata":"Q5846956","wikimedia_commons":"Category:Estación de Portada Alta"}},{"type":"node","id":2897360350,"lat":36.7179935,"lon":-4.4887014,"tags":{"light_rail":"yes","name":"Paraninfo","operator":"Metro de Málaga","public_transport":"station","railway":"station","station":"light_rail","wheelchair":"yes","wikidata":"Q5816114","wikimedia_commons":"Category:Estación de Paraninfo"}},{"type":"node","id":3762485517,"lat":36.6954164,"lon":-4.4513131,"tags":{"light_rail":"yes","name":"La Luz - La Paz","operator":"Metro de Málaga","platforms":"2","public_transport":"station","railway":"station","station":"light_rail","wheelchair":"yes","wikidata":"Q5846493","wikimedia_commons":"Category:Estación de La Luz-La Paz"}},{"type":"node","id":3762485520,"lat":36.6917962,"lon":-4.4559168,"tags":{"light_rail":"yes","name":"Puerta Blanca","operator":"Metro de Málaga","platforms":"2","public_transport":"station","railway":"station","station":"light_rail","wheelchair":"yes","wikidata":"Q5402461","wikimedia_commons":"Category:Estación de Puerta Blanca"}},{"type":"node","id":4344674995,"lat":36.6845619,"lon":-4.4583141,"tags":{"light_rail":"yes","name":"Palacio de los Deportes","operator":"Metro de Málaga","public_transport":"station","railway":"station","station":"light_rail","wheelchair":"yes","wikidata":"Q5846867","wikimedia_commons":"Category:Estación de Palacio de los Deportes"}},{"type":"node","id":4408112018,"lat":36.7127953,"lon":-4.4324264,"tags":{"light_rail":"yes","name":"El Perchel","operator":"Metro de Málaga","public_transport":"station","railway":"station","station":"light_rail","wheelchair":"yes","wikidata":"Q5846173","wikimedia_commons":"Category:Estación de El Perchel"}},{"type":"node","id":4408155456,"lat":36.7116862,"lon":-4.4461114,"tags":{"light_rail":"yes","name":"Barbarela","operator":"Metro de Málaga","public_transport":"station","railway":"station","station":"light_rail","wheelchair":"yes","wikidata":"Q5845773","wikimedia_commons":"Category:Estación de Barbarela"}},{"type":"node","id":4408159190,"lat":36.7186174,"lon":-4.449102,"tags":{"light_rail":"yes","name":"Carranque","operator":"Metro de Málaga","public_transport":"station","railway":"station","station":"light_rail","wheelchair":"yes","wikidata":"Q5845970","wikimedia_commons":"Category:Estación de Carranque"}},{"type":"node","id":4409535923,"lat":36.7040678,"lon":-4.4403095,"tags":{"light_rail":"yes","name":"Princesa - Huelin","network":"Consorcio de Transporte Metropolitano del Área de Málaga","network:short":"CTMAM","operator":"Metro de Málaga","public_transport":"station","railway":"station","station":"light_rail","wheelchair":"yes","wikidata":"Q5846507","wikimedia_commons":"Category:Estación de Princesa-Huelin"}},{"type":"node","id":4409558424,"lat":36.6995262,"lon":-4.4460882,"tags":{"light_rail":"yes","name":"El Torcal","operator":"Metro de Málaga","public_transport":"station","railway":"station","station":"light_rail","wheelchair":"yes","wikidata":"Q5846191","wikimedia_commons":"Category:Estación de El Torcal"}},{"type":"node","id":9648252627,"lat":36.7173254,"lon":-4.4840124,"tags":{"light_rail":"yes","name":"El Cónsul","operator":"Metro de Málaga","public_transport":"station","railway":"station","station":"light_rail","wikidata":"Q5846161","wikimedia_commons":"Category:Estación El Cónsul"}},{"type":"node","id":9648252629,"lat":36.7165546,"lon":-4.4785823,"tags":{"light_rail":"yes","name":"Clínico","operator":"Metro de Málaga","public_transport":"station","railway":"station","station":"light_rail","wheelchair":"yes","wikidata":"Q5846064","wikimedia_commons":"Category:Estación de Clínico"}},{"type":"node","id":9648252632,"lat":36.7170389,"lon":-4.4722,"tags":{"light_rail":"yes","name":"Universidad","operator":"Metro de Málaga","public_transport":"station","railway":"station","station":"light_rail","wheelchair":"yes","wikidata":"Q5847381","wikimedia_commons":"Category:Estación de Universidad (Metro de Málaga)"}},{"type":"node","id":11302261964,"lat":36.7159854,"lon":-4.429699,"tags":{"light_rail":"yes","name":"Guadalmedina","operator":"Metro de Málaga","public_transport":"station","railway":"station","station":"light_rail","wikidata":"Q5846333","wikimedia_commons":"Category:Estación de Guadalmedina","wikipedia":"es:Estación de Guadalmedina"}},{"type":"node","id":11304032764,"lat":36.7176036,"lon":-4.4235116,"tags":{"light_rail":"yes","name":"Atarazanas","network":"Consorcio de Transporte Metropolitano del Área de Málaga","network:metro":"Metro de Málaga","network:metro:wikidata":"Q1925728","network:short":"CTMAM","network:wikidata":"Q6949617","operator":"Metro de Málaga","operator:wikidata":"Q140007979","public_transport":"station","railway":"station","station":"light_rail","wikidata":"Q5846501","wikimedia_commons":"Category:Estación de Atarazanas"}},{"type":"node","id":11881331288,"lat":36.7078894,"lon":-4.4354896,"tags":{"light_rail":"yes","name":"La Isla","operator":"Metro de Málaga","public_transport":"station","railway":"station","station":"light_rail","wheelchair":"yes","wikidata":"Q5846489","wikimedia_commons":"Category:Estación de La Isla"}},{"type":"node","id":13084228341,"lat":36.7188017,"lon":-4.4944181,"tags":{"light_rail":"yes","name":"Andalucía Tech","network":"Consorcio de Transporte Metropolitano del Área de Málaga","network:short":"CTMAM","operator":"Metro de Málaga","public_transport":"station","railway":"station","station":"light_rail","wheelchair":"yes","wikidata":"Q5846068","wikimedia_commons":"Category:Estación de Andalucía Tech"}}]}