{"elements":[{"type":"node","id":3994656261,"lat":39.0982467,"lon":-84.5097437,"tags":{"name":"The Banks","name:etymology":"The Banks","name:etymology:wikidata":"Q7715561","network":"Connector","network:wikidata":"Q3537097","old_name":"Cincinnati Cyclones","old_name:etymology":"Cincinnati Cyclones","old_name:etymology:wikidata":"Q1092226","operator":"Transdev","operator:wikidata":"Q442637","public_transport":"stop_position","railway":"tram_stop","ref":"1","tram":"yes"}},{"type":"node","id":4394273092,"lat":39.1172255,"lon":-84.5203611,"tags":{"name":"Brewery District","network":"Connector","network:wikidata":"Q3537097","operator":"Transdev","operator:wikidata":"Q442637","public_transport":"stop_position","railway":"tram_stop","ref":"11","source":"survey","tram":"yes"}},{"type":"node","id":4394273093,"lat":39.1128655,"lon":-84.5192534,"tags":{"name":"Liberty & Elm","network":"Connector","network:wikidata":"Q3537097","operator":"Transdev","operator:wikidata":"Q442637","public_transport":"stop_position","railway":"tram_stop","ref":"9","source":"survey","tram":"yes"}},{"type":"node","id":4394273094,"lat":39.1099061,"lon":-84.5185005,"tags":{"name":"14th & Elm","network":"Connector","network:wikidata":"Q3537097","operator":"Transdev","operator:wikidata":"Q442637","public_transport":"stop_position","railway":"tram_stop","ref":"8","source":"survey","tram":"yes"}},{"type":"node","id":4394273095,"lat":39.1149714,"lon":-84.519788,"tags":{"name":"Findlay Market–Elm","network":"Connector","network:wikidata":"Q3537097","operator":"Transdev","operator:wikidata":"Q442637","public_transport":"stop_position","railway":"tram_stop","ref":"10","source":"survey","tram":"yes"}},{"type":"node","id":4394273096,"lat":39.1007971,"lon":-84.5094922,"tags":{"name":"4th & Main","network":"Connector","network:wikidata":"Q3537097","old_name":"247 Telemarketing","old_name:etymology":"247 Telemarketing","operator":"Transdev","operator:wikidata":"Q442637","public_transport":"stop_position","railway":"tram_stop","ref":"2","tram":"yes"}},{"type":"node","id":4394273097,"lat":39.1032639,"lon":-84.5101984,"tags":{"name":"6th & Main","network":"Connector","network:wikidata":"Q3537097","old_name":"Richter & Phillips","old_name:etymology":"Richter & Phillips","operator":"Transdev","operator:wikidata":"Q442637","public_transport":"stop_position","railway":"tram_stop","ref":"3","tram":"yes"}},{"type":"node","id":4394273098,"lat":39.1071245,"lon":-84.5111613,"tags":{"name":"Court & Main","name:etymology":"Court Street;Main Street","name:etymology:wikidata":"Q117824095;Q80561731","network":"Connector","network:wikidata":"Q3537097","old_name":"JACK Casino","old_name:etymology":"JACK Cincinnati Casino","old_name:etymology:wikidata":"Q5905997","operator":"Transdev","operator:wikidata":"Q442637","public_transport":"stop_position","railway":"tram_stop","ref":"5","tram":"yes","wikidata":"Q117824075"}},{"type":"node","id":4394273099,"lat":39.1083447,"lon":-84.5146274,"tags":{"name":"12th & Vine","name:etymology":"12th Street;Vine Street","name:etymology:wikidata":"Q117824234;Q7932380","network":"Connector","network:wikidata":"Q3537097","operator":"Transdev","operator:wikidata":"Q442637","public_transport":"stop_position","railway":"tram_stop","ref":"7","source":"survey","tram":"yes"}},{"type":"node","id":4394273103,"lat":39.1156452,"lon":-84.5183532,"tags":{"name":"Findlay Market–Race","network":"Connector","network:wikidata":"Q3537097","operator":"Transdev","operator:wikidata":"Q442637","public_transport":"stop_position","railway":"tram_stop","ref":"12","tram":"yes"}},{"type":"node","id":4394273104,"lat":39.1053252,"lon":-84.5107092,"tags":{"name":"8th & Main","network":"Connector","network:wikidata":"Q3537097","operator":"Transdev","operator:wikidata":"Q442637","public_transport":"stop_position","railway":"tram_stop","ref":"4","tram":"yes"}},{"type":"node","id":4394278584,"lat":39.108465,"lon":-84.5114892,"tags":{"alt_name":"12th & Main","name":"Hanke Exchange","name:etymology":"Hanke Exchange","network":"Connector","network:wikidata":"Q3537097","operator":"Transdev","operator:wikidata":"Q442637","public_transport":"stop_position","railway":"tram_stop","ref":"6","tram":"yes","wikidata":"Q117824173"}},{"type":"node","id":4394278586,"lat":39.1053292,"lon":-84.5123798,"tags":{"name":"Public Library","name:etymology":"Downtown Main Library","name:etymology:wikidata":"Q69960768","network":"Connector","network:wikidata":"Q3537097","operator":"Transdev","operator:wikidata":"Q442637","public_transport":"stop_position","railway":"tram_stop","ref":"16","tram":"yes"}},{"type":"node","id":4394279189,"lat":39.1126156,"lon":-84.5175085,"tags":{"name":"Liberty & Race","network":"Connector","network:wikidata":"Q3537097","operator":"Transdev","operator:wikidata":"Q442637","public_transport":"stop_position","railway":"tram_stop","ref":"13","source":"survey","tram":"yes"}},{"type":"node","id":4394279190,"lat":39.104093,"lon":-84.512065,"tags":{"alt_name":"Walnut & 7th","name":"Aronoff Center","name:etymology":"Aronoff Center","name:etymology:wikidata":"Q4795559","network":"Connector","network:wikidata":"Q3537097","operator":"Transdev","operator:wikidata":"Q442637","public_transport":"stop_position","railway":"tram_stop","ref":"17","tram":"yes"}},{"type":"node","id":5246049346,"lat":39.108469,"lon":-84.5164714,"tags":{"name":"Washington Park","name:etymology":"Washington Park","name:etymology:wikidata":"Q7972097","network":"Connector","network:wikidata":"Q3537097","operator":"Transdev","operator:wikidata":"Q442637","public_transport":"stop_position","railway":"tram_stop","ref":"14","source":"survey","tram":"yes","wikidata":"Q7972097","wikipedia":"en:Washington Park (Cincinnati, Ohio)"}},{"type":"node","id":5246049389,"lat":39.1071512,"lon":-84.5141044,"tags":{"name":"Central Parkway","name:etymology":"Central Parkway","name:etymology:wikidata":"Q117811434","network":"Connector","network:wikidata":"Q3537097","operator":"Transdev","operator:wikidata":"Q442637","public_transport":"stop_position","railway":"tram_stop","ref":"15","tram":"yes"}},{"type":"node","id":8421663046,"lat":39.1009326,"lon":-84.5112953,"tags":{"name":"Fountain Square","name:etymology":"Fountain Square","name:etymology:wikidata":"Q5474767","network":"Connector","network:wikidata":"Q3537097","operator":"Transdev","operator:wikidata":"Q442637","public_transport":"stop_position","railway":"tram_stop","ref":"18","tram":"yes"}}]}