{"elements":[{"type":"node","id":305679515,"lat":43.771516,"lon":11.211938,"tags":{"name":"Federiga (Foggini)","operator":"GEST","operator:wikidata":"Q16558230","public_transport":"stop_position","railway":"tram_stop","tram":"yes"}},{"type":"node","id":533583882,"lat":43.7579796,"lon":11.1821825,"tags":{"name":"Resistenza (Pantin)","operator":"GEST","operator:wikidata":"Q16558230","public_transport":"stop_position","railway":"tram_stop","tram":"yes"}},{"type":"node","id":533592243,"lat":43.7674535,"lon":11.2092252,"tags":{"name":"Arcipressi (Ronco Corto)","operator":"GEST","operator:wikidata":"Q16558230","public_transport":"stop_position","railway":"tram_stop","tram":"yes"}},{"type":"node","id":533595820,"lat":43.7547689,"lon":11.1789889,"tags":{"name":"De André (Ciliegi)","operator":"GEST","operator:wikidata":"Q16558230","public_transport":"stop_position","railway":"tram_stop","tram":"yes"}},{"type":"node","id":534939434,"lat":43.7641474,"lon":11.1979629,"tags":{"name":"Nenni - Torregalli (Lupi di Toscana)","operator":"GEST","operator:wikidata":"Q16558230","public_transport":"stop_position","railway":"tram_stop","tram":"yes"}},{"type":"node","id":536396494,"lat":43.7773356,"lon":11.2386481,"tags":{"name":"Porta al Prato - Leopolda (Parco della Musica)","operator":"GEST","operator:wikidata":"Q16558230","public_transport":"stop_position","railway":"tram_stop","tram":"yes"}},{"type":"node","id":536397062,"lat":43.761933,"lon":11.1873435,"tags":{"name":"Aldo Moro","operator":"GEST","operator:wikidata":"Q16558230","public_transport":"stop_position","railway":"tram_stop","tram":"yes"}},{"type":"node","id":536398523,"lat":43.7715072,"lon":11.2119802,"tags":{"name":"Federiga (Foggini)","operator":"GEST","operator:wikidata":"Q16558230","public_transport":"stop_position","railway":"tram_stop","tram":"yes"}},{"type":"node","id":536399001,"lat":43.7736033,"lon":11.2169677,"tags":{"name":"Talenti","operator":"GEST","operator:wikidata":"Q16558230","public_transport":"stop_position","railway":"tram_stop","tram":"yes"}},{"type":"node","id":536399684,"lat":43.77411,"lon":11.2212693,"tags":{"name":"Batoni","operator":"GEST","operator:wikidata":"Q16558230","public_transport":"stop_position","railway":"tram_stop","tram":"yes","wheelchair":"yes"}},{"type":"node","id":536400284,"lat":43.7746238,"lon":11.2252099,"tags":{"name":"Sansovino","operator":"GEST","operator:wikidata":"Q16558230","public_transport":"stop_position","railway":"tram_stop","tram":"yes","wheelchair":"yes"}},{"type":"node","id":536400703,"lat":43.7754384,"lon":11.2287296,"tags":{"name":"Paolo Uccello (Arno)","operator":"GEST","operator:wikidata":"Q16558230","public_transport":"stop_position","railway":"tram_stop","tram":"yes","wheelchair":"yes"}},{"type":"node","id":536400790,"lat":43.7769658,"lon":11.232748,"tags":{"name":"Cascine (Olmi - Carlo Monni)","operator":"GEST","operator:wikidata":"Q16558230","public_transport":"stop_position","railway":"tram_stop","ref":"12","tram":"yes","wheelchair":"limited"}},{"type":"node","id":536400924,"lat":43.7760798,"lon":11.2470018,"tags":{"name":"Alamanni - Stazione Santa Maria Novella","operator":"GEST","operator:wikidata":"Q16558230","public_transport":"stop_position","railway":"tram_stop","tram":"yes"}},{"type":"node","id":1719819767,"lat":43.7760606,"lon":11.2469696,"tags":{"name":"Alamanni - Stazione Santa Maria Novella","operator":"GEST","operator:wikidata":"Q16558230","public_transport":"stop_position","railway":"tram_stop","tram":"yes"}},{"type":"node","id":1719819773,"lat":43.7773123,"lon":11.2386648,"tags":{"name":"Porta al Prato - Leopolda (Parco della Musica)","operator":"GEST","operator:wikidata":"Q16558230","public_transport":"stop_position","railway":"tram_stop","tram":"yes"}},{"type":"node","id":1742957210,"lat":43.7619045,"lon":11.1873619,"tags":{"name":"Aldo Moro","operator":"GEST","operator:wikidata":"Q16558230","public_transport":"stop_position","railway":"tram_stop","tram":"yes"}},{"type":"node","id":1742957232,"lat":43.7674374,"lon":11.209266,"tags":{"name":"Arcipressi (Ronco Corto)","operator":"GEST","operator:wikidata":"Q16558230","public_transport":"stop_position","railway":"tram_stop","tram":"yes"}},{"type":"node","id":1742957238,"lat":43.7741403,"lon":11.2212548,"tags":{"name":"Batoni","operator":"GEST","operator:wikidata":"Q16558230","public_transport":"stop_position","railway":"tram_stop","tram":"yes","wheelchair":"yes"}},{"type":"node","id":1742957243,"lat":43.7769371,"lon":11.2327319,"tags":{"name":"Cascine (Olmi - Carlo Monni)","operator":"GEST","operator:wikidata":"Q16558230","public_transport":"stop_position","railway":"tram_stop","ref":"12","tram":"yes","wheelchair":"limited"}},{"type":"node","id":1742957246,"lat":43.7547512,"lon":11.1790294,"tags":{"name":"De André (Ciliegi)","operator":"GEST","operator:wikidata":"Q16558230","public_transport":"stop_position","railway":"tram_stop","tram":"yes"}},{"type":"node","id":1742957255,"lat":43.7641184,"lon":11.1979799,"tags":{"name":"Nenni - Torregalli (Lupi di Toscana)","operator":"GEST","operator:wikidata":"Q16558230","public_transport":"stop_position","railway":"tram_stop","tram":"yes"}},{"type":"node","id":1742957256,"lat":43.7754233,"lon":11.2287647,"tags":{"name":"Paolo Uccello (Arno)","operator":"GEST","operator:wikidata":"Q16558230","public_transport":"stop_position","railway":"tram_stop","tram":"yes","wheelchair":"yes"}},{"type":"node","id":1742957286,"lat":43.7746547,"lon":11.2252022,"tags":{"name":"Sansovino","operator":"GEST","operator:wikidata":"Q16558230","public_transport":"stop_position","railway":"tram_stop","tram":"yes","wheelchair":"yes"}},{"type":"node","id":1742957291,"lat":43.773575,"lon":11.2169755,"tags":{"name":"Talenti","operator":"GEST","operator:wikidata":"Q16558230","public_transport":"stop_position","railway":"tram_stop","tram":"yes"}},{"type":"node","id":1742957295,"lat":43.7551219,"lon":11.1740817,"tags":{"name":"Villa Costanza","operator":"GEST","operator:wikidata":"Q16558230","public_transport":"stop_position","railway":"tram_stop","tram":"yes"}},{"type":"node","id":1742957298,"lat":43.7551454,"lon":11.1741085,"tags":{"name":"Villa Costanza","operator":"GEST","operator:wikidata":"Q16558230","public_transport":"stop_position","railway":"tram_stop","tram":"yes"}},{"type":"node","id":1742957362,"lat":43.7579675,"lon":11.1822064,"tags":{"name":"Resistenza (Pantin)","operator":"GEST","operator:wikidata":"Q16558230","public_transport":"stop_position","railway":"tram_stop","tram":"yes"}},{"type":"node","id":2916172757,"lat":43.7963154,"lon":11.2138789,"tags":{"name":"Novoli - Palazzi Rossi","operator":"GEST","operator:wikidata":"Q16558230","public_transport":"stop_position","railway":"tram_stop","start_date":"2019-02-11","tram":"yes"}},{"type":"node","id":2916172793,"lat":43.7995437,"lon":11.243866,"tags":{"alt_name":"Don Facibeni","name":"Morgagni - Università","operator":"GEST","operator:wikidata":"Q16558230","public_transport":"stop_position","railway":"tram_stop","start_date":"16-07-2018","tram":"yes"}},{"type":"node","id":2916174312,"lat":43.786743,"lon":11.2396957,"tags":{"name":"Ponte all'Asse","operator":"GEST","operator:wikidata":"Q16558230","public_transport":"stop_position","railway":"tram_stop","tram":"yes"}},{"type":"node","id":2916174322,"lat":43.7996568,"lon":11.2084354,"tags":{"name":"Guidoni","operator":"GEST","operator:wikidata":"Q16558230","public_transport":"stop_position","railway":"tram_stop","start_date":"2019-02-11","tram":"yes"}},{"type":"node","id":3550648122,"lat":43.776579,"lon":11.2493448,"tags":{"name":"Valfonda - Stazione Santa Maria Novella","operator":"GEST","operator:wikidata":"Q16558230","public_transport":"stop_position","railway":"tram_stop","start_date":"16-07-2018","tram":"yes"}},{"type":"node","id":3758832957,"lat":43.7906561,"lon":11.2265679,"tags":{"name":"San Donato - Università","operator":"GEST","operator:wikidata":"Q16558230","public_transport":"stop_position","railway":"tram_stop","tram":"yes"}},{"type":"node","id":4570465276,"lat":43.8030269,"lon":11.2025226,"tags":{"name":"Peretola Aeroporto","operator":"GEST","operator:wikidata":"Q16558230","public_transport":"stop_position","railway":"tram_stop","start_date":"2019-02-11","tram":"yes"}},{"type":"node","id":4570465278,"lat":43.7852615,"lon":11.2423044,"tags":{"name":"Redi","operator":"GEST","operator:wikidata":"Q16558230","public_transport":"stop_position","railway":"tram_stop","tram":"yes"}},{"type":"node","id":4570465280,"lat":43.7943153,"lon":11.217998,"tags":{"name":"Novoli - Torre degli Agli","operator":"GEST","operator:wikidata":"Q16558230","public_transport":"stop_position","railway":"tram_stop","tram":"yes"}},{"type":"node","id":4570465287,"lat":43.7886308,"lon":11.2346301,"tags":{"name":"Buonsignori - Liceo Da Vinci","operator":"GEST","operator:wikidata":"Q16558230","public_transport":"stop_position","railway":"tram_stop","tram":"yes"}},{"type":"node","id":4570465288,"lat":43.7912902,"lon":11.2472641,"tags":{"alt_name":"Stibbert","name":"Leopoldo","operator":"GEST","operator:wikidata":"Q16558230","public_transport":"stop_position","railway":"tram_stop","start_date":"2018-07-16","tram":"yes"}},{"type":"node","id":4570474689,"lat":43.8032766,"lon":11.2466484,"tags":{"name":"Careggi - Ospedale","operator":"GEST","operator:wikidata":"Q16558230","public_transport":"stop_position","railway":"tram_stop","start_date":"16-07-2018","tram":"yes","wheelchair":"yes"}},{"type":"node","id":4570474692,"lat":43.7921291,"lon":11.2233015,"tags":{"name":"Novoli - Regione Toscana","operator":"GEST","operator:wikidata":"Q16558230","public_transport":"stop_position","railway":"tram_stop","tram":"yes"}},{"type":"node","id":4656374376,"lat":43.7995012,"lon":11.243925,"tags":{"alt_name":"Don Facibeni","name":"Morgagni - Università","operator":"GEST","operator:wikidata":"Q16558230","public_transport":"stop_position","railway":"tram_stop","start_date":"16-07-2018","tram":"yes"}},{"type":"node","id":4656374384,"lat":43.8032452,"lon":11.2466353,"tags":{"name":"Careggi - Ospedale","operator":"GEST","operator:wikidata":"Q16558230","public_transport":"stop_position","railway":"tram_stop","start_date":"16-07-2018","tram":"yes"}},{"type":"node","id":4847406505,"lat":43.7912724,"lon":11.2472024,"tags":{"alt_name":"Stibbert","name":"Leopoldo","operator":"GEST","operator:wikidata":"Q16558230","public_transport":"stop_position","railway":"tram_stop","start_date":"2018-07-16","tram":"yes"}},{"type":"node","id":4850244247,"lat":43.7881734,"lon":11.2494098,"tags":{"name":"Muratori - Stazione Statuto","operator":"GEST","operator:wikidata":"Q16558230","public_transport":"stop_position","railway":"tram_stop","start_date":"16-07-2018","tram":"yes"}},{"type":"node","id":4850244278,"lat":43.788196,"lon":11.2494746,"tags":{"name":"Muratori - Stazione Statuto","operator":"GEST","operator:wikidata":"Q16558230","public_transport":"stop_position","railway":"tram_stop","start_date":"16-07-2018","tram":"yes"}},{"type":"node","id":4850244279,"lat":43.7857194,"lon":11.2507272,"tags":{"name":"Statuto","operator":"GEST","operator:wikidata":"Q16558230","public_transport":"stop_position","railway":"tram_stop","start_date":"16-07-2018","tram":"yes"}},{"type":"node","id":4850244281,"lat":43.7857313,"lon":11.2508095,"tags":{"name":"Statuto","operator":"GEST","operator:wikidata":"Q16558230","public_transport":"stop_position","railway":"tram_stop","start_date":"16-07-2018","tram":"yes"}},{"type":"node","id":4892152752,"lat":43.7834422,"lon":11.2518572,"tags":{"loc_ref":"1","name":"Strozzi - Fallaci","operator":"GEST","operator:wikidata":"Q16558230","public_transport":"stop_position","railway":"tram_stop","tram":"yes"}},{"type":"node","id":4892152758,"lat":43.7834472,"lon":11.2518956,"tags":{"loc_ref":"2","name":"Strozzi - Fallaci","operator":"GEST","operator:wikidata":"Q16558230","public_transport":"stop_position","railway":"tram_stop","tram":"yes"}},{"type":"node","id":4979448906,"lat":43.7931516,"lon":11.24396,"tags":{"name":"Pisacane","operator":"GEST","operator:wikidata":"Q16558230","public_transport":"stop_position","railway":"tram_stop","tram":"yes"}},{"type":"node","id":4979448907,"lat":43.7765885,"lon":11.2493902,"tags":{"name":"Valfonda - Stazione Santa Maria Novella","operator":"GEST","operator:wikidata":"Q16558230","public_transport":"stop_position","railway":"tram_stop","start_date":"16-07-2018","tram":"yes"}},{"type":"node","id":4979448908,"lat":43.7939545,"lon":11.2447189,"tags":{"name":"Poggetto","operator":"GEST","operator:wikidata":"Q16558230","public_transport":"stop_position","railway":"tram_stop","tram":"yes"}},{"type":"node","id":4979448909,"lat":43.7956026,"lon":11.2405444,"tags":{"name":"Dalmazia","operator":"GEST","operator:wikidata":"Q16558230","public_transport":"stop_position","railway":"tram_stop","tram":"yes"}},{"type":"node","id":5007185944,"lat":43.7958817,"lon":11.2414513,"tags":{"alt_name":"Teatro di Rifredi","name":"Vittorio Emanuele II","operator":"GEST","operator:wikidata":"Q16558230","public_transport":"stop_position","railway":"tram_stop","tram":"yes"}},{"type":"node","id":5020458292,"lat":43.7804263,"lon":11.2495782,"tags":{"alt_name":"Fiere e Congressi","name":"Fortezza","operator":"GEST","operator:wikidata":"Q16558230","public_transport":"stop_position","railway":"tram_stop","tram":"yes"}},{"type":"node","id":5020460221,"lat":43.7804572,"lon":11.2495417,"tags":{"alt_name":"Fiere e Congressi","name":"Fortezza","operator":"GEST","operator:wikidata":"Q16558230","public_transport":"stop_position","railway":"tram_stop","tram":"yes"}},{"type":"node","id":5022126154,"lat":43.7886034,"lon":11.234615,"tags":{"name":"Buonsignori - Liceo Da Vinci","operator":"GEST","operator:wikidata":"Q16558230","public_transport":"stop_position","railway":"tram_stop","tram":"yes"}},{"type":"node","id":5022126164,"lat":43.7852546,"lon":11.2422586,"tags":{"name":"Redi","operator":"GEST","operator:wikidata":"Q16558230","public_transport":"stop_position","railway":"tram_stop","tram":"yes"}},{"type":"node","id":5022126169,"lat":43.7867154,"lon":11.2396819,"tags":{"name":"Ponte all'Asse","operator":"GEST","operator:wikidata":"Q16558230","public_transport":"stop_position","railway":"tram_stop","tram":"yes"}},{"type":"node","id":5023423190,"lat":43.7962915,"lon":11.21386,"tags":{"name":"Novoli - Palazzi Rossi","operator":"GEST","operator:wikidata":"Q16558230","public_transport":"stop_position","railway":"tram_stop","start_date":"2019-02-11","tram":"yes"}},{"type":"node","id":5023423191,"lat":43.7921015,"lon":11.2232887,"tags":{"name":"Novoli - Regione Toscana","operator":"GEST","operator:wikidata":"Q16558230","public_transport":"stop_position","railway":"tram_stop","tram":"yes"}},{"type":"node","id":5023423192,"lat":43.7942649,"lon":11.2179527,"tags":{"name":"Novoli - Torre degli Agli","operator":"GEST","operator:wikidata":"Q16558230","public_transport":"stop_position","railway":"tram_stop","tram":"yes"}},{"type":"node","id":5023423194,"lat":43.7906328,"lon":11.2265529,"tags":{"name":"San Donato - Università","operator":"GEST","operator:wikidata":"Q16558230","public_transport":"stop_position","railway":"tram_stop","tram":"yes"}},{"type":"node","id":5023429384,"lat":43.7995985,"lon":11.2084054,"tags":{"name":"Guidoni","operator":"GEST","operator:wikidata":"Q16558230","public_transport":"stop_position","railway":"tram_stop","start_date":"2019-02-11","tram":"yes"}},{"type":"node","id":5023429385,"lat":43.8030006,"lon":11.2024887,"tags":{"name":"Peretola Aeroporto","operator":"GEST","operator:wikidata":"Q16558230","public_transport":"stop_position","railway":"tram_stop","start_date":"2019-02-11","tram":"yes"}},{"type":"node","id":5593787617,"lat":43.7820038,"lon":11.2429649,"tags":{"name":"Belfiore","operator":"GEST","operator:wikidata":"Q16558230","public_transport":"stop_position","railway":"tram_stop","tram":"yes"}},{"type":"node","id":5594383443,"lat":43.7819872,"lon":11.2430086,"tags":{"name":"Belfiore","operator":"GEST","operator:wikidata":"Q16558230","public_transport":"stop_position","railway":"tram_stop","tram":"yes"}},{"type":"node","id":6223240259,"lat":43.7788718,"lon":11.2451065,"tags":{"name":"Rosselli","operator":"GEST","operator:wikidata":"Q16558230","public_transport":"stop_position","railway":"tram_stop","start_date":"2018","tram":"yes"}},{"type":"node","id":11773541554,"lat":43.7820073,"lon":11.2532859,"tags":{"name":"Lavagnini Fortezza","operator":"GEST","operator:wikidata":"Q16558230","public_transport":"stop_position","railway":"tram_stop","tram":"yes"}},{"type":"node","id":11773541555,"lat":43.7819505,"lon":11.2533112,"tags":{"name":"Lavagnini Fortezza","operator":"GEST","operator:wikidata":"Q16558230","public_transport":"stop_position","railway":"tram_stop","tram":"yes"}},{"type":"node","id":11773541556,"lat":43.7830072,"lon":11.2576165,"tags":{"name":"Lavagnini Poliziano","operator":"GEST","operator:wikidata":"Q16558230","public_transport":"stop_position","railway":"tram_stop","tram":"yes"}},{"type":"node","id":11773541557,"lat":43.7829728,"lon":11.257631,"tags":{"name":"Lavagnini Poliziano","operator":"GEST","operator:wikidata":"Q16558230","public_transport":"stop_position","railway":"tram_stop","tram":"yes"}},{"type":"node","id":11773541558,"lat":43.7843074,"lon":11.2621514,"tags":{"name":"Libertà Parterre","operator":"GEST","operator:wikidata":"Q16558230","public_transport":"stop_position","railway":"tram_stop","tram":"yes"}},{"type":"node","id":11773541559,"lat":43.7842584,"lon":11.2621153,"tags":{"name":"Libertà Parterre","operator":"GEST","operator:wikidata":"Q16558230","public_transport":"stop_position","railway":"tram_stop","tram":"yes"}},{"type":"node","id":12057377871,"lat":43.7776426,"lon":11.2586085,"tags":{"name":"San Marco Università","operator":"GEST","operator:wikidata":"Q16558230","public_transport":"stop_position","railway":"tram_stop","tram":"yes"}},{"type":"node","id":12109852410,"lat":43.7788537,"lon":11.245032,"tags":{"name":"Rosselli","operator":"GEST","operator:wikidata":"Q16558230","public_transport":"stop_position","railway":"tram_stop","start_date":"2019","tram":"yes"}},{"type":"node","id":12202213633,"lat":43.7820064,"lon":11.2614695,"tags":{"name":"Cavour","operator":"GEST","operator:wikidata":"Q16558230","public_transport":"stop_position","railway":"tram_stop","tram":"yes"}},{"type":"node","id":12537389707,"lat":43.7810979,"lon":11.2618874,"tags":{"name":"La Marmora Orto Botanico","operator":"GEST","operator:wikidata":"Q16558230","public_transport":"stop_position","railway":"tram_stop","tram":"yes"}},{"type":"node","id":5489547915,"lat":43.8033271,"lon":11.2466696,"tags":{"name":"Careggi - Ospedale","operator":"GEST","operator:wikidata":"Q16558230","public_transport":"stop_position","railway":"tram_stop","start_date":"16-07-2018","tram":"yes"}},{"type":"node","id":5545538555,"lat":43.7750352,"lon":11.2499508,"tags":{"name":"Unità","operator":"GEST","operator:wikidata":"Q16558230","public_transport":"stop_position","railway":"tram_stop","tram":"yes","wheelchair":"yes"}},{"type":"node","id":5545538561,"lat":43.7750474,"lon":11.2499914,"tags":{"name":"Unità","operator":"GEST","operator:wikidata":"Q16558230","public_transport":"stop_position","railway":"tram_stop","tram":"yes","wheelchair":"yes"}},{"type":"node","id":12537389704,"lat":43.7776883,"lon":11.2586546,"tags":{"name":"San Marco Università","operator":"GEST","operator:wikidata":"Q16558230","public_transport":"stop_position","railway":"tram_stop","tram":"yes"}}]}