{"elements":[{"type":"node","id":5079684560,"lat":25.415057,"lon":51.4878378,"tags":{"destination":"لوسيل","name":"لوسيل QNB","name:ar":"لوسيل QNB","name:en":"Lusail QNB","network":"Doha Metro","operator":"RKH Qitarat","public_transport":"stop_position","start_date":"2019-12-10","subway":"yes"}},{"type":"node","id":5079772913,"lat":25.3707175,"lon":51.5248584,"tags":{"destination":"لوسيل","name":"لقطيفية","name:ar":"لقطيفية","name:en":"Legtaifiya","network":"Doha Metro","operator":"RKH Qitarat","public_transport":"stop_position","start_date":"2020-09-01","subway":"yes"}},{"type":"node","id":5079773621,"lat":25.3620967,"lon":51.5217653,"tags":{"destination":"لوسيل","name":"كتارا","name:ar":"كتارا","name:en":"Katara","network":"Doha Metro","operator":"RKH Qitarat","public_transport":"stop_position","railway":"stop","start_date":"2019-12-10","subway":"yes"}},{"type":"node","id":5079773704,"lat":25.2284671,"lon":51.5783238,"tags":{"destination":"لوسيل","name":"المنطقة الحرة","name:ar":"المنطقة الحرة","name:en":"Free Zone","network":"Doha Metro","old_name":"المنطقة الاقتصادية","old_name:ar":"المنطقة الاقتصادية","old_name:en":"Economic Zone","operator":"RKH Qitarat","public_transport":"stop_position","subway":"yes"}},{"type":"node","id":5079773716,"lat":25.1931428,"lon":51.5962561,"tags":{"destination":"الوكرة - مطار حمد الدولي مبنى 1","name":"الوكرة","name:ar":"الوكرة","name:en":"Al Wakra","name:ta":"அல் வக்ரா","network":"Doha Metro","operator":"RKH Qitarat","public_transport":"stop_position","railway":"stop","start_date":"2019-05-08","subway":"yes"}},{"type":"node","id":5079773717,"lat":25.2115566,"lon":51.5865079,"tags":{"addr:city":"الدوحة","destination":"لوسيل","name":"رأس بوفنطاس","name:ar":"رأس بوفنطاس","name:en":"Ras Bu Fontas","network":"Doha Metro","operator":"RKH Qitarat","public_transport":"stop_position","railway":"stop","start_date":"2019-05-08","subway":"yes"}},{"type":"node","id":5079773835,"lat":25.2572072,"lon":51.6152356,"tags":{"destination":"لوسيل","layer":"-1","name":"مطار حمد الدولي مبنى 1","name:ar":"مطار حمد الدولي مبنى 1","name:en":"Hamad International Airport","name:pt":"Aeroporto Internacional de Hamad","network":"Doha Metro","operator":"RKH Qitarat","public_transport":"stop_position","railway":"stop","start_date":"2019-12-10","subway":"yes"}},{"type":"node","id":5079808688,"lat":25.3242947,"lon":51.347981,"tags":{"destination":"المنصورة","name":"الرفاع","name:ar":"الرفاع","name:en":"Al Riffa","network":"Doha Metro","operator":"RKH Qitarat","public_transport":"stop_position","start_date":"2019-12-10","subway":"yes"}},{"type":"node","id":5997671306,"lat":25.2115347,"lon":51.5864566,"tags":{"addr:city":"الدوحة","destination":"الوكرة - مطار حمد الدولي مبنى 1","name":"رأس بوفنطاس","name:ar":"رأس بوفنطاس","name:en":"Ras Bu Fontas","network":"Doha Metro","operator":"RKH Qitarat","public_transport":"stop_position","railway":"stop","start_date":"2019-05-08","subway":"yes"}},{"type":"node","id":5997671390,"lat":25.2284695,"lon":51.5782784,"tags":{"destination":"الوكرة","name":"المنطقة الحرة","name:ar":"المنطقة الحرة","name:en":"Free Zone","network":"Doha Metro","old_name":"المنطقة الاقتصادية","old_name:ar":"المنطقة الاقتصادية","old_name:en":"Economic Zone","operator":"RKH Qitarat","public_transport":"stop_position","subway":"yes"}},{"type":"node","id":6412864349,"lat":25.4150252,"lon":51.487636,"tags":{"destination":"الوكرة - مطار حمد الدولي مبنى 1","name":"لوسيل QNB","name:ar":"لوسيل QNB","name:en":"Lusail QNB","network":"Doha Metro","operator":"RKH Qitarat","public_transport":"stop_position","start_date":"2019-12-10","subway":"yes"}},{"type":"node","id":6460443152,"lat":25.1931164,"lon":51.5961968,"tags":{"destination":"الوكرة","name":"الوكرة","name:ar":"الوكرة","name:en":"Al Wakra","name:ta":"அல் வக்ரா","network":"Doha Metro","operator":"RKH Qitarat","public_transport":"stop_position","railway":"stop","start_date":"2019-05-08","subway":"yes"}},{"type":"node","id":6460638508,"lat":25.3501377,"lon":51.523871,"tags":{"destination":"الوكرة - مطار حمد الدولي مبنى 1","name":"القصار","name:ar":"القصار","name:en":"Al Qassar","network":"Doha Metro","operator":"RKH Qitarat","public_transport":"stop_position","railway":"stop","start_date":"2019-05-08","subway":"yes"}},{"type":"node","id":6460638530,"lat":25.3229874,"lon":51.5277025,"tags":{"destination":"الوكرة - مطار حمد الدولي مبنى 1","long_name:en":"Doha Exibition and Convention Centre","name":"مركز المعارض","name:ar":"مركز المعارض","name:en":"DECC","network":"Doha Metro","operator":"RKH Qitarat","public_transport":"stop_position","start_date":"2019-05-08","subway":"yes"}},{"type":"node","id":6460638540,"lat":25.3151717,"lon":51.5198106,"tags":{"destination":"الوكرة - مطار حمد الدولي مبنى 1","name":"الخليج الغربي","name:ar":"الخليج الغربي","name:en":"West Bay","network":"Doha Metro","official_name":"الخليج الغربي- قطر للتأمين","official_name:ar":"الخليج الغربي- قطر للتأمين","official_name:en":"West Bay - QIC","operator":"RKH Qitarat","public_transport":"stop_position","railway":"stop","start_date":"2019-05-08","subway":"yes"}},{"type":"node","id":6460638551,"lat":25.3077795,"lon":51.5154056,"tags":{"destination":"الوكرة - مطار حمد الدولي مبنى 1","name":"الكورنيش","name:ar":"الكورنيش","name:en":"Corniche","network":"Doha Metro","operator":"RKH Qitarat","public_transport":"stop_position","start_date":"2019-05-08","subway":"yes"}},{"type":"node","id":6460638563,"lat":25.2912693,"lon":51.520166,"tags":{"destination":"الوكرة - مطار حمد الدولي مبنى 1","name":"البدع","name:ar":"البدع","name:en":"Al Bidda (Red Line)","network":"Doha Metro","operator":"RKH Qitarat","public_transport":"stop_position","railway":"stop","start_date":"2019-05-08","subway":"yes"}},{"type":"node","id":6460638573,"lat":25.2829114,"lon":51.5255622,"tags":{"destination":"الوكرة - مطار حمد الدولي مبنى 1","name":"مشيرب","name:ar":"مشيرب","name:en":"Msheireb (Red Line)","network":"Doha Metro","operator":"RKH Qitarat","public_transport":"stop_position","railway":"stop","start_date":"2019-05-08","subway":"yes"}},{"type":"node","id":6460638584,"lat":25.2747851,"lon":51.5396427,"tags":{"destination":"الوكرة - مطار حمد الدولي مبنى 1","name":"الدوحة الجديدة","name:ar":"الدوحة الجديدة","name:en":"Al Doha Al Jadeda","network":"Doha Metro","operator":"RKH Qitarat","public_transport":"stop_position","railway":"stop","start_date":"2019-05-08","subway":"yes"}},{"type":"node","id":6460640392,"lat":25.2693968,"lon":51.5494194,"tags":{"destination":"الوكرة - مطار حمد الدولي مبنى 1","name":"أم غويلينة","name:ar":"أم غويلينة","name:en":"Umm Ghuwailina","network":"Doha Metro","operator":"RKH Qitarat","public_transport":"stop_position","railway":"stop","start_date":"2019-05-08","subway":"yes"}},{"type":"node","id":6460640396,"lat":25.2633419,"lon":51.5580303,"tags":{"destination":"الوكرة - مطار حمد الدولي مبنى 1","name":"المطار القديم","name:ar":"المطار القديم","name:en":"Al Matar Al Qadeem","network":"Doha Metro","operator":"RKH Qitarat","public_transport":"stop_position","railway":"stop","start_date":"2019-05-08","subway":"yes"}},{"type":"node","id":6460640403,"lat":25.2496709,"lon":51.5667466,"tags":{"destination":"الوكرة - مطار حمد الدولي مبنى 1","name":"عقبة بن نافع","name:ar":"عقبة بن نافع","name:en":"Oqba Ibn Nafie","network":"Doha Metro","operator":"RKH Qitarat","public_transport":"stop_position","start_date":"2019-05-08","subway":"yes"}},{"type":"node","id":6460640407,"lat":25.3501392,"lon":51.5241145,"tags":{"destination":"لوسيل","name":"القصار","name:ar":"القصار","name:en":"Al Qassar","network":"Doha Metro","operator":"RKH Qitarat","public_transport":"stop_position","railway":"stop","start_date":"2019-05-08","subway":"yes"}},{"type":"node","id":6460640429,"lat":25.3229878,"lon":51.5277521,"tags":{"destination":"لوسيل","long_name:en":"Doha Exibition and Convention Centre","name":"مركز المعارض","name:ar":"مركز المعارض","name:en":"DECC","name:ml":"ഡി.ഇ.സി.സി","network":"Doha Metro","operator":"RKH Qitarat","public_transport":"stop_position","railway":"stop","start_date":"2019-05-08","subway":"yes"}},{"type":"node","id":6460640439,"lat":25.3151331,"lon":51.519836,"tags":{"destination":"لوسيل","name":"الخليج الغربي","name:ar":"الخليج الغربي","name:en":"West Bay","network":"Doha Metro","official_name":"الخليج الغربي- قطر للتأمين","official_name:ar":"الخليج الغربي- قطر للتأمين","official_name:en":"West Bay - QIC","operator":"RKH Qitarat","public_transport":"stop_position","railway":"stop","start_date":"2019-05-08","subway":"yes"}},{"type":"node","id":6460640450,"lat":25.3077761,"lon":51.5154552,"tags":{"destination":"لوسيل","name":"الكورنيش","name:ar":"الكورنيش","name:en":"Corniche","network":"Doha Metro","operator":"RKH Qitarat","public_transport":"stop_position","railway":"stop","start_date":"2019-05-08","subway":"yes"}},{"type":"node","id":6460640462,"lat":25.2912789,"lon":51.5202144,"tags":{"destination":"لوسيل","name":"البدع","name:ar":"البدع","name:en":"Al Bidda (Red Line)","network":"Doha Metro","operator":"RKH Qitarat","public_transport":"stop_position","start_date":"2019-05-08","subway":"yes"}},{"type":"node","id":6460640472,"lat":25.2829478,"lon":51.5255914,"tags":{"destination":"لوسيل","name":"مشيرب","name:ar":"مشيرب","name:en":"Msheireb (Red Line)","network":"Doha Metro","operator":"RKH Qitarat","public_transport":"stop_position","railway":"stop","start_date":"2019-05-08","subway":"yes"}},{"type":"node","id":6460640483,"lat":25.2748273,"lon":51.5396599,"tags":{"destination":"لوسيل","name":"الدوحة الجديدة","name:ar":"الدوحة الجديدة","name:en":"Al Doha Al Jadeda","network":"Doha Metro","operator":"RKH Qitarat","public_transport":"stop_position","railway":"stop","start_date":"2019-05-08","subway":"yes"}},{"type":"node","id":6460640491,"lat":25.2694324,"lon":51.5494498,"tags":{"destination":"لوسيل","name":"أم غويلينة","name:ar":"أم غويلينة","name:en":"Umm Ghuwailina","network":"Doha Metro","operator":"RKH Qitarat","public_transport":"stop_position","railway":"stop","start_date":"2019-05-08","subway":"yes"}},{"type":"node","id":6460640495,"lat":25.2633765,"lon":51.5580619,"tags":{"destination":"لوسيل","name":"المطار القديم","name:ar":"المطار القديم","name:en":"Al Matar Al Qadeem","network":"Doha Metro","operator":"RKH Qitarat","public_transport":"stop_position","railway":"stop","start_date":"2019-05-08","subway":"yes"}},{"type":"node","id":6460640502,"lat":25.2496901,"lon":51.5667914,"tags":{"destination":"لوسيل","name":"عقبة بن نافع","name:ar":"عقبة بن نافع","name:en":"Oqba Ibn Nafie","network":"Doha Metro","operator":"RKH Qitarat","public_transport":"stop_position","start_date":"2019-05-08","subway":"yes"}},{"type":"node","id":6462119759,"lat":25.3823405,"lon":51.4930303,"tags":{"destination":"لوسيل","name":"جامعة قطر","name:ar":"جامعة قطر","name:en":"Qatar University","network":"Doha Metro","operator":"RKH Qitarat","public_transport":"stop_position","start_date":"2019-12-10","subway":"yes"}},{"type":"node","id":6462121936,"lat":25.3823228,"lon":51.4929957,"tags":{"destination":"الوكرة - مطار حمد الدولي مبنى 1","name":"جامعة قطر","name:ar":"جامعة قطر","name:en":"Qatar University","network":"Doha Metro","operator":"RKH Qitarat","public_transport":"stop_position","start_date":"2019-12-10","subway":"yes"}},{"type":"node","id":6996456026,"lat":25.2790439,"lon":51.5709283,"tags":{"destination":"راس بو عبود","name":"راس بو عبود","name:ar":"راس بو عبود","name:en":"Ras Bu Abboud","network":"Doha Metro","operator":"RKH Qitarat","public_transport":"stop_position","railway":"stop","start_date":"2019-11-21","subway":"yes"}},{"type":"node","id":6996456045,"lat":25.2846804,"lon":51.5493265,"tags":{"destination":"راس بو عبود","name":"المتحف الوطني","name:ar":"المتحف الوطني","name:de":"Nationalmuseum","name:en":"National Museum","name:es":"Museo Nacional","name:fr":"Musée National","name:ur":"قومی عجائب گھر","network":"Doha Metro","operator":"RKH Qitarat","public_transport":"stop_position","railway":"stop","start_date":"2019-11-21","subway":"yes"}},{"type":"node","id":6996456055,"lat":25.2865171,"lon":51.5362473,"tags":{"destination":"راس بو عبود","name":"سوق واقف","name:ar":"سوق واقف","name:en":"Souq Waqif","network":"Doha Metro","operator":"RKH Qitarat","public_transport":"stop_position","railway":"stop","start_date":"2019-11-21","subway":"yes"}},{"type":"node","id":6996456064,"lat":25.2827122,"lon":51.5257673,"tags":{"destination":"راس بو عبود","name":"مشيرب","name:ar":"مشيرب","name:en":"Msheireb (Gold Line)","network":"Doha Metro","operator":"RKH Qitarat","public_transport":"stop_position","railway":"stop","start_date":"2019-11-21","subway":"yes"}},{"type":"node","id":6996456071,"lat":25.2803825,"lon":51.5149449,"tags":{"destination":"راس بو عبود","name":"بن محمود","name:ar":"بن محمود","name:en":"Bin Mahmoud","network":"Doha Metro","operator":"RKH Qitarat","public_transport":"stop_position","railway":"stop","start_date":"2019-11-21","subway":"yes"}},{"type":"node","id":6996456084,"lat":25.2824799,"lon":51.5050181,"tags":{"destination":"راس بو عبود","name":"السد","name:ar":"السد","name:en":"Al Sadd","network":"Doha Metro","operator":"RKH Qitarat","public_transport":"stop_position","start_date":"2019-11-21","subway":"yes"}},{"type":"node","id":6996463995,"lat":25.2806969,"lon":51.4969274,"tags":{"destination":"راس بو عبود","name":"جوعان","name:ar":"جوعان","name:en":"Joaan","network":"Doha Metro","operator":"RKH Qitarat","public_transport":"stop_position","start_date":"2019-11-21","subway":"yes"}},{"type":"node","id":6996464009,"lat":25.2726857,"lon":51.4851476,"tags":{"destination":"راس بو عبود","name":"السودان","name:ar":"السودان","name:en":"Al Sudan","network":"Doha Metro","operator":"RKH Qitarat","public_transport":"stop_position","start_date":"2019-11-21","subway":"yes"}},{"type":"node","id":6996464018,"lat":25.2675429,"lon":51.4688621,"tags":{"destination":"راس بو عبود","name":"الوعب","name:ar":"الوعب","name:en":"Al Waab","network":"Doha Metro","operator":"RKH Qitarat","public_transport":"stop_position","railway":"stop","start_date":"2019-11-21","subway":"yes"}},{"type":"node","id":6996464027,"lat":25.2593512,"lon":51.4524705,"tags":{"destination":"راس بو عبود","name":"المدينة الرياضية","name:ar":"المدينة الرياضية","name:en":"Sport City","network":"Doha Metro","operator":"RKH Qitarat","public_transport":"stop_position","railway":"stop","start_date":"2019-11-21","subway":"yes"}},{"type":"node","id":6996464035,"lat":25.2576338,"lon":51.4441748,"tags":{"destination":"راس بو عبود","name":"العزيزية","name:ar":"العزيزية","name:en":"Al Aziziyah","network":"Doha Metro","operator":"RKH Qitarat","public_transport":"stop_position","start_date":"2019-11-21","subway":"yes"}},{"type":"node","id":6996464046,"lat":25.2804133,"lon":51.5149377,"tags":{"destination":"العزيزية","name":"بن محمود","name:ar":"بن محمود","name:en":"Bin Mahmoud","network":"Doha Metro","operator":"RKH Qitarat","public_transport":"stop_position","railway":"stop","start_date":"2019-11-21","subway":"yes"}},{"type":"node","id":6996464059,"lat":25.2825111,"lon":51.5050139,"tags":{"destination":"العزيزية","name":"السد","name:ar":"السد","name:en":"Al Sadd","network":"Doha Metro","operator":"RKH Qitarat","public_transport":"stop_position","start_date":"2019-11-21","subway":"yes"}},{"type":"node","id":6996464070,"lat":25.2807283,"lon":51.496925,"tags":{"destination":"العزيزية","name":"جوعان","name:ar":"جوعان","name:en":"Joaan","network":"Doha Metro","operator":"RKH Qitarat","public_transport":"stop_position","start_date":"2019-11-21","subway":"yes"}},{"type":"node","id":6996464084,"lat":25.2727139,"lon":51.4851322,"tags":{"destination":"العزيزية","name":"السودان","name:ar":"السودان","name:en":"Al Sudan","network":"Doha Metro","operator":"RKH Qitarat","public_transport":"stop_position","start_date":"2019-11-21","subway":"yes"}},{"type":"node","id":6996464093,"lat":25.2675717,"lon":51.4688481,"tags":{"destination":"العزيزية","name":"الوعب","name:ar":"الوعب","name:en":"Al Waab","network":"Doha Metro","operator":"RKH Qitarat","public_transport":"stop_position","start_date":"2019-11-21","subway":"yes"}},{"type":"node","id":6996464102,"lat":25.2593804,"lon":51.4524578,"tags":{"destination":"العزيزية","name":"المدينة الرياضية","name:ar":"المدينة الرياضية","name:en":"Sport City","network":"Doha Metro","operator":"RKH Qitarat","public_transport":"stop_position","railway":"stop","start_date":"2019-11-21","subway":"yes"}},{"type":"node","id":6996464110,"lat":25.2576628,"lon":51.4441612,"tags":{"destination":"العزيزية","name":"العزيزية","name:ar":"العزيزية","name:en":"Al Aziziyah","network":"Doha Metro","operator":"RKH Qitarat","public_transport":"stop_position","start_date":"2019-11-21","subway":"yes"}},{"type":"node","id":6996464111,"lat":25.2827404,"lon":51.5257519,"tags":{"destination":"العزيزية","name":"مشيرب","name:ar":"مشيرب","name:en":"Msheireb (Gold Line)","network":"Doha Metro","operator":"RKH Qitarat","public_transport":"stop_position","railway":"stop","start_date":"2019-11-21","subway":"yes"}},{"type":"node","id":6996464113,"lat":25.2791092,"lon":51.5710027,"tags":{"destination":"العزيزية","name":"راس بو عبود","name:ar":"راس بو عبود","name:en":"Ras Bu Abboud","network":"Doha Metro","operator":"RKH Qitarat","public_transport":"stop_position","railway":"stop","start_date":"2019-11-21","subway":"yes"}},{"type":"node","id":6996464132,"lat":25.2847048,"lon":51.5493483,"tags":{"destination":"العزيزية","name":"المتحف الوطني","name:ar":"المتحف الوطني","name:de":"Nationalmuseum","name:en":"National Museum","name:es":"Museo Nacional","name:fr":"Musée National","name:ur":"قومی عجائب گھر","network":"Doha Metro","operator":"RKH Qitarat","public_transport":"stop_position","railway":"stop","start_date":"2019-11-21","subway":"yes"}},{"type":"node","id":6996464142,"lat":25.2865485,"lon":51.5362447,"tags":{"destination":"العزيزية","name":"سوق واقف","name:ar":"سوق واقف","name:en":"Souq Waqif","network":"Doha Metro","operator":"RKH Qitarat","public_transport":"stop_position","railway":"stop","start_date":"2019-11-21","subway":"yes"}},{"type":"node","id":7052243243,"lat":25.3706974,"lon":51.5247577,"tags":{"destination":"الوكرة - مطار حمد الدولي مبنى 1","name":"لقطيفية","name:ar":"لقطيفية","name:en":"Legtaifiya","network":"Doha Metro","operator":"RKH Qitarat","public_transport":"stop_position","railway":"stop","start_date":"2020-09-01","subway":"yes"}},{"type":"node","id":7052243268,"lat":25.3621106,"lon":51.5217027,"tags":{"destination":"الوكرة - مطار حمد الدولي مبنى 1","name":"كتارا","name:ar":"كتارا","name:en":"Katara","network":"Doha Metro","operator":"RKH Qitarat","public_transport":"stop_position","railway":"stop","start_date":"2019-12-10","subway":"yes"}},{"type":"node","id":7052555304,"lat":25.3243336,"lon":51.3480011,"tags":{"destination":"الرفاع","name":"الرفاع","name:ar":"الرفاع","name:en":"Al Riffa","network":"Doha Metro","operator":"RKH Qitarat","public_transport":"stop_position","start_date":"2019-12-10","subway":"yes"}},{"type":"node","id":7053488496,"lat":25.257158,"lon":51.6152469,"tags":{"destination":"مطار حمد الدولي مبنى 1","layer":"-1","name":"مطار حمد الدولي مبنى 1","name:ar":"مطار حمد الدولي مبنى 1","name:en":"Hamad International Airport","name:pt":"Aeroporto Internacional de Hamad","network":"Doha Metro","operator":"RKH Qitarat","public_transport":"stop_position","railway":"stop","start_date":"2019-12-10","subway":"yes"}},{"type":"node","id":7053538456,"lat":25.317062,"lon":51.426107,"tags":{"destination":"المنصورة","name":"المدينة التعليمية","name:ar":"المدينة التعليمية","name:en":"Education City","network":"Doha Metro","operator":"RKH Qitarat","public_transport":"stop_position","start_date":"2019-12-10","subway":"yes"}},{"type":"node","id":7053538465,"lat":25.3193071,"lon":51.4418356,"tags":{"destination":"المنصورة","name":"مكتبة قطر الوطنية","name:ar":"مكتبة قطر الوطنية","name:en":"Qatar National Library","network":"Doha Metro","operator":"RKH Qitarat","public_transport":"stop_position","railway":"stop","start_date":"2019-12-10","subway":"yes"}},{"type":"node","id":7053538476,"lat":25.3093435,"lon":51.4531457,"tags":{"destination":"المنصورة","name":"الشقب","name:ar":"الشقب","name:en":"Al Shaqab","network":"Doha Metro","operator":"RKH Qitarat","public_transport":"stop_position","start_date":"2019-12-10","subway":"yes"}},{"type":"node","id":7053538484,"lat":25.3013769,"lon":51.4608939,"tags":{"destination":"المنصورة","name":"الريان القديم","name:ar":"الريان القديم","name:en":"Al Rayyan Al Qadeem","network":"Doha Metro","operator":"RKH Qitarat","public_transport":"stop_position","start_date":"2019-12-10","subway":"yes"}},{"type":"node","id":7053545492,"lat":25.2931446,"lon":51.4839954,"tags":{"destination":"المنصورة","name":"المسيلة","name:ar":"المسيلة","name:en":"Al Messila","network":"Doha Metro","operator":"RKH Qitarat","public_transport":"stop_position","start_date":"2019-12-10","subway":"yes"}},{"type":"node","id":7053545507,"lat":25.2905249,"lon":51.500537,"tags":{"destination":"المنصورة","name":"مستشفى حمد","name:ar":"مستشفى حمد","name:en":"Hamad Hospital","name:fr":"Hôpital Hamad","network":"Doha Metro","operator":"RKH Qitarat","public_transport":"stop_position","start_date":"2019-12-10","subway":"yes"}},{"type":"node","id":7053545513,"lat":25.292409,"lon":51.506025,"tags":{"destination":"المنصورة","name":"القصر الأبيض","name:ar":"القصر الأبيض","name:en":"The White Palace","network":"Doha Metro","operator":"RKH Qitarat","public_transport":"stop_position","start_date":"2019-12-10","subway":"yes"}},{"type":"node","id":7053545528,"lat":25.2912226,"lon":51.5199158,"tags":{"destination":"المنصورة","name":"البدع","name:ar":"البدع","name:en":"Al Bidda (Green Line)","network":"Doha Metro","operator":"RKH Qitarat","public_transport":"stop_position","start_date":"2019-12-10","subway":"yes"}},{"type":"node","id":7053545538,"lat":25.2827538,"lon":51.5254109,"tags":{"destination":"المنصورة","name":"مشيرب","name:ar":"مشيرب","name:en":"Msheireb (Green Line)","network":"Doha Metro","operator":"RKH Qitarat","public_transport":"stop_position","railway":"stop","start_date":"2019-12-10","subway":"yes"}},{"type":"node","id":7053545548,"lat":25.2704373,"lon":51.5349555,"tags":{"destination":"المنصورة","name":"المنصورة","name:ar":"المنصورة","name:en":"Al Mansoura","network":"Doha Metro","operator":"RKH Qitarat","public_transport":"stop_position","railway":"stop","start_date":"2019-12-10","subway":"yes"}},{"type":"node","id":7053545564,"lat":25.3171038,"lon":51.4260888,"tags":{"destination":"الرفاع","name":"المدينة التعليمية","name:ar":"المدينة التعليمية","name:en":"Education City","network":"Doha Metro","operator":"RKH Qitarat","public_transport":"stop_position","start_date":"2019-12-10","subway":"yes"}},{"type":"node","id":7053545573,"lat":25.3193519,"lon":51.4418356,"tags":{"destination":"الرفاع","name":"مكتبة قطر الوطنية","name:ar":"مكتبة قطر الوطنية","name:en":"Qatar National Library","network":"Doha Metro","operator":"RKH Qitarat","public_transport":"stop_position","railway":"stop","start_date":"2019-12-10","subway":"yes"}},{"type":"node","id":7053545584,"lat":25.3093647,"lon":51.4531895,"tags":{"destination":"الرفاع","name":"الشقب","name:ar":"الشقب","name:en":"Al Shaqab","network":"Doha Metro","operator":"RKH Qitarat","public_transport":"stop_position","start_date":"2019-12-10","subway":"yes"}},{"type":"node","id":7053545592,"lat":25.3014161,"lon":51.4609181,"tags":{"destination":"الرفاع","name":"الريان القديم","name:ar":"الريان القديم","name:en":"Al Rayyan Al Qadeem","network":"Doha Metro","operator":"RKH Qitarat","public_transport":"stop_position","start_date":"2019-12-10","subway":"yes"}},{"type":"node","id":7053545600,"lat":25.2931844,"lon":51.4840186,"tags":{"destination":"الرفاع","name":"المسيلة","name:ar":"المسيلة","name:en":"Al Messila","network":"Doha Metro","operator":"RKH Qitarat","public_transport":"stop_position","start_date":"2019-12-10","subway":"yes"}},{"type":"node","id":7053545615,"lat":25.2905647,"lon":51.5005138,"tags":{"destination":"الرفاع","name":"مستشفى حمد","name:ar":"مستشفى حمد","name:en":"Hamad Hospital","name:fr":"Hôpital Hamad","network":"Doha Metro","operator":"RKH Qitarat","public_transport":"stop_position","start_date":"2019-12-10","subway":"yes"}},{"type":"node","id":7053545621,"lat":25.2924524,"lon":51.506012,"tags":{"destination":"الرفاع","name":"القصر الأبيض","name:ar":"القصر الأبيض","name:en":"The White Palace","network":"Doha Metro","operator":"RKH Qitarat","public_transport":"stop_position","start_date":"2019-12-10","subway":"yes"}},{"type":"node","id":7053545636,"lat":25.2912326,"lon":51.5199642,"tags":{"destination":"الرفاع","name":"البدع","name:ar":"البدع","name:en":"Al Bidda (Green Line)","network":"Doha Metro","operator":"RKH Qitarat","public_transport":"stop_position","start_date":"2019-12-10","subway":"yes"}},{"type":"node","id":7053545646,"lat":25.2827894,"lon":51.5254413,"tags":{"destination":"الرفاع","name":"مشيرب","name:ar":"مشيرب","name:en":"Msheireb (Green Line)","network":"Doha Metro","operator":"RKH Qitarat","public_transport":"stop_position","railway":"stop","start_date":"2019-12-10","subway":"yes"}},{"type":"node","id":7053545656,"lat":25.2704667,"lon":51.5349929,"tags":{"destination":"الرفاع","name":"المنصورة","name:ar":"المنصورة","name:en":"Al Mansoura","network":"Doha Metro","operator":"RKH Qitarat","public_transport":"stop_position","railway":"stop","start_date":"2019-12-10","subway":"yes"}}]}