{"elements":[{"type":"node","id":21496382,"lat":45.802619,"lon":3.1066979,"tags":{"name":"Les Vignes","network":"SMTC-AC","operator":"T2C","public_transport":"stop_position","railway":"tram_stop","tactile_paving":"yes","tram":"yes"}},{"type":"node","id":21496393,"lat":45.8107374,"lon":3.1071202,"tags":{"gtfs:stop_code":"HACHR","gtfs:stop_id":"3377704015495699","name":"Hauts de Chanturgue","network":"SMTC-AC","operator":"T2C","public_transport":"stop_position","railway":"tram_stop","tactile_paving":"yes","tram":"yes"}},{"type":"node","id":34020715,"lat":45.7733019,"lon":3.0825929,"tags":{"name":"Bibliothèque de l'Hôtel-Dieu","network":"SMTC-AC","old_name":"Lagarlaye","operator":"T2C","public_transport":"stop_position","railway":"tram_stop","tactile_paving":"yes","tram":"yes"}},{"type":"node","id":34020968,"lat":45.7877185,"lon":3.1063202,"tags":{"name":"Stade Marcel Michelin","network":"SMTC-AC","operator":"T2C","public_transport":"stop_position","railway":"tram_stop","tactile_paving":"yes","tram":"yes"}},{"type":"node","id":34054385,"lat":45.7824334,"lon":3.0942536,"tags":{"name":"Les Carmes","network":"SMTC-AC","operator":"T2C","public_transport":"stop_position","railway":"tram_stop","tactile_paving":"yes","tram":"yes"}},{"type":"node","id":34054409,"lat":45.7914974,"lon":3.1145484,"tags":{"name":"Montferrand La Fontaine","network":"SMTC-AC","operator":"T2C","public_transport":"stop_position","railway":"tram_stop","tactile_paving":"yes","tram":"yes"}},{"type":"node","id":34054449,"lat":45.7613651,"lon":3.0895601,"tags":{"highway":"platform","name":"CHU Gabriel Montpied","network":"SMTC-AC","operator":"T2C","public_transport":"stop_position","railway":"tram_stop","tactile_paving":"yes","tram":"yes"}},{"type":"node","id":34054492,"lat":45.7767584,"lon":3.0817865,"tags":{"name":"Jaude","name:oc":"Jauda","network":"SMTC-AC","operator":"T2C","public_transport":"stop_position","railway":"tram_stop","source:name:oc":"ieo-bdtopoc","tactile_paving":"yes","tram":"yes"}},{"type":"node","id":34054493,"lat":45.7805853,"lon":3.0849984,"tags":{"name":"Hôtel de Ville","name:oc":"Maison de Comuna","network":"SMTC-AC","operator":"T2C","public_transport":"stop_position","railway":"tram_stop","source:name:oc":"ieo-bdtopoc","tactile_paving":"yes","tram":"yes"}},{"type":"node","id":34054585,"lat":45.7648802,"lon":3.0890325,"tags":{"highway":"platform","name":"Saint-Jacques Dolet","network":"SMTC-AC","operator":"T2C","public_transport":"stop_position","railway":"tram_stop","tactile_paving":"yes","tram":"yes"}},{"type":"node","id":34054589,"lat":45.7896142,"lon":3.1101253,"tags":{"name":"Gravière","network":"SMTC-AC","operator":"T2C","public_transport":"stop_position","railway":"tram_stop","tactile_paving":"yes","tram":"yes"}},{"type":"node","id":34054591,"lat":45.7711976,"lon":3.0889669,"tags":{"name":"UCA - Campus Centre","network":"SMTC-AC","old_name":"Universités","operator":"T2C","public_transport":"stop_position","railway":"tram_stop","tactile_paving":"yes","tram":"yes"}},{"type":"node","id":34054595,"lat":45.7938012,"lon":3.117387,"tags":{"name":"Musée d'Art Roger Quilliot","network":"SMTC-AC","operator":"T2C","public_transport":"stop_position","railway":"tram_stop","tactile_paving":"yes","tram":"yes"}},{"type":"node","id":34054703,"lat":45.7708778,"lon":3.0849375,"tags":{"name":"Maison de la Culture","network":"SMTC-AC","operator":"T2C","passenger_information_display":"yes","public_transport":"stop_position","railway":"tram_stop","shelter":"yes","tactile_paving":"yes","tram":"yes"}},{"type":"node","id":34054707,"lat":45.7812036,"lon":3.0904616,"tags":{"name":"Delille Montlosier","name:oc":"Champ Èrme","network":"SMTC-AC","operator":"T2C","public_transport":"stop_position","railway":"tram_stop","source:name:oc":"ieo-bdtopoc","tactile_paving":"yes","tram":"yes"}},{"type":"node","id":259252773,"lat":45.7611342,"lon":3.1088528,"tags":{"name":"Cézeaux Pellez","network":"SMTC-AC","operator":"T2C","public_transport":"stop_position","railway":"tram_stop","tactile_paving":"yes","tram":"yes"}},{"type":"node","id":259252780,"lat":45.7589121,"lon":3.1138008,"tags":{"name":"UCA - Campus Cézeaux","network":"SMTC-AC","old_name":"Campus","operator":"T2C","public_transport":"stop_position","railway":"tram_stop","source":"Orthophotographie CRAIG/TopoGEODIS 2009","survey:date":"2025-03-31","tactile_paving":"yes","tram":"yes"}},{"type":"node","id":296038818,"lat":45.7989505,"lon":3.1133753,"tags":{"name":"Les Pistes","network":"SMTC-AC","operator":"T2C","public_transport":"stop_position","railway":"tram_stop","tactile_paving":"yes","tram":"yes"}},{"type":"node","id":298413623,"lat":45.7667881,"lon":3.1342104,"tags":{"gtfs_id":"3377704015495958","gtfs_stop_code":"PAGAR","name":"La Pardieu Gare","network":"SMTC-AC","operator":"T2C","public_transport":"stop_position","railway":"tram_stop","source":"cadastre-dgi-fr source : Direction Générale des Impôts - Cadastre;mise à jour : 2009","tactile_paving":"yes","tram":"yes"}},{"type":"node","id":303233541,"lat":45.8148965,"lon":3.1122337,"tags":{"gtfs:stop_code":"CHAMR","gtfs:stop_id":"3377704015496482","name":"Champratel","network":"SMTC-AC","operator":"T2C","public_transport":"stop_position","railway":"tram_stop","tactile_paving":"yes","tram":"yes"}},{"type":"node","id":303234999,"lat":45.807454,"lon":3.1067308,"tags":{"name":"Collège Albert Camus","network":"SMTC-AC","operator":"T2C","public_transport":"stop_position","railway":"tram_stop","tactile_paving":"yes","tram":"yes"}},{"type":"node","id":347007289,"lat":45.7608782,"lon":3.1199754,"tags":{"name":"Margeride","network":"SMTC-AC","operator":"T2C","public_transport":"stop_position","railway":"tram_stop","source":"cadastre-dgi-fr source : Direction Générale des Impôts - Cadastre;mise à jour : 2009","tactile_paving":"yes","tram":"yes"}},{"type":"node","id":451718274,"lat":45.7623088,"lon":3.1219554,"tags":{"name":"Fontaine du Bac","network":"SMTC-AC","operator":"T2C","public_transport":"stop_position","railway":"tram_stop","source":"cadastre-dgi-fr source : Direction Générale des Impôts - Cadastre. Mise à jour : 2009","tactile_paving":"yes","tram":"yes"}},{"type":"node","id":614113799,"lat":45.8143464,"lon":3.1068748,"tags":{"gtfs:stop_code":"CRNER","gtfs:stop_id":"3377704015496440","name":"Croix de Neyrat","network":"SMTC-AC","operator":"T2C","public_transport":"stop_position","railway":"tram_stop","source":"cadastre-dgi-fr source : Direction Générale des Impôts - Cadastre;mise à jour : 2010","tactile_paving":"yes","tram":"yes"}},{"type":"node","id":781759727,"lat":45.7627945,"lon":3.0984352,"tags":{"highway":"platform","name":"Léon Blum","network":"SMTC-AC","operator":"T2C","public_transport":"stop_position","railway":"tram_stop","tactile_paving":"yes","tram":"yes"}},{"type":"node","id":781839138,"lat":45.7612376,"lon":3.0946449,"tags":{"highway":"platform","name":"Saint-Jacques Loucheur","network":"SMTC-AC","operator":"T2C","public_transport":"stop_position","railway":"tram_stop","tactile_paving":"yes","tram":"yes"}},{"type":"node","id":781839143,"lat":45.7607586,"lon":3.1041294,"tags":{"name":"La Chaux","network":"SMTC-AC","operator":"T2C","public_transport":"stop_position","railway":"tram_stop","tactile_paving":"yes","tram":"yes"}},{"type":"node","id":827322976,"lat":45.8016745,"lon":3.1104554,"tags":{"name":"Lycée Ambroise Brugière","network":"SMTC-AC","operator":"T2C","public_transport":"stop_position","railway":"tram_stop","source":"cadastre-dgi-fr source : Direction Générale des Impôts - Cadastre. Mise à jour : 2010","tactile_paving":"yes","tram":"yes"}},{"type":"node","id":2178479201,"lat":45.8117757,"lon":3.1146924,"tags":{"gtfs:stop_code":"PLAIR","gtfs:stop_id":"3377704015496018","highway":"platform","name":"La Plaine","network":"SMTC-AC","operator":"T2C","public_transport":"stop_position","railway":"tram_stop","tactile_paving":"yes","tram":"yes"}},{"type":"node","id":2418617764,"lat":45.8127472,"lon":3.1276011,"tags":{"gtfs:stop_code":"VEGNR","gtfs:stop_id":"3377704015496261","name":"Les Vergnes","network":"SMTC-AC","operator":"T2C","public_transport":"stop_position","railway":"tram_stop","tactile_paving":"yes","tram":"yes"}},{"type":"node","id":2418617765,"lat":45.8130641,"lon":3.1210852,"tags":{"gtfs:stop_code":"STGMR","gtfs:stop_id":"3377704015496486","highway":"platform","local_ref":"STGMR","name":"Stade Gabriel Montpied","network":"SMTC-AC","operator":"T2C","public_transport":"stop_position","railway":"tram_stop","tactile_paving":"yes","tram":"yes"}},{"type":"node","id":2579882927,"lat":45.7635361,"lon":3.1296412,"tags":{"gtfs_id":"3377704015495821","gtfs_stop_code":"LYLAA","name":"Lycée La Fayette","network":"SMTC-AC","old_name":"Lycée Lafayette","operator":"T2C","public_transport":"stop_position","railway":"tram_stop","source":"cadastre-dgi-fr source : Direction Générale des Impôts - Cadastre;mise à jour : 2009","tactile_paving":"yes","tram":"yes"}},{"type":"node","id":2579882928,"lat":45.7634751,"lon":3.12944,"tags":{"gtfs_id":"3377704015495823","gtfs_stop_code":"LYLAR","name":"Lycée La Fayette","network":"SMTC-AC","old_name":"Lycée Lafayette","operator":"T2C","public_transport":"stop_position","railway":"tram_stop","source":"cadastre-dgi-fr source : Direction Générale des Impôts - Cadastre;mise à jour : 2009","tactile_paving":"yes","tram":"yes"}},{"type":"node","id":2579882968,"lat":45.7666649,"lon":3.1343672,"tags":{"amenity":"waste_basket","gtfs_id":"3377704015495956","gtfs_stop_code":"PAGAA","name":"La Pardieu Gare","network":"SMTC-AC","operator":"T2C","public_transport":"stop_position","railway":"tram_stop","source":"cadastre-dgi-fr source : Direction Générale des Impôts - Cadastre;mise à jour : 2009","tactile_paving":"yes","tram":"yes"}},{"type":"node","id":2580644724,"lat":45.762292,"lon":3.1221604,"tags":{"name":"Fontaine du Bac","network":"SMTC-AC","operator":"T2C","public_transport":"stop_position","railway":"tram_stop","source":"cadastre-dgi-fr source : Direction Générale des Impôts - Cadastre. Mise à jour : 2009","tactile_paving":"yes","tram":"yes"}},{"type":"node","id":2581254524,"lat":45.7608607,"lon":3.1199901,"tags":{"name":"Margeride","network":"SMTC-AC","operator":"T2C","public_transport":"stop_position","railway":"tram_stop","source":"cadastre-dgi-fr source : Direction Générale des Impôts - Cadastre;mise à jour : 2009","tactile_paving":"yes","tram":"yes"}},{"type":"node","id":2582472363,"lat":45.7588841,"lon":3.1138121,"tags":{"name":"UCA - Campus Cézeaux","network":"SMTC-AC","old_name":"Campus","operator":"T2C","public_transport":"stop_position","railway":"tram_stop","source":"Orthophotographie CRAIG/TopoGEODIS 2009","survey:date":"2025-03-31","tactile_paving":"yes","tram":"yes"}},{"type":"node","id":2582488296,"lat":45.7611082,"lon":3.1088641,"tags":{"name":"Cézeaux Pellez","network":"SMTC-AC","operator":"T2C","public_transport":"stop_position","railway":"tram_stop","tactile_paving":"yes","tram":"yes"}},{"type":"node","id":2582889707,"lat":45.7607447,"lon":3.1041053,"tags":{"name":"La Chaux","network":"SMTC-AC","operator":"T2C","public_transport":"stop_position","railway":"tram_stop","tactile_paving":"yes","tram":"yes"}},{"type":"node","id":2582889758,"lat":45.7612605,"lon":3.0946207,"tags":{"highway":"platform","name":"Saint-Jacques Loucheur","network":"SMTC-AC","operator":"T2C","public_transport":"stop_position","railway":"tram_stop","tactile_paving":"yes","tram":"yes"}},{"type":"node","id":2582889761,"lat":45.7613686,"lon":3.089598,"tags":{"name":"CHU Gabriel Montpied","network":"SMTC-AC","operator":"T2C","public_transport":"stop_position","railway":"tram_stop","tactile_paving":"yes","tram":"yes"}},{"type":"node","id":2582889813,"lat":45.7628142,"lon":3.0984048,"tags":{"highway":"platform","name":"Léon Blum","network":"SMTC-AC","operator":"T2C","public_transport":"stop_position","railway":"tram_stop","tactile_paving":"yes","tram":"yes"}},{"type":"node","id":2582889831,"lat":45.7648819,"lon":3.0890652,"tags":{"name":"Saint-Jacques Dolet","network":"SMTC-AC","operator":"T2C","public_transport":"stop_position","railway":"tram_stop","tactile_paving":"yes","tram":"yes"}},{"type":"node","id":2582889877,"lat":45.7709016,"lon":3.0849461,"tags":{"name":"Maison de la Culture","network":"SMTC-AC","operator":"T2C","passenger_information_display":"realtime","public_transport":"stop_position","railway":"tram_stop","shelter":"yes","tactile_paving":"yes","tram":"yes"}},{"type":"node","id":2582889896,"lat":45.7712145,"lon":3.0889481,"tags":{"name":"UCA - Campus Centre","network":"SMTC-AC","old_name":"Universités","operator":"T2C","public_transport":"stop_position","railway":"tram_stop","tactile_paving":"yes","tram":"yes"}},{"type":"node","id":2598781974,"lat":45.7733099,"lon":3.0826397,"tags":{"name":"Bibliothèque de l'Hôtel-Dieu","network":"SMTC-AC","old_name":"Lagarlaye","operator":"T2C","public_transport":"stop_position","railway":"tram_stop","tactile_paving":"yes","tram":"yes"}},{"type":"node","id":2598892264,"lat":45.7938012,"lon":3.117358,"tags":{"name":"Musée d'Art Roger Quilliot","network":"SMTC-AC","operator":"T2C","public_transport":"stop_position","railway":"tram_stop","tactile_paving":"yes","tram":"yes"}},{"type":"node","id":2598892430,"lat":45.801654,"lon":3.110441,"tags":{"name":"Lycée Ambroise Brugière","network":"SMTC-AC","operator":"T2C","public_transport":"stop_position","railway":"tram_stop","source":"cadastre-dgi-fr source : Direction Générale des Impôts - Cadastre. Mise à jour : 2010","tactile_paving":"yes","tram":"yes"}},{"type":"node","id":2598892520,"lat":45.8026232,"lon":3.10666,"tags":{"name":"Les Vignes","network":"SMTC-AC","operator":"T2C","public_transport":"stop_position","railway":"tram_stop","tactile_paving":"yes","tram":"yes"}},{"type":"node","id":2598892576,"lat":45.8074611,"lon":3.1066923,"tags":{"name":"Collège Albert Camus","network":"SMTC-AC","operator":"T2C","public_transport":"stop_position","railway":"tram_stop","tactile_paving":"yes","tram":"yes"}},{"type":"node","id":2598892604,"lat":45.8107359,"lon":3.1070844,"tags":{"gtfs:stop_code":"HACHA","gtfs:stop_id":"3377704015495697","name":"Hauts de Chanturgue","network":"SMTC-AC","operator":"T2C","public_transport":"stop_position","railway":"tram_stop","tactile_paving":"yes","tram":"yes"}},{"type":"node","id":2598892634,"lat":45.8143461,"lon":3.1068339,"tags":{"gtfs:stop_code":"CRNEA","gtfs:stop_id":"3377704015495505","name":"Croix de Neyrat","network":"SMTC-AC","operator":"T2C","public_transport":"stop_position","railway":"tram_stop","source":"cadastre-dgi-fr source : Direction Générale des Impôts - Cadastre;mise à jour : 2010","tactile_paving":"yes","tram":"yes"}},{"type":"node","id":2598892656,"lat":45.8149241,"lon":3.1122344,"tags":{"gtfs:stop_code":"CHAMA","gtfs:stop_id":"3377704015495356","name":"Champratel","network":"SMTC-AC","operator":"T2C","public_transport":"stop_position","railway":"tram_stop","tactile_paving":"yes","tram":"yes"}},{"type":"node","id":2598916792,"lat":45.7915206,"lon":3.1145269,"tags":{"name":"Montferrand La Fontaine","network":"SMTC-AC","operator":"T2C","public_transport":"stop_position","railway":"tram_stop","tactile_paving":"yes","tram":"yes"}},{"type":"node","id":2598921331,"lat":45.7896318,"lon":3.1101087,"tags":{"name":"Gravière","network":"SMTC-AC","operator":"T2C","public_transport":"stop_position","railway":"tram_stop","tactile_paving":"yes","tram":"yes"}},{"type":"node","id":2653849990,"lat":45.7824565,"lon":3.0942365,"tags":{"name":"Les Carmes","network":"SMTC-AC","operator":"T2C","public_transport":"stop_position","railway":"tram_stop","tactile_paving":"yes","tram":"yes"}},{"type":"node","id":2653850007,"lat":45.7853664,"lon":3.1014921,"tags":{"name":"1er Mai","network":"SMTC-AC","operator":"T2C","public_transport":"stop_position","railway":"tram_stop","tactile_paving":"yes","tram":"yes"}},{"type":"node","id":2653850014,"lat":45.7877332,"lon":3.1062914,"tags":{"name":"Stade Marcel Michelin","network":"SMTC-AC","operator":"T2C","public_transport":"stop_position","railway":"tram_stop","tactile_paving":"yes","tram":"yes"}},{"type":"node","id":2921654777,"lat":45.7797168,"lon":3.0818161,"tags":{"name":"Gaillard","name:oc":"Galhard","network":"SMTC-AC","operator":"T2C","passenger_information_display":"realtime","public_transport":"stop_position","railway":"tram_stop","shelter":"yes","source:name:oc":"ieo-bdtopoc","tactile_paving":"yes","tram":"yes"}},{"type":"node","id":2921662637,"lat":45.7806127,"lon":3.0849845,"tags":{"name":"Hôtel de Ville","name:oc":"Maison de Comuna","network":"SMTC-AC","operator":"T2C","public_transport":"stop_position","railway":"tram_stop","source:name:oc":"ieo-bdtopoc","tactile_paving":"yes","tram":"yes"}},{"type":"node","id":2921662661,"lat":45.7812304,"lon":3.0904672,"tags":{"name":"Delille Montlosier","name:oc":"Champ Èrme","network":"SMTC-AC","operator":"T2C","public_transport":"stop_position","railway":"tram_stop","source:name:oc":"ieo-bdtopoc","tactile_paving":"yes","tram":"yes"}},{"type":"node","id":3168434868,"lat":45.7767549,"lon":3.0817508,"tags":{"name":"Jaude","name:oc":"Jauda","network":"SMTC-AC","operator":"T2C","public_transport":"stop_position","railway":"tram_stop","source:name:oc":"ieo-bdtopoc","tactile_paving":"yes","tram":"yes"}},{"type":"node","id":3211494294,"lat":45.8118024,"lon":3.1146909,"tags":{"gtfs:stop_code":"PLAIA","gtfs:stop_id":"3377704015496016","highway":"platform","name":"La Plaine","network":"SMTC-AC","operator":"T2C","public_transport":"stop_position","railway":"tram_stop","tactile_paving":"yes","tram":"yes"}},{"type":"node","id":3211494295,"lat":45.8127733,"lon":3.1276006,"tags":{"gtfs:stop_code":"VEGNA","gtfs:stop_id":"3377704015496260","name":"Les Vergnes","network":"SMTC-AC","operator":"T2C","public_transport":"stop_position","railway":"tram_stop","tactile_paving":"yes","tram":"yes"}},{"type":"node","id":3211494296,"lat":45.8130882,"lon":3.1210834,"tags":{"gtfs:stop_code":"STGMA","gtfs:stop_id":"3377704015496485","highway":"platform","local_ref":"STGMA","name":"Stade Gabriel Montpied","network":"SMTC-AC","operator":"T2C","public_transport":"stop_position","railway":"tram_stop","tactile_paving":"yes","tram":"yes"}},{"type":"node","id":6348212894,"lat":45.7796618,"lon":3.0817429,"tags":{"name":"Gaillard","name:oc":"Galhard","network":"SMTC-AC","operator":"T2C","passenger_information_display":"realtime","public_transport":"stop_position","railway":"tram_stop","shelter":"yes","source:name:oc":"ieo-bdtopoc","tactile_paving":"yes","tram":"yes"}},{"type":"node","id":8058698535,"lat":45.7853475,"lon":3.101513,"tags":{"name":"1er Mai","network":"SMTC-AC","operator":"T2C","public_transport":"stop_position","railway":"tram_stop","tactile_paving":"yes","tram":"yes"}},{"type":"node","id":13368271340,"lat":45.7989655,"lon":3.1133954,"tags":{"name":"Les Pistes","network":"SMTC-AC","operator":"T2C","public_transport":"stop_position","railway":"tram_stop","tactile_paving":"yes","tram":"yes"}}]}