{"elements":[{"type":"node","id":5898087185,"lat":18.2967082,"lon":109.4830364,"tags":{"light_rail":"yes","name":"育秀路","name:en":"Yuxiu Road","name:zh":"育秀路","network":"三亚轨道交通","operator":"三亚市轨道交通有限公司","public_transport":"stop_position","railway":"stop"}},{"type":"node","id":7809738067,"lat":18.2367692,"lon":109.5017909,"tags":{"light_rail":"yes","name":"建港路","name:en":"Jiangang Road","name:zh":"建港路","network":"三亚轨道交通","operator":"三亚市轨道交通有限公司","public_transport":"stop_position","railway":"stop"}},{"type":"node","id":9941323693,"lat":18.2367832,"lon":109.5018594,"tags":{"light_rail":"yes","name":"建港路","name:en":"Jiangang Road","name:zh":"建港路","network":"三亚轨道交通","operator":"三亚市轨道交通有限公司","public_transport":"stop_position","railway":"stop"}},{"type":"node","id":9941323694,"lat":18.2416768,"lon":109.5005486,"tags":{"light_rail":"yes","name":"跃进街","name:en":"Yuejin Street","name:zh":"跃进街","network":"三亚轨道交通","operator":"三亚市轨道交通有限公司","public_transport":"stop_position","railway":"stop"}},{"type":"node","id":9941323695,"lat":18.2429348,"lon":109.5002604,"tags":{"light_rail":"yes","name":"跃进街","name:en":"Yuejin Street","name:zh":"跃进街","network":"三亚轨道交通","operator":"三亚市轨道交通有限公司","public_transport":"stop_position","railway":"stop"}},{"type":"node","id":9941323696,"lat":18.247588,"lon":109.4990625,"tags":{"light_rail":"yes","name":"光明街","name:en":"Guangming Street","name:zh":"光明街","network":"三亚轨道交通","operator":"三亚市轨道交通有限公司","public_transport":"stop_position","railway":"stop"}},{"type":"node","id":9941323697,"lat":18.2486143,"lon":109.4988379,"tags":{"light_rail":"yes","name":"光明街","name:en":"Guangming Street","name:zh":"光明街","network":"三亚轨道交通","operator":"三亚市轨道交通有限公司","public_transport":"stop_position","railway":"stop"}},{"type":"node","id":9941323698,"lat":18.2517584,"lon":109.4978773,"tags":{"light_rail":"yes","name":"新风街","name:en":"Xinfeng Street","name:zh":"新风街","network":"三亚轨道交通","operator":"三亚市轨道交通有限公司","public_transport":"stop_position","railway":"stop"}},{"type":"node","id":9941323699,"lat":18.2527712,"lon":109.497632,"tags":{"light_rail":"yes","name":"新风街","name:en":"Xinfeng Street","name:zh":"新风街","network":"三亚轨道交通","operator":"三亚市轨道交通有限公司","public_transport":"stop_position","railway":"stop"}},{"type":"node","id":9941323700,"lat":18.254912,"lon":109.4969612,"tags":{"light_rail":"yes","name":"团结街","name:en":"Tuanjie Street","name:zh":"团结街","network":"三亚轨道交通","operator":"三亚市轨道交通有限公司","public_transport":"stop_position","railway":"stop"}},{"type":"node","id":9941323701,"lat":18.2557571,"lon":109.4967215,"tags":{"light_rail":"yes","name":"团结街","name:en":"Tuanjie Street","name:zh":"团结街","network":"三亚轨道交通","operator":"三亚市轨道交通有限公司","public_transport":"stop_position","railway":"stop"}},{"type":"node","id":9941323702,"lat":18.2593878,"lon":109.495591,"tags":{"light_rail":"yes","name":"吉祥街","name:en":"Jixiang Street","name:zh":"吉祥街","network":"三亚轨道交通","operator":"三亚市轨道交通有限公司","public_transport":"stop_position","railway":"stop"}},{"type":"node","id":9941323703,"lat":18.2602853,"lon":109.495393,"tags":{"light_rail":"yes","name":"吉祥街","name:en":"Jixiang Street","name:zh":"吉祥街","network":"三亚轨道交通","operator":"三亚市轨道交通有限公司","public_transport":"stop_position","railway":"stop"}},{"type":"node","id":9941323704,"lat":18.2630748,"lon":109.4936191,"tags":{"light_rail":"yes","name":"迎宾路","name:en":"Yingbin Road","name:zh":"迎宾路","network":"三亚轨道交通","operator":"三亚市轨道交通有限公司","public_transport":"stop_position","railway":"stop"}},{"type":"node","id":9941323705,"lat":18.2642197,"lon":109.4927812,"tags":{"light_rail":"yes","name":"迎宾路","name:en":"Yingbin Road","name:zh":"迎宾路","network":"三亚轨道交通","operator":"三亚市轨道交通有限公司","public_transport":"stop_position","railway":"stop"}},{"type":"node","id":9941323706,"lat":18.2666165,"lon":109.4909372,"tags":{"light_rail":"yes","name":"友谊街","name:en":"Youyi Street","name:zh":"友谊街","network":"三亚市轨道交通","operator":"三亚市轨道交通有限公司","public_transport":"stop_position","railway":"stop"}},{"type":"node","id":9941323707,"lat":18.2665682,"lon":109.4908794,"tags":{"light_rail":"yes","name":"友谊街","name:en":"Youyi Street","name:zh":"友谊街","network":"三亚市轨道交通","operator":"三亚市轨道交通有限公司","public_transport":"stop_position","railway":"stop"}},{"type":"node","id":9941323708,"lat":18.2695402,"lon":109.488535,"tags":{"light_rail":"yes","name":"金鸡岭街","name:en":"Jinjiling Street","name:zh":"金鸡岭街","network":"三亚轨道交通","operator":"三亚市轨道交通有限公司","public_transport":"stop_position","railway":"stop"}},{"type":"node","id":9941323709,"lat":18.2687808,"lon":109.4890808,"tags":{"light_rail":"yes","name":"金鸡岭街","name:en":"Jinjiling Street","name:zh":"金鸡岭街","network":"三亚轨道交通","operator":"三亚市轨道交通有限公司","public_transport":"stop_position","railway":"stop"}},{"type":"node","id":9941323710,"lat":18.2723542,"lon":109.4872368,"tags":{"light_rail":"yes","name":"解放路","name:en":"Jiefang Road","name:zh":"解放路","network":"三亚轨道交通","operator":"三亚市轨道交通有限公司","public_transport":"stop_position","railway":"stop"}},{"type":"node","id":9941323711,"lat":18.2730379,"lon":109.4879523,"tags":{"light_rail":"yes","name":"解放路","name:en":"Jiefang Road","name:zh":"解放路","network":"三亚轨道交通","operator":"三亚市轨道交通有限公司","public_transport":"stop_position","railway":"stop"}},{"type":"node","id":9943284548,"lat":18.2974618,"lon":109.4883387,"tags":{"light_rail":"yes","name":"三亚火车站","name:en":"Sanya Railway Station","name:zh":"三亚火车站","network":"三亚轨道交通","operator":"三亚市轨道交通有限公司","public_transport":"stop_position","railway":"stop"}},{"type":"node","id":9943284549,"lat":18.2973975,"lon":109.4883389,"tags":{"light_rail":"yes","name":"三亚火车站","name:en":"Sanya Railway Station","name:zh":"三亚火车站","network":"三亚轨道交通","operator":"三亚市轨道交通有限公司","public_transport":"stop_position","railway":"stop"}},{"type":"node","id":11156157087,"lat":18.2801649,"lon":109.4921529,"tags":{"light_rail":"yes","name":"三亚河东路","name:en":"Sanya River East Road","name:zh":"三亚河东路","network":"三亚轨道交通","operator":"三亚市轨道交通有限公司","public_transport":"stop_position","railway":"stop"}},{"type":"node","id":11156157088,"lat":18.2801981,"lon":109.4922119,"tags":{"light_rail":"yes","name":"三亚河东路","name:en":"Sanya River East Road","name:zh":"三亚河东路","network":"三亚轨道交通","operator":"三亚市轨道交通有限公司","public_transport":"stop_position","railway":"stop"}},{"type":"node","id":11156157109,"lat":18.283717,"lon":109.4890959,"tags":{"light_rail":"yes","name":"水城路","name:en":"Shuicheng Road","name:zh":"解放路","network":"三亚轨道交通","operator":"三亚市轨道交通有限公司","public_transport":"stop_position","railway":"stop"}},{"type":"node","id":11156157110,"lat":18.2830899,"lon":109.4898233,"tags":{"light_rail":"yes","name":"水城路","name:en":"Shuicheng Road","name:zh":"解放路","network":"三亚轨道交通","operator":"三亚市轨道交通有限公司","public_transport":"stop_position","railway":"stop"}},{"type":"node","id":11156157131,"lat":18.2898465,"lon":109.484548,"tags":{"light_rail":"yes","name":"凤凰路","name:en":"Fenghuang Road","name:zh":"凤凰路","network":"三亚轨道交通","operator":"三亚市轨道交通有限公司","public_transport":"stop_position","railway":"stop"}},{"type":"node","id":11156157138,"lat":18.2888499,"lon":109.4848001,"tags":{"light_rail":"yes","name":"凤凰路","name:en":"Fenghuang Road","name:zh":"凤凰路","network":"三亚轨道交通","operator":"三亚市轨道交通有限公司","public_transport":"stop_position","railway":"stop"}},{"type":"node","id":11156157261,"lat":18.2956136,"lon":109.4832344,"tags":{"light_rail":"yes","name":"育秀路","name:en":"Yuxiu Road","name:zh":"育秀路","network":"三亚轨道交通","operator":"三亚市轨道交通有限公司","public_transport":"stop_position","railway":"stop"}}]}