{"elements":[{"type":"node","id":355173597,"lon":126.7215481,"lat":37.5167011,"tags":{"name":"갈산","name:en":"Galsan","station":"light_rail","derived_from":"stop_position"}},{"type":"node","id":355173601,"lon":126.7223422,"lat":37.4983757,"tags":{"name":"부평시장","name:en":"Bupyeong Market","station":"light_rail","derived_from":"stop_position"}},{"type":"node","id":355173608,"lon":126.7226536,"lat":37.5384258,"tags":{"name":"경인교대입구","name:en":"Gyeongin Nat'l Univ. of Education","station":"light_rail","derived_from":"stop_position"}},{"type":"node","id":355173613,"lon":126.7010891,"lat":37.4500411,"tags":{"name":"예술회관","name:en":"Arts Center","station":"light_rail","derived_from":"stop_position"}},{"type":"node","id":355173615,"lon":126.6938914,"lat":37.4179744,"tags":{"name":"신연수","name:en":"Sinyeonsu","station":"light_rail","derived_from":"stop_position"}},{"type":"node","id":355173617,"lon":126.6990793,"lat":37.4271567,"tags":{"name":"선학","name:en":"Seonhak","station":"light_rail","derived_from":"stop_position"}},{"type":"node","id":355173618,"lon":126.7102992,"lat":37.4778688,"tags":{"name":"부평삼거리","name:en":"Bupyeongsamgeori","station":"light_rail","derived_from":"stop_position"}},{"type":"node","id":355173620,"lon":126.7184693,"lat":37.485432,"tags":{"name":"동수","name:en":"Dongsu","station":"light_rail","derived_from":"stop_position"}},{"type":"node","id":355173624,"lon":126.7079669,"lat":37.467312,"tags":{"name":"간석오거리","name:en":"Ganseogogeori","station":"light_rail","derived_from":"stop_position"}},{"type":"node","id":355173710,"lon":126.6739517,"lat":37.3983217,"tags":{"name":"동막","name:en":"Dongmak","station":"light_rail","derived_from":"stop_position"}},{"type":"node","id":355173711,"lon":126.680662,"lat":37.4045662,"tags":{"name":"동춘","name:en":"Dongchun","station":"light_rail","derived_from":"stop_position"}},{"type":"node","id":1105622676,"lon":126.6394959,"lat":37.3860039,"tags":{"name":"인천대입구","name:en":"Incheon National University","station":"light_rail","derived_from":"stop_position"}},{"type":"node","id":1407854171,"lon":126.6559828,"lat":37.381992,"tags":{"name":"테크노파크","name:en":"Technopark","station":"light_rail","operator":"인천교통공사","derived_from":"stop_position"}},{"type":"node","id":2360116990,"lon":126.7206376,"lat":37.5080784,"tags":{"name":"부평구청","name:en":"Bupyeong-gu Office","station":"light_rail","operator":"인천교통공사","derived_from":"stop_position"}},{"type":"node","id":2372179694,"lon":126.7225937,"lat":37.5303004,"tags":{"name":"작전","name:en":"Jakjeon","station":"light_rail","derived_from":"stop_position"}},{"type":"node","id":2444013647,"lon":126.6455001,"lat":37.3780049,"tags":{"name":"지식정보단지","name:en":"BIT Zone","station":"light_rail","operator":"인천교통공사","derived_from":"stop_position"}},{"type":"node","id":3152004114,"lon":126.7450735,"lat":37.5536206,"tags":{"name":"박촌","name:en":"Bakchon","station":"light_rail","derived_from":"stop_position"}},{"type":"node","id":3152004115,"lon":126.6616832,"lat":37.3878438,"tags":{"name":"캠퍼스타운","name:en":"Campus Town","station":"light_rail","derived_from":"stop_position"}},{"type":"node","id":3152004116,"lon":126.7278961,"lat":37.5432872,"tags":{"name":"계산","name:en":"Gyesan","station":"light_rail","derived_from":"stop_position"}},{"type":"node","id":3152004120,"lon":126.73877,"lat":37.5451262,"tags":{"name":"임학","name:en":"Imhak","station":"light_rail","derived_from":"stop_position"}},{"type":"node","id":3152004121,"lon":126.699777,"lat":37.4418961,"tags":{"name":"인천터미널","name:en":"Incheon Bus Terminal","station":"light_rail","derived_from":"stop_position"}},{"type":"node","id":3152004122,"lon":126.6978836,"lat":37.4348761,"tags":{"name":"문학경기장","name:en":"Munhak Sports Complex","station":"light_rail","derived_from":"stop_position"}},{"type":"node","id":3387004655,"lon":126.6345132,"lat":37.393382,"tags":{"name":"센트럴파크","name:en":"Central Park","station":"light_rail","derived_from":"stop_position"}},{"type":"node","id":4340428311,"lon":126.7022364,"lat":37.4579298,"tags":{"name":"인천시청","name:en":"Incheon City Hall","station":"light_rail","derived_from":"stop_position"}},{"type":"node","id":4989258140,"lon":126.723776,"lat":37.4899777,"tags":{"name":"부평","name:en":"Bupyeong","station":"light_rail","derived_from":"stop_position"}},{"type":"node","id":5204025129,"lon":126.736699,"lat":37.5715213,"tags":{"name":"계양","name:en":"Gyeyang","station":"light_rail","operator":"인천교통공사","derived_from":"stop_position"}},{"type":"node","id":5204025130,"lon":126.7345673,"lat":37.5714804,"tags":{"name":"계양","name:en":"Gyeyang","station":"light_rail","operator":"인천교통공사","derived_from":"stop_position"}},{"type":"node","id":5204050236,"lon":126.6880891,"lat":37.4124962,"tags":{"name":"원인재","name:en":"Woninjae","station":"light_rail","operator":"인천매트로","derived_from":"stop_position"}},{"type":"node","id":5204676259,"lon":126.7422024,"lat":37.5674066,"tags":{"name":"귤현","name:en":"Gyulhyeon","station":"light_rail","operator":"인천교통공사","derived_from":"stop_position"}},{"type":"node","id":5312586459,"lon":126.7427462,"lat":37.5659095,"tags":{"name":"귤현","name:en":"Gyulhyeon","station":"light_rail","operator":"인천교통공사","derived_from":"stop_position"}},{"type":"node","id":8236203295,"lon":126.6305042,"lat":37.3997664,"tags":{"name":"국제업무지구","name:en":"International Business District","station":"light_rail","derived_from":"stop_position"}},{"type":"node","id":8236203298,"lon":126.6260503,"lat":37.406787,"tags":{"name":"송도달빛축제공원","name:en":"Songdo Moonlight Festival Park","station":"light_rail","operator":"인천교통공사","derived_from":"stop_position"}},{"type":"node","id":9680035107,"lon":126.7450242,"lat":37.5536398,"tags":{"name":"박촌","name:en":"Bakchon","station":"light_rail","derived_from":"stop_position"}},{"type":"node","id":9680054222,"lon":126.7386823,"lat":37.5451731,"tags":{"name":"임학","name:en":"Imhak","station":"light_rail","derived_from":"stop_position"}},{"type":"node","id":9680054235,"lon":126.7278899,"lat":37.5433868,"tags":{"name":"계산","name:en":"Gyesan","station":"light_rail","derived_from":"stop_position"}},{"type":"node","id":9680054245,"lon":126.7225345,"lat":37.5384255,"tags":{"name":"경인교대입구","name:en":"Gyeongin Nat'l Univ. of Education","station":"light_rail","derived_from":"stop_position"}},{"type":"node","id":9680054253,"lon":126.7224693,"lat":37.5303134,"tags":{"name":"작전","name:en":"Jakjeon","station":"light_rail","derived_from":"stop_position"}},{"type":"node","id":9680054260,"lon":126.7214337,"lat":37.5167129,"tags":{"name":"갈산","name:en":"Galsan","station":"light_rail","derived_from":"stop_position"}},{"type":"node","id":9680054269,"lon":126.7204968,"lat":37.5081013,"tags":{"name":"부평구청","name:en":"Bupyeong-gu Office","station":"light_rail","operator":"인천교통공사","derived_from":"stop_position"}},{"type":"node","id":9680054273,"lon":126.7222192,"lat":37.498369,"tags":{"name":"부평시장","name:en":"Bupyeong Market","station":"light_rail","derived_from":"stop_position"}},{"type":"node","id":9680054292,"lon":126.7237,"lat":37.4899649,"tags":{"name":"부평","name:en":"Bupyeong","station":"light_rail","derived_from":"stop_position"}},{"type":"node","id":9680054295,"lon":126.7184187,"lat":37.4854963,"tags":{"name":"동수","name:en":"Dongsu","station":"light_rail","derived_from":"stop_position"}},{"type":"node","id":9680054313,"lon":126.7102052,"lat":37.4778965,"tags":{"name":"부평삼거리","name:en":"Bupyeongsamgeori","station":"light_rail","derived_from":"stop_position"}},{"type":"node","id":9680054325,"lon":126.707837,"lat":37.4673373,"tags":{"name":"간석오거리","name:en":"Ganseogogeori","station":"light_rail","derived_from":"stop_position"}},{"type":"node","id":9680054353,"lon":126.7021275,"lat":37.4579344,"tags":{"name":"인천시청","name:en":"Incheon City Hall","station":"light_rail","derived_from":"stop_position"}},{"type":"node","id":9680054364,"lon":126.701031,"lat":37.4500621,"tags":{"name":"예술회관","name:en":"Arts Center","station":"light_rail","derived_from":"stop_position"}},{"type":"node","id":9680054373,"lon":126.6996538,"lat":37.4419055,"tags":{"name":"인천터미널","name:en":"Incheon Bus Terminal","station":"light_rail","derived_from":"stop_position"}},{"type":"node","id":9680054385,"lon":126.6977716,"lat":37.4348643,"tags":{"name":"문학경기장","name:en":"Munhak Sports Complex","station":"light_rail","derived_from":"stop_position"}},{"type":"node","id":9680054396,"lon":126.6989001,"lat":37.427146,"tags":{"name":"선학","name:en":"Seonhak","station":"light_rail","derived_from":"stop_position"}},{"type":"node","id":9680054399,"lon":126.6938361,"lat":37.418023,"tags":{"name":"신연수","name:en":"Sinyeonsu","station":"light_rail","derived_from":"stop_position"}},{"type":"node","id":9680054406,"lon":126.6880382,"lat":37.4125366,"tags":{"name":"원인재","name:en":"Woninjae","station":"light_rail","operator":"인천매트로","derived_from":"stop_position"}},{"type":"node","id":9680054412,"lon":126.6805762,"lat":37.4046129,"tags":{"name":"동춘","name:en":"Dongchun","station":"light_rail","derived_from":"stop_position"}},{"type":"node","id":9680054413,"lon":126.6738092,"lat":37.3983933,"tags":{"name":"동막","name:en":"Dongmak","station":"light_rail","derived_from":"stop_position"}},{"type":"node","id":9680054421,"lon":126.6615323,"lat":37.3879193,"tags":{"name":"캠퍼스타운","name:en":"Campus Town","station":"light_rail","derived_from":"stop_position"}},{"type":"node","id":9680054430,"lon":126.6558454,"lat":37.3820801,"tags":{"name":"테크노파크","name:en":"Technopark","station":"light_rail","operator":"인천교통공사","derived_from":"stop_position"}},{"type":"node","id":9680054443,"lon":126.6456102,"lat":37.3780649,"tags":{"name":"지식정보단지","name:en":"BIT Zone","station":"light_rail","operator":"인천교통공사","derived_from":"stop_position"}},{"type":"node","id":9680054447,"lon":126.639682,"lat":37.3860781,"tags":{"name":"인천대입구","name:en":"Incheon National University","station":"light_rail","derived_from":"stop_position"}},{"type":"node","id":9680054451,"lon":126.6347144,"lat":37.3934462,"tags":{"name":"센트럴파크","name:en":"Central Park","station":"light_rail","derived_from":"stop_position"}},{"type":"node","id":9680054453,"lon":126.6306247,"lat":37.3998563,"tags":{"name":"국제업무지구","name:en":"International Business District","station":"light_rail","derived_from":"stop_position"}},{"type":"node","id":9680054460,"lon":126.626147,"lat":37.4068352,"tags":{"name":"송도달빛축제공원","name:en":"Songdo Moonlight Festival Park","station":"light_rail","operator":"인천교통공사","derived_from":"stop_position"}},{"type":"node","id":11202085916,"lon":126.6985035,"lat":37.6026985,"tags":{"name":"신검단중앙","station":"light_rail","derived_from":"stop_position"}},{"type":"node","id":11202085920,"lon":126.713376,"lat":37.5921919,"tags":{"name":"아라","station":"light_rail","derived_from":"stop_position"}},{"type":"node","id":11202094644,"lon":126.7133151,"lat":37.592185,"tags":{"name":"아라","station":"light_rail","derived_from":"stop_position"}},{"type":"node","id":11202094654,"lon":126.6985169,"lat":37.6026243,"tags":{"name":"신검단중앙","station":"light_rail","derived_from":"stop_position"}},{"type":"node","id":13048340092,"lon":126.6885315,"lat":37.602464,"tags":{"name":"검단호수공원","station":"light_rail","derived_from":"stop_position"}},{"type":"node","id":13048340093,"lon":126.6885383,"lat":37.6024184,"tags":{"name":"검단호수공원","station":"light_rail","derived_from":"stop_position"}}]}