{"elements":[{"type":"node","id":206142846,"lat":38.3747727,"lon":-0.4287439,"tags":{"name":"Condomina","public_transport":"stop_position","railway":"tram_stop","tram":"yes"}},{"type":"node","id":206142849,"lat":38.3775142,"lon":-0.4218648,"tags":{"name":"Campo de Golf","public_transport":"stop_position","railway":"tram_stop","ref":"L1 - L3","tram":"yes"}},{"type":"node","id":206142874,"lat":38.3790869,"lon":-0.4111843,"tags":{"name":"Costa Blanca","name:ca":"Costa Blanca","public_transport":"stop_position","railway":"tram_stop","shelter":"yes","tram":"yes"}},{"type":"node","id":206189971,"lat":38.3647226,"lon":-0.4323165,"tags":{"name":"Sergio Cardell","public_transport":"stop_position","railway":"tram_stop","tram":"yes","wheelchair":"yes"}},{"type":"node","id":245429643,"lat":38.3885928,"lon":-0.4083558,"tags":{"name":"Carrabiners","public_transport":"stop_position","railway":"tram_stop","shelter":"yes","tram":"yes"}},{"type":"node","id":245429649,"lat":38.396929,"lon":-0.4066878,"tags":{"name":"Muchavista","public_transport":"stop_position","railway":"tram_stop","shelter":"yes","tram":"yes"}},{"type":"node","id":245429656,"lat":38.4051278,"lon":-0.40416,"tags":{"name":"Les Llances","public_transport":"stop_position","railway":"tram_stop","ref":"L3","shelter":"yes","tram":"yes"}},{"type":"node","id":245431372,"lat":38.4278009,"lon":-0.3951217,"tags":{"name":"El Campello","name:ca":"El Campello","public_transport":"stop_position","railway":"tram_stop","ref":"L1","shelter":"yes","tram":"yes"}},{"type":"node","id":248541374,"lat":38.4278273,"lon":-0.3951509,"tags":{"name":"El Campello","name:ca":"El Campello","public_transport":"stop_position","railway":"tram_stop","ref":"L1","shelter":"yes","tram":"yes"}},{"type":"node","id":248541517,"lat":38.4391163,"lon":-0.3825775,"tags":{"name":"Poble Espanyol","name:ca":"Poble Espanyol","public_transport":"stop_position","railway":"tram_stop","shelter":"yes","tram":"yes"}},{"type":"node","id":248541852,"lat":38.5100919,"lon":-0.2315775,"tags":{"name":"Creueta","name:ca":"Creueta","public_transport":"stop_position","railway":"tram_stop","tram":"yes"}},{"type":"node","id":248541855,"lat":38.5060092,"lon":-0.2364023,"tags":{"name":"La Vila Joiosa","public_transport":"stop_position","railway":"tram_stop","ref":"L1","shelter":"yes","tram":"yes"}},{"type":"node","id":248541946,"lat":38.4769079,"lon":-0.3184094,"tags":{"name":"Venta Lanuza","public_transport":"stop_position","railway":"tram_stop","tram":"yes"}},{"type":"node","id":248542016,"lat":38.4540301,"lon":-0.3527657,"tags":{"name":"Cala Piteres","name:ca":"Cala Piteres","public_transport":"stop_position","railway":"tram_stop","ref":"L3","tram":"yes"}},{"type":"node","id":248542037,"lat":38.4501399,"lon":-0.3645117,"tags":{"name":"Coveta Fumá","public_transport":"stop_position","railway":"tram_stop","ref":"L3","tram":"yes","wikidata":"Q16615838"}},{"type":"node","id":248542048,"lat":38.4448228,"lon":-0.3733761,"tags":{"name":"Amerador","public_transport":"stop_position","railway":"tram_stop","ref":"L3","tram":"yes","wikidata":"Q16482985"}},{"type":"node","id":248542626,"lat":38.5002722,"lon":-0.2573943,"tags":{"name":"Paradís","public_transport":"stop_position","railway":"tram_stop","ref":"L1","shelter":"yes","tram":"yes","wikidata":"Q16615874"}},{"type":"node","id":248543709,"lat":38.4215137,"lon":-0.3968598,"tags":{"name":"Plà Barraques","public_transport":"stop_position","railway":"tram_stop","ref":"L3","shelter":"1","tram":"yes"}},{"type":"node","id":248543839,"lat":38.4160248,"lon":-0.3977628,"tags":{"name":"Salesians","public_transport":"stop_position","railway":"tram_stop","ref":"L3","shelter":"yes","tram":"yes"}},{"type":"node","id":248543888,"lat":38.4124494,"lon":-0.4018574,"tags":{"name":"Fabraquer","name:ca":"Fabraquer","public_transport":"stop_position","railway":"tram_stop","ref":"L3","tram":"yes"}},{"type":"node","id":257926882,"lat":38.5136158,"lon":-0.219233,"tags":{"name":"Costera Pastor","public_transport":"stop_position","railway":"tram_stop","tram":"yes"}},{"type":"node","id":257926916,"lat":38.5467075,"lon":-0.1589361,"tags":{"name":"Terra Mítica","public_transport":"stop_position","railway":"tram_stop","shelter":"yes","tram":"yes"}},{"type":"node","id":300080575,"lat":38.3724779,"lon":-0.4200235,"tags":{"name":"Países Escandinavos","public_transport":"stop_position","railway":"tram_stop","tram":"yes","wikidata":"Q16615877"}},{"type":"node","id":300087072,"lat":38.3767821,"lon":-0.4192169,"tags":{"name":"Instituto","public_transport":"stop_position","railway":"tram_stop","tram":"yes","wikidata":"Q16615853"}},{"type":"node","id":300087089,"lat":38.3753958,"lon":-0.4131966,"tags":{"name":"La Coruña","public_transport":"stop_position","railway":"tram_stop","tram":"yes"}},{"type":"node","id":353155198,"lat":38.3643274,"lon":-0.4838579,"tags":{"name":"Hospital","name:ca":"Hospital","public_transport":"stop_position","railway":"tram_stop","tram":"yes","wheelchair":"yes"}},{"type":"node","id":461817107,"lat":38.3625658,"lon":-0.4147644,"tags":{"name":"Cabo Huertas / Cap de l'Horta","public_transport":"stop_position","railway":"tram_stop","tram":"yes","wikidata":"Q16916031"}},{"type":"node","id":461818609,"lat":38.3653401,"lon":-0.4118783,"tags":{"name":"Av. Benidorm / Platja de San Joan","public_transport":"stop_position","railway":"tram_stop","tram":"yes","wikidata":"Q16615796","wikipedia":"es:Parada de Av. Benidorm (TRAM Alicante)"}},{"type":"node","id":461818610,"lat":38.3701524,"lon":-0.412009,"tags":{"name":"Londres","public_transport":"stop_position","railway":"tram_stop","tram":"yes","wikidata":"Q16615863"}},{"type":"node","id":478532315,"lat":38.3681319,"lon":-0.4198137,"tags":{"name":"Holanda","public_transport":"stop_position","railway":"tram_stop","tram":"yes","wheelchair":"yes","wikidata":"Q12198525"}},{"type":"node","id":558225874,"lat":38.5406506,"lon":-0.175002,"tags":{"light_rail":"yes","loc_ref":"1","name":"Cala Finestrat","network":"TRAM Metropolità d'Alacant","network:wikidata":"Q2063567","operator":"Ferrocarrils de la Generalitat Valenciana","operator:short":"FGV","operator:wikidata":"Q750832","operator:wikipedia":"ca:Ferrocarrils de la Generalitat Valenciana","owner:wikidata":"Q750832","public_transport":"stop_position","railway":"tram_stop","ref":"1","tactile_paving":"yes","tram":"yes"}},{"type":"node","id":558225877,"lat":38.5308518,"lon":-0.1988224,"tags":{"name":"Hospital Vila","public_transport":"stop_position","railway":"tram_stop","tram":"yes","wikidata":"Q16615850"}},{"type":"node","id":977369592,"lat":38.351832,"lon":-0.4678768,"tags":{"name":"Sangueta","public_transport":"stop_position","railway":"tram_stop","tram":"yes"}},{"type":"node","id":1041078754,"lat":38.3624404,"lon":-0.4782525,"tags":{"name":"Garbinet","public_transport":"stop_position","railway":"tram_stop","tram":"yes"}},{"type":"node","id":1523338963,"lat":38.3623141,"lon":-0.4203368,"tags":{"name":"Av. Naciones","public_transport":"stop_position","railway":"tram_stop","tram":"yes","wheelchair":"yes"}},{"type":"node","id":1523338972,"lat":38.3621733,"lon":-0.4251587,"tags":{"name":"Tridente","public_transport":"stop_position","railway":"tram_stop","tram":"yes"}},{"type":"node","id":1562416352,"lat":38.3920967,"lon":-0.5169384,"tags":{"name":"Sant Vicent del Raspeig","name:ca":"Sant Vicent del Raspeig","public_transport":"stop_position","railway":"tram_stop","tram":"yes"}},{"type":"node","id":1577005184,"lat":38.3624308,"lon":-0.4783146,"tags":{"name":"Garbinet","public_transport":"stop_position","railway":"tram_stop","tram":"yes","wheelchair":"yes"}},{"type":"node","id":1577005211,"lat":38.3642932,"lon":-0.483873,"tags":{"name":"Hospital","name:ca":"Hospital","public_transport":"stop_position","railway":"tram_stop","tram":"yes","wheelchair":"yes"}},{"type":"node","id":1577005397,"lat":38.392078,"lon":-0.5169764,"tags":{"name":"Sant Vicent del Raspeig","name:ca":"Sant Vicent del Raspeig","public_transport":"stop_position","railway":"tram_stop","tram":"yes"}},{"type":"node","id":2422566917,"lat":38.3647384,"lon":-0.4322798,"tags":{"name":"Sergio Cardell","public_transport":"stop_position","railway":"tram_stop","tram":"yes","wheelchair":"yes"}},{"type":"node","id":2422566918,"lat":38.3622033,"lon":-0.4251601,"tags":{"name":"Tridente","public_transport":"stop_position","railway":"tram_stop","tram":"yes"}},{"type":"node","id":2422566919,"lat":38.3623467,"lon":-0.4203392,"tags":{"name":"Av. Naciones","public_transport":"stop_position","railway":"tram_stop","tram":"yes","wheelchair":"yes"}},{"type":"node","id":2561208067,"lat":38.359949,"lon":-0.4720944,"tags":{"name":"Bulevar del Plà","public_transport":"stop_position","railway":"tram_stop","tram":"yes","wheelchair":"yes"}},{"type":"node","id":2561208073,"lat":38.3599791,"lon":-0.4720794,"tags":{"name":"Bulevar del Plà","public_transport":"stop_position","railway":"tram_stop","tram":"yes","wheelchair":"yes"}},{"type":"node","id":2561208080,"lat":38.3757675,"lon":-0.4978543,"tags":{"name":"Ciudad Jardín","public_transport":"stop_position","railway":"tram_stop","tram":"yes"}},{"type":"node","id":2561208087,"lat":38.3758103,"lon":-0.4977521,"tags":{"name":"Ciudad Jardín","public_transport":"stop_position","railway":"tram_stop","tram":"yes"}},{"type":"node","id":2561208092,"lat":38.3739213,"lon":-0.4871507,"tags":{"name":"Pintor Gastón Castelló","public_transport":"stop_position","railway":"tram_stop","tram":"yes","wheelchair":"yes"}},{"type":"node","id":2561208099,"lat":38.3739248,"lon":-0.4871071,"tags":{"name":"Pintor Gastón Castelló","public_transport":"stop_position","railway":"tram_stop","tram":"yes","wheelchair":"yes"}},{"type":"node","id":2561208119,"lat":38.3546326,"lon":-0.4692193,"tags":{"name":"La Goteta - Plazamar 2","public_transport":"stop_position","railway":"tram_stop","tram":"yes"}},{"type":"node","id":2561208125,"lat":38.3546489,"lon":-0.4692571,"tags":{"name":"La Goteta - Plazamar 2","public_transport":"stop_position","railway":"tram_stop","tram":"yes"}},{"type":"node","id":2561208131,"lat":38.3682607,"lon":-0.4858927,"tags":{"name":"Maestro Alonso","public_transport":"stop_position","railway":"tram_stop","tram":"yes"}},{"type":"node","id":2561208137,"lat":38.3682743,"lon":-0.4858563,"tags":{"name":"Maestro Alonso","public_transport":"stop_position","railway":"tram_stop","tram":"yes"}},{"type":"node","id":2561208144,"lat":38.3817716,"lon":-0.5044525,"tags":{"name":"Santa Isabel","public_transport":"stop_position","railway":"tram_stop","tram":"yes"}},{"type":"node","id":2561208151,"lat":38.3817842,"lon":-0.504417,"tags":{"name":"Santa Isabel","public_transport":"stop_position","railway":"tram_stop","tram":"yes"}},{"type":"node","id":2561208154,"lat":38.3870711,"lon":-0.5109468,"tags":{"name":"Universitat","name:ca":"Universitat","public_transport":"stop_position","railway":"tram_stop","tram":"yes","wheelchair":"yes"}},{"type":"node","id":2561208155,"lat":38.3870917,"lon":-0.5109165,"tags":{"name":"Universitat","name:ca":"Universitat","public_transport":"stop_position","railway":"tram_stop","tram":"yes"}},{"type":"node","id":2561208157,"lat":38.3765768,"lon":-0.4905584,"tags":{"name":"Virgen del Remedio","public_transport":"stop_position","railway":"tram_stop","tram":"yes","wikidata":"Q16916037"}},{"type":"node","id":2562749917,"lat":38.3667558,"lon":-0.4425576,"tags":{"name":"Albufereta","name:ca":"Albufereta","public_transport":"stop_position","railway":"tram_stop","tram":"yes"}},{"type":"node","id":2562749922,"lat":38.3667743,"lon":-0.4425938,"tags":{"name":"Albufereta","name:ca":"Albufereta","public_transport":"stop_position","railway":"tram_stop","tram":"yes"}},{"type":"node","id":2562749933,"lat":38.3775338,"lon":-0.4218948,"tags":{"name":"Campo de Golf","public_transport":"stop_position","railway":"tram_stop","ref":"L1 - L3","tram":"yes"}},{"type":"node","id":2562749947,"lat":38.3748014,"lon":-0.4287585,"tags":{"name":"Condomina","public_transport":"stop_position","railway":"tram_stop","tram":"yes"}},{"type":"node","id":2562749951,"lat":38.3628861,"lon":-0.4470381,"tags":{"name":"La Isleta","public_transport":"stop_position","railway":"tram_stop","tram":"yes","wheelchair":"yes"}},{"type":"node","id":2562749955,"lat":38.3629058,"lon":-0.4470711,"tags":{"name":"La Isleta","public_transport":"stop_position","railway":"tram_stop","tram":"yes","wheelchair":"yes"}},{"type":"node","id":2562749959,"lat":38.3700616,"lon":-0.4383034,"tags":{"name":"Lucentum","name:ca":"Lucentum","public_transport":"stop_position","railway":"tram_stop","tram":"yes"}},{"type":"node","id":2562749967,"lat":38.3702891,"lon":-0.4384857,"tags":{"name":"Lucentum","name:ca":"Lucentum","public_transport":"stop_position","railway":"tram_stop","tram":"yes"}},{"type":"node","id":2562749971,"lat":38.3703019,"lon":-0.4385185,"tags":{"name":"Lucentum","name:ca":"Lucentum","public_transport":"stop_position","railway":"tram_stop","tram":"yes"}},{"type":"node","id":2562749981,"lat":38.368754,"lon":-0.4356852,"tags":{"name":"Miriam Blasco","name:ca":"Miriam Blasco","public_transport":"stop_position","railway":"tram_stop","tram":"yes"}},{"type":"node","id":2562749985,"lat":38.3689173,"lon":-0.4353194,"tags":{"name":"Miriam Blasco","name:ca":"Miriam Blasco","public_transport":"stop_position","railway":"tram_stop","tram":"yes"}},{"type":"node","id":2562749994,"lat":38.3518767,"lon":-0.46793,"tags":{"name":"Sangueta","public_transport":"stop_position","railway":"tram_stop","tram":"yes"}},{"type":"node","id":2562749998,"lat":38.3519097,"lon":-0.4679562,"tags":{"name":"Sangueta","public_transport":"stop_position","railway":"tram_stop","tram":"yes"}},{"type":"node","id":3855022199,"lat":38.3885979,"lon":-0.4083942,"tags":{"name":"Carrabiners","public_transport":"stop_position","railway":"tram_stop","shelter":"yes","tram":"yes"}},{"type":"node","id":3855022200,"lat":38.3791207,"lon":-0.4112094,"tags":{"name":"Costa Blanca","name:ca":"Costa Blanca","public_transport":"stop_position","railway":"tram_stop","shelter":"yes","tram":"yes"}},{"type":"node","id":3855022201,"lat":38.4123779,"lon":-0.4019314,"tags":{"name":"Fabraquer","name:ca":"Fabraquer","public_transport":"stop_position","railway":"tram_stop","ref":"L3","tram":"yes"}},{"type":"node","id":3855022202,"lat":38.4051278,"lon":-0.4041986,"tags":{"name":"Les Llances","public_transport":"stop_position","railway":"tram_stop","ref":"L3","shelter":"yes","tram":"yes"}},{"type":"node","id":3855022203,"lat":38.3969357,"lon":-0.4067275,"tags":{"name":"Muchavista","public_transport":"stop_position","railway":"tram_stop","shelter":"yes","tram":"yes"}},{"type":"node","id":3867439808,"lat":38.4215194,"lon":-0.3969012,"tags":{"name":"Plà Barraques","public_transport":"stop_position","railway":"tram_stop","ref":"L3","shelter":"1","tram":"yes"}},{"type":"node","id":3867440211,"lat":38.4278697,"lon":-0.3952174,"tags":{"name":"El Campello","name:ca":"El Campello","public_transport":"stop_position","railway":"tram_stop","ref":"L3","tram":"yes"}},{"type":"node","id":3867440257,"lat":38.416029,"lon":-0.3978032,"tags":{"name":"Salesians","public_transport":"stop_position","railway":"tram_stop","ref":"L3","shelter":"yes","tram":"yes"}},{"type":"node","id":3867564912,"lat":38.4391408,"lon":-0.3826072,"tags":{"name":"Poble Espanyol","name:ca":"Poble Espanyol","public_transport":"stop_position","railway":"tram_stop","shelter":"yes","tram":"yes"}},{"type":"node","id":3867904696,"lat":38.513583,"lon":-0.219231,"tags":{"name":"Costera Pastor","public_transport":"stop_position","railway":"tram_stop","tram":"yes"}},{"type":"node","id":3867904697,"lat":38.5100754,"lon":-0.2316904,"tags":{"name":"Creueta","name:ca":"Creueta","public_transport":"stop_position","railway":"tram_stop","tram":"yes"}},{"type":"node","id":3867935909,"lat":38.4769281,"lon":-0.3184378,"tags":{"name":"Venta Lanuza","public_transport":"stop_position","railway":"tram_stop","tram":"yes"}},{"type":"node","id":3867986516,"lat":38.4540822,"lon":-0.3527689,"tags":{"name":"Cala Piteres","name:ca":"Cala Piteres","public_transport":"stop_position","railway":"tram_stop","ref":"L3","tram":"yes"}},{"type":"node","id":3868056128,"lat":38.5467332,"lon":-0.1589125,"tags":{"name":"Terra Mítica","public_transport":"stop_position","railway":"tram_stop","tram":"yes"}},{"type":"node","id":4213596790,"lat":38.3519618,"lon":-0.4762305,"tags":{"name":"MARQ-Castillo","network":"Transporte Alicante Metropolitano","network:short":"TAM","network:wikidata":"Q2063567","operator":"Ferrocarrils de la Generalitat Valenciana","operator:short":"FGV","operator:wikidata":"Q750832","operator:wikipedia":"ca:Ferrocarrils de la Generalitat Valenciana","owner:wikidata":"Q750832","public_transport":"stop_position","railway":"tram_stop","tram":"yes"}},{"type":"node","id":4213596791,"lat":38.3520576,"lon":-0.4762438,"tags":{"name":"MARQ-Castillo","network":"Transporte Alicante Metropolitano","network:short":"TAM","network:wikidata":"Q2063567","operator":"Ferrocarrils de la Generalitat Valenciana","operator:short":"FGV","operator:wikidata":"Q750832","operator:wikipedia":"ca:Ferrocarrils de la Generalitat Valenciana","owner:wikidata":"Q750832","public_transport":"stop_position","railway":"tram_stop","tram":"yes"}},{"type":"node","id":4213596792,"lat":38.3483041,"lon":-0.4843621,"tags":{"name":"Mercado","network":"TRAM Metropolità d'Alacant","network:wikidata":"Q2063567","operator":"Ferrocarrils de la Generalitat Valenciana","operator:short":"FGV","operator:wikidata":"Q750832","operator:wikipedia":"ca:Ferrocarrils de la Generalitat Valenciana","owner:wikidata":"Q750832","public_transport":"stop_position","railway":"tram_stop","tram":"yes"}},{"type":"node","id":4213596793,"lat":38.3483225,"lon":-0.4843724,"tags":{"name":"Mercado","network":"TRAM Metropolità d'Alacant","network:wikidata":"Q2063567","operator":"Ferrocarrils de la Generalitat Valenciana","operator:short":"FGV","operator:wikidata":"Q750832","operator:wikipedia":"ca:Ferrocarrils de la Generalitat Valenciana","owner:wikidata":"Q750832","public_transport":"stop_position","railway":"tram_stop","tram":"yes"}},{"type":"node","id":4213602752,"lat":38.3459859,"lon":-0.4905968,"tags":{"name":"Luceros","name:ca":"Estels","name:es":"Luceros","network":"Transporte Alicante Metropolitano","network:short":"TAM","network:wikidata":"Q2063567","operator":"Ferrocarrils de la Generalitat Valenciana","operator:short":"FGV","operator:wikidata":"Q750832","operator:wikipedia":"ca:Ferrocarrils de la Generalitat Valenciana","owner:wikidata":"Q750832","public_transport":"stop_position","railway":"tram_stop","tram":"yes","wheelchair":"yes"}},{"type":"node","id":4213602753,"lat":38.3460752,"lon":-0.490648,"tags":{"name":"Luceros","name:ca":"Estels","name:es":"Luceros","network":"TRAM Metropolità d'Alacant","network:wikidata":"Q2063567","operator":"Ferrocarrils de la Generalitat Valenciana","operator:short":"FGV","operator:wikidata":"Q750832","operator:wikipedia":"ca:Ferrocarrils de la Generalitat Valenciana","owner:wikidata":"Q750832","public_transport":"stop_position","railway":"tram_stop","tram":"yes","wheelchair":"yes"}},{"type":"node","id":5072920252,"lat":38.5481623,"lon":-0.1351438,"tags":{"name":"Benidorm","name:ca":"Benidorm","public_transport":"stop_position","railway":"tram_stop","tram":"yes"}},{"type":"node","id":5072920253,"lat":38.5482017,"lon":-0.1351381,"tags":{"name":"Benidorm","name:ca":"Benidorm","public_transport":"stop_position","railway":"tram_stop","tram":"yes"}},{"type":"node","id":9778067937,"lat":38.345082,"lon":-0.4788414,"tags":{"name":"Porta del Mar","name:ca":"Porta del Mar","network":"Transporte Alicante Metropolitano","network:short":"TAM","network:wikidata":"Q2063567","public_transport":"stop_position","railway":"tram_stop","tram":"yes"}},{"type":"node","id":9778067938,"lat":38.3489779,"lon":-0.4729468,"tags":{"name":"La Marina","name:ca":"La Marina","public_transport":"stop_position","railway":"tram_stop","tram":"yes"}},{"type":"node","id":9855543028,"lat":38.5406804,"lon":-0.1750154,"tags":{"light_rail":"yes","loc_ref":"2","name":"Cala Finestrat","network":"TRAM Metropolità d'Alacant","network:wikidata":"Q2063567","operator":"Ferrocarrils de la Generalitat Valenciana","operator:short":"FGV","operator:wikidata":"Q750832","operator:wikipedia":"ca:Ferrocarrils de la Generalitat Valenciana","owner:wikidata":"Q750832","public_transport":"stop_position","railway":"tram_stop","ref":"1","tactile_paving":"yes","tram":"yes"}},{"type":"node","id":2562749940,"lat":38.3748172,"lon":-0.4286525,"tags":{"name":"Condomina","public_transport":"station","railway":"tram_stop","wikidata":"Q16615830","wikipedia":"es:Parada de Condomina (TRAM Alicante)"}},{"type":"node","id":9778067939,"lat":38.3488854,"lon":-0.4731069,"tags":{"name":"La Marina","name:ca":"La Marina","public_transport":"stop_position","railway":"tram_stop","tram":"yes"}}]}