{"elements":[{"type":"node","id":333431999,"lat":42.3337649,"lon":-83.0461813,"tags":{"light_rail":"yes","name":"Cadillac Center","network":"Detroit People Mover","operator":"Detroit People Mover Co.","public_transport":"stop_position","railway":"stop"}},{"type":"node","id":333432013,"lat":42.3354318,"lon":-83.0482386,"tags":{"light_rail":"yes","name":"Broadway","network":"Detroit People Mover","operator":"Detroit People Mover Co.","public_transport":"stop_position","railway":"stop"}},{"type":"node","id":333432085,"lat":42.3252981,"lon":-83.0525959,"tags":{"light_rail":"yes","name":"Water Square","network":"Detroit People Mover","operator":"Detroit People Mover Co.","public_transport":"stop_position","railway":"stop"}},{"type":"node","id":604108303,"lat":42.3358331,"lon":-83.0505357,"tags":{"light_rail":"yes","name":"Grand Circus Park","network":"Detroit People Mover","operator":"Detroit Transportation Corporation","public_transport":"stop_position","railway":"stop"}},{"type":"node","id":604108304,"lat":42.3346075,"lon":-83.0424625,"tags":{"light_rail":"yes","name":"Greektown","network":"Detroit People Mover","operator":"Detroit People Mover Co.","public_transport":"stop_position","railway":"stop","wikidata":"Q8965027","wikipedia":"en:Greektown station"}},{"type":"node","id":1216900828,"lat":42.2040285,"lon":-83.361015,"tags":{"name":"South Station","railway":"station"}},{"type":"node","id":1216900842,"lat":42.2082952,"lon":-83.3577407,"tags":{"name":"Terminal Station","public_transport":"station","railway":"station"}},{"type":"node","id":1216900843,"lat":42.2134093,"lon":-83.3541217,"tags":{"name":"North Station","public_transport":"station","railway":"station","train":"yes"}},{"type":"node","id":2290493947,"lat":42.3335799,"lon":-83.0521744,"tags":{"light_rail":"yes","name":"Times Square","network":"Detroit People Mover","operator":"Detroit People Mover Co.","public_transport":"stop_position","railway":"stop"}},{"type":"node","id":3714088675,"lat":42.3321342,"lon":-83.0472825,"tags":{"name":"Campus Martius","network":"QLine","public_transport":"stop_position","railway":"tram_stop","tram":"yes","wikidata":"Q20861621","wikipedia":"en:Campus Martius station"}},{"type":"node","id":4505154725,"lat":42.3326341,"lon":-83.0475231,"tags":{"name":"Campus Martius","network":"QLine","public_transport":"stop_position","railway":"tram_stop","tram":"yes","wikidata":"Q20861621","wikipedia":"en:Campus Martius station"}},{"type":"node","id":4512664960,"lat":42.3578352,"lon":-83.0647794,"tags":{"name":"Warren Avenue","network":"QLine","public_transport":"stop_position","railway":"tram_stop","tram":"yes","wikidata":"Q20861673","wikipedia":"en:Warren Avenue station"}},{"type":"node","id":4512672300,"lat":42.3564189,"lon":-83.0642266,"tags":{"name":"Warren Avenue","network":"QLine","public_transport":"stop_position","railway":"tram_stop","tram":"yes","wikidata":"Q20861673","wikipedia":"en:Warren Avenue station"}},{"type":"node","id":5120188917,"lat":42.3297945,"lon":-83.0455391,"tags":{"name":"Congress Street","network":"QLine","public_transport":"stop_position","railway":"tram_stop","tram":"yes","wikidata":"Q20861625","wikipedia":"en:Congress Street station"}},{"type":"node","id":5120188919,"lat":42.3362759,"lon":-83.0504883,"tags":{"name":"Grand Circus Park","network":"QLine","operator":"Transdev","public_transport":"stop_position","railway":"tram_stop","tram":"yes"}},{"type":"node","id":5120188920,"lat":42.3363964,"lon":-83.0503589,"tags":{"name":"Grand Circus Park","network":"QLine","operator":"Transdev","public_transport":"stop_position","railway":"tram_stop","tram":"yes"}},{"type":"node","id":5120189421,"lat":42.3389946,"lon":-83.0523643,"tags":{"name":"Montcalm Street","network":"QLine","public_transport":"stop_position","railway":"tram_stop","tram":"yes","wikidata":"Q20861644","wikipedia":"en:Montcalm Street station"}},{"type":"node","id":5120189422,"lat":42.3392816,"lon":-83.052272,"tags":{"name":"Montcalm Street","network":"QLine","public_transport":"stop_position","railway":"tram_stop","tram":"yes","wikidata":"Q20861644","wikipedia":"en:Montcalm Street station"}},{"type":"node","id":5120272303,"lat":42.3419386,"lon":-83.0543754,"tags":{"name":"Sproat Street","network":"QLine","public_transport":"stop_position","railway":"tram_stop","tram":"yes","wikidata":"Q20861669","wikipedia":"en:Sproat Street/Adelaide Street station"}},{"type":"node","id":5120273725,"lat":42.347021,"lon":-83.0577737,"tags":{"name":"Martin Luther King Junior Boulevard","network":"QLine","public_transport":"stop_position","railway":"tram_stop","tram":"yes"}},{"type":"node","id":5120273726,"lat":42.3472992,"lon":-83.0576833,"tags":{"name":"Mack Avenue","network":"QLine","public_transport":"stop_position","railway":"tram_stop","tram":"yes"}},{"type":"node","id":5120273729,"lat":42.3523801,"lon":-83.0613843,"tags":{"name":"Canfield Street","network":"QLine","public_transport":"stop_position","railway":"tram_stop","tram":"yes","wikidata":"Q20861623","wikipedia":"en:Canfield Street station"}},{"type":"node","id":5120273730,"lat":42.3526428,"lon":-83.0612704,"tags":{"name":"Canfield Street","network":"QLine","public_transport":"stop_position","railway":"tram_stop","tram":"yes","wikidata":"Q20861623","wikipedia":"en:Canfield Street station"}},{"type":"node","id":5120273736,"lat":42.3611366,"lon":-83.0673206,"tags":{"name":"Ferry Street","network":"QLine","public_transport":"stop_position","railway":"tram_stop","tram":"yes","wikidata":"Q20861631","wikipedia":"en:Ferry Street station"}},{"type":"node","id":5120273737,"lat":42.3609711,"lon":-83.0669306,"tags":{"name":"Ferry Street","network":"QLine","public_transport":"stop_position","railway":"tram_stop","tram":"yes"}},{"type":"node","id":5120273741,"lat":42.3661956,"lon":-83.0707025,"tags":{"name":"Amsterdam Street","network":"QLine","public_transport":"stop_position","railway":"tram_stop","tram":"yes","wikidata":"Q20861618","wikipedia":"en:Amsterdam Street station"}},{"type":"node","id":5120273742,"lat":42.3662676,"lon":-83.070657,"tags":{"name":"Amsterdam Street","network":"QLine","public_transport":"stop_position","railway":"tram_stop","tram":"yes","wikidata":"Q20861618","wikipedia":"en:Amsterdam Street station"}},{"type":"node","id":5120273743,"lat":42.3686859,"lon":-83.0723335,"tags":{"name":"Baltimore Street","network":"QLine","public_transport":"stop_position","railway":"tram_stop","tram":"yes"}},{"type":"node","id":5120273744,"lat":42.3687623,"lon":-83.0722879,"tags":{"name":"Baltimore Street","network":"QLine","public_transport":"stop_position","railway":"tram_stop","tram":"yes"}},{"type":"node","id":5120273745,"lat":42.3706544,"lon":-83.0735195,"tags":{"name":"Grand Boulevard","network":"QLine","public_transport":"stop_position","railway":"tram_stop","tram":"yes"}},{"type":"node","id":5120273746,"lat":42.3705713,"lon":-83.0735543,"tags":{"name":"Grand Boulevard","network":"QLine","public_transport":"stop_position","railway":"tram_stop","tram":"yes"}},{"type":"node","id":5298096164,"lat":42.3411901,"lon":-83.0535608,"tags":{"name":"Adelaide Street","network":"QLine","public_transport":"stop_position","railway":"tram_stop","tram":"yes","wikidata":"Q20861669","wikipedia":"en:Sproat Street/Adelaide Street station"}},{"type":"node","id":5397376150,"lat":42.3332907,"lon":-83.041225,"tags":{"light_rail":"yes","name":"Bricktown","network":"Detroit People Mover","public_transport":"stop_position","railway":"stop"}},{"type":"node","id":7391017423,"lat":42.3302073,"lon":-83.0400529,"tags":{"light_rail":"yes","name":"Renaissance Center","network":"Detroit People Mover","public_transport":"stop_position","railway":"stop"}},{"type":"node","id":7391017424,"lat":42.330246,"lon":-83.0419446,"tags":{"light_rail":"yes","name":"Millender Center","network":"Detroit People Mover","public_transport":"stop_position","railway":"stop"}},{"type":"node","id":7391017425,"lat":42.3287201,"lon":-83.0466201,"tags":{"light_rail":"yes","name":"Financial District","network":"Detroit People Mover","public_transport":"stop_position","railway":"stop"}},{"type":"node","id":7391017426,"lat":42.3281033,"lon":-83.0498577,"tags":{"light_rail":"yes","name":"Huntington Place","network":"Detroit People Mover","public_transport":"stop_position","railway":"stop"}},{"type":"node","id":7391017427,"lat":42.3295449,"lon":-83.0510777,"tags":{"light_rail":"yes","name":"Fort/Cass","network":"Detroit People Mover","public_transport":"stop_position","railway":"stop"}},{"type":"node","id":7391017428,"lat":42.331357,"lon":-83.0521509,"tags":{"light_rail":"yes","name":"Michigan","network":"Detroit People Mover","public_transport":"stop_position","railway":"stop"}},{"type":"node","id":333431955,"lat":42.3302674,"lon":-83.0419372,"tags":{"light_rail":"yes","name":"Millender Center","network":"Detroit People Mover","operator":"Detroit People Mover Co.","public_transport":"station","railway":"station","station":"light_rail","wikidata":"Q257985"}},{"type":"node","id":604108299,"lat":42.3286587,"lon":-83.0466516,"tags":{"light_rail":"yes","name":"Financial District","network":"Detroit People Mover","operator":"Detroit People Mover Co","public_transport":"station","railway":"station","station":"light_rail","wikidata":"Q5449596","wikipedia":"en:Financial District station (Detroit)"}},{"type":"node","id":604108300,"lat":42.3295182,"lon":-83.0511381,"tags":{"light_rail":"yes","name":"Fort/Cass","network":"Detroit People Mover","operator":"Detroit People Mover Co.","public_transport":"station","railway":"station","station":"light_rail","wikidata":"Q5470692","wikipedia":"en:Fort/Cass station"}},{"type":"node","id":604108301,"lat":42.33136,"lon":-83.0520837,"tags":{"addr:city":"Detroit","addr:housenumber":"1220","addr:postcode":"48226","addr:state":"MI","addr:street":"Cass Avenue","light_rail":"yes","name":"Michigan","network":"Detroit People Mover","operator":"Detroit Transportation Corporation","operator:type":"public","public_transport":"station","railway":"station","start_date":"1987-07-31","station":"light_rail","website":"https://www.thepeoplemover.com/station-guide/michigan-ave","wheelchair":"yes","wikidata":"Q6837455","wikimedia_commons":"Category:Michigan Avenue station","wikipedia":"en:Michigan Avenue station"}},{"type":"node","id":604108305,"lat":42.3334554,"lon":-83.041169,"tags":{"light_rail":"yes","name":"Bricktown","network":"Detroit People Mover","operator":"Detroit People Mover Co.","public_transport":"station","railway":"station","station":"light_rail","wikidata":"Q4966046","wikipedia":"en:Bricktown station"}},{"type":"node","id":604108306,"lat":42.3301679,"lon":-83.040024,"tags":{"light_rail":"yes","name":"Renaissance Center","network":"Detroit People Mover","operator":"Detroit People Mover Co.","public_transport":"station","railway":"station","station":"light_rail","wikidata":"Q7312409","wikipedia":"en:Renaissance Center station"}},{"type":"node","id":1236473317,"lat":42.3281709,"lon":-83.0498002,"tags":{"light_rail":"yes","name":"Huntington Place","network":"Detroit People Mover","old_name:-1989":"Cobo Hall","old_name:1989-2019":"Cobo Center","old_name:2019-2022":"Convention Center","operator":"Detroit People Mover Co","public_transport":"station","railway":"station","start_date":"1988-11-14","station":"light_rail","wheelchair":"yes","wikidata":"Q5138942","wikipedia":"en:Huntington Place station"}},{"type":"node","id":6841202756,"lat":42.3252704,"lon":-83.0526881,"tags":{"light_rail":"yes","name":"Water Square","network":"Detroit People Mover","old_name:1987-2022":"Joe Louis Arena","old_name:2022-2025":"West Riverfront","operator":"Detroit People Mover Co.","public_transport":"station","railway":"station","station":"light_rail","wikidata":"Q6210998","wikipedia":"en:Water Square station"}},{"type":"node","id":6841244481,"lat":42.3346166,"lon":-83.0424237,"tags":{"light_rail":"yes","name":"Greektown","network":"Detroit People Mover","operator":"Detroit People Mover Co.","public_transport":"station","railway":"station","station":"light_rail","wikidata":"Q8965027","wikipedia":"en:Greektown station"}},{"type":"node","id":6841244482,"lat":42.3337072,"lon":-83.0461323,"tags":{"light_rail":"yes","name":"Cadillac Center","network":"Detroit People Mover","operator":"Detroit People Mover Co.","public_transport":"station","railway":"station","station":"light_rail","wikidata":"Q5016471","wikipedia":"en:Cadillac Center station"}},{"type":"node","id":6841244484,"lat":42.3357931,"lon":-83.0505879,"tags":{"light_rail":"yes","name":"Grand Circus Park","network":"Detroit People Mover","operator":"Detroit Transportation Corporation","public_transport":"station","railway":"station","station":"light_rail","wheelchair":"yes"}},{"type":"node","id":6841260986,"lat":42.3336271,"lon":-83.0521137,"tags":{"light_rail":"yes","name":"Times Square","network":"Detroit People Mover","operator":"Detroit People Mover Co.","public_transport":"station","railway":"station","station":"light_rail","wikidata":"Q960355","wikipedia":"en:Times Square station (Detroit)"}},{"type":"node","id":7745389963,"lat":42.3354581,"lon":-83.0481983,"tags":{"light_rail":"yes","lit":"yes","name":"Broadway","network":"Detroit People Mover","operator":"Detroit People Mover Co.","public_transport":"station","railway":"station","shelter":"yes","station":"light_rail","wikidata":"Q4972384","wikipedia":"en:Broadway station (Detroit)"}}]}