{"elements":[{"type":"node","id":361716,"lat":50.9233492,"lon":6.9435058,"tags":{"VRS:gemeinde":"KÖLN","VRS:ortsteil":"Innenstadt","VRS:ref":"11509","name":"Eifelplatz","public_transport":"stop_position","railway":"tram_stop","toilets:wheelchair":"no","tram":"yes","wheelchair":"yes"}},{"type":"node","id":26612812,"lat":50.742275,"lon":7.0557487,"tags":{"VRS:gemeinde":"BONN","VRS:ortsteil":"Tannenbusch","VRS:ref":"64306","alt_name":"Tannenbusch Süd Düne","light_rail":"yes","local_ref":"2","name":"Tannenbusch Süd","note":"Zusatz Duene vor Ort auf Schildern zu lesen nicht auf Fahrplaenen.","operator":"SWB","public_transport":"stop_position","railway":"stop","ref":"2","tram":"yes"}},{"type":"node","id":26612852,"lat":50.8228923,"lon":6.9795536,"tags":{"VRS:gemeinde":"WESSELING","VRS:name":"Wesseling","VRS:ortsteil":"Mitte","VRS:ref":"85111","name":"Wesseling","public_transport":"stop_position","railway":"tram_stop","ref":"2","tram":"yes"}},{"type":"node","id":26614024,"lat":50.7483188,"lon":7.0933543,"tags":{"VRS:gemeinde":"BONN","VRS:ortsteil":"Innenstadt","VRS:ref":"61928","name":"Husarenstraße","note":"Bis 11.12.2011 Finanzministerium","old_name:--2011-12-11":"Finanzministerium","public_transport":"stop_position","railway":"tram_stop","tram":"yes","wheelchair":"limited"}},{"type":"node","id":26614032,"lat":50.7547804,"lon":7.0869214,"tags":{"VRS:gemeinde":"BONN","VRS:name":"Graurheindorf, Heinrich-Hertz-Europakolleg","VRS:ortsteil":"Graurheindorf","VRS:ref":"64717","name":"Heinrich-Hertz-Europakolleg","old_name":"Heinrich-Hertz-Berufskolleg;Am Bonner Berg","public_transport":"stop_position","railway":"tram_stop","tram":"yes"}},{"type":"node","id":26643290,"lat":50.7512196,"lon":7.0907058,"tags":{"VRS:gemeinde":"BONN","VRS:ortsteil":"Innenstadt","VRS:ref":"61929","name":"Innenministerium","public_transport":"stop_position","railway":"tram_stop","tram":"yes"}},{"type":"node","id":26647294,"lat":50.7533616,"lon":7.0814478,"tags":{"VRS:gemeinde":"BONN","VRS:ortsteil":"Auerberg","VRS:ref":"64513","local_ref":"B","name":"An der Josefshöhe","public_transport":"stop_position","railway":"tram_stop","ref":"B","tram":"yes","wheelchair":"yes"}},{"type":"node","id":26699858,"lat":50.736613,"lon":7.0952971,"tags":{"VRS:gemeinde":"BONN","VRS:ortsteil":"Innenstadt","VRS:ref":"61114","light_rail":"yes","local_ref":"B","name":"Stadthaus","operator":"SWB","public_transport":"stop_position","railway":"stop","ref":"B","ref_name":"Stadthaus, Bonn","tram":"yes","wheelchair":"yes"}},{"type":"node","id":26699862,"lat":50.7375247,"lon":7.1019171,"tags":{"VRS:gemeinde":"BONN","VRS:name":"Bertha-von-Suttner-Platz/Beethovenhaus","VRS:ortsteil":"Innenstadt","VRS:ref":"61115","light_rail":"yes","local_ref":"A1","name":"Bertha-von-Suttner-Platz / Beethovenhaus","operator":"SWB","public_transport":"stop_position","railway":"stop","ref":"A1","ref_name":"Bertha Suttner Platz, Bonn","tram":"yes","wheelchair":"yes"}},{"type":"node","id":26712630,"lat":50.7552594,"lon":7.0767491,"tags":{"VRS:gemeinde":"BONN","VRS:ortsteil":"Auerberg","VRS:ref":"64512","local_ref":"A","name":"Auerberger Mitte","note":"Bis bis 2017-12-09 war der Name 'Pariser Straße'.","old_name:--2017-12-09":"Pariser Straße","public_transport":"stop_position","railway":"tram_stop","ref":"A","tram":"yes","wheelchair":"yes"}},{"type":"node","id":26723664,"lat":50.7068904,"lon":7.1374117,"tags":{"VRS:gemeinde":"BONN","VRS:ortsteil":"Hochkreuz","VRS:ref":"66613","layer":"-2","local_ref":"1","name":"Robert-Schuman-Platz","public_transport":"stop_position","railway":"stop","ref":"1","source":"best guess","tram":"yes","wheelchair":"yes"}},{"type":"node","id":26928057,"lat":50.6728224,"lon":7.1925051,"tags":{"VRS:gemeinde":"KÖNIGSWINTER","VRS:name":"Königswinter Fähre","VRS:ortsteil":"Mitte","VRS:ref":"56412","name":"Königswinter Fähre","note":"Name bis 2012-12-08: Königswinter Fähre / Sealife Aquarium","old_name":"Königswinter Fähre / Sealife Aquarium","passenger_information_display":"yes","public_transport":"stop_position","railway":"tram_stop","tram":"yes","wheelchair":"yes","wikidata":"Q63385259"}},{"type":"node","id":27019148,"lat":50.7437722,"lon":7.0167714,"tags":{"VRS:gemeinde":"ALFTER","VRS:name":"Alfter Stadtbahn/Alanus Hochschule","VRS:ortsteil":"Mitte","VRS:ref":"53711","name":"Alfter / Alanus Hochschule","operator":"HGK","public_transport":"stop_position","railway":"stop","tram":"yes"}},{"type":"node","id":27146894,"lat":50.7365764,"lon":7.0813908,"tags":{"VRS:gemeinde":"BONN","VRS:name":"Bonn West","VRS:ortsteil":"Innenstadt","VRS:ref":"61712","light_rail":"yes","name":"Bonn West","operator":"SWB","public_transport":"stop_position","railway":"stop","ref_name":"Bonn-West, Bonn","tram":"yes"}},{"type":"node","id":27176972,"lat":50.7373869,"lon":7.0472952,"tags":{"VRS:gemeinde":"BONN","VRS:ortsteil":"Dransdorf","VRS:ref":"64210","local_ref":"A","name":"Dransdorf","public_transport":"stop_position","railway":"stop","ref":"A","tram":"yes"}},{"type":"node","id":27398414,"lat":50.7162992,"lon":7.1654109,"tags":{"VRS:gemeinde":"BONN","VRS:ortsteil":"Oberkassel","VRS:ref":"68812","name":"Oberkassel Nord","passenger_information_display":"yes","public_transport":"stop_position","railway":"tram_stop","tram":"yes","wheelchair":"no"}},{"type":"node","id":27401191,"lat":50.7025133,"lon":7.1795249,"tags":{"VRS:gemeinde":"KÖNIGSWINTER","VRS:ortsteil":"Oberdollendorf","VRS:ref":"56510","name":"Oberdollendorf Nord","passenger_information_display":"yes","public_transport":"stop_position","railway":"tram_stop","tram":"yes","wheelchair":"yes"}},{"type":"node","id":27401197,"lat":50.6964875,"lon":7.1843252,"tags":{"VRS:gemeinde":"KÖNIGSWINTER","VRS:ortsteil":"Oberdollendorf","VRS:ref":"56511","name":"Oberdollendorf","passenger_information_display":"yes","public_transport":"stop_position","railway":"tram_stop","ref:IFOPT":"de:05382:56511:1:14","tram":"yes","wheelchair":"yes","wikidata":"Q63385232"}},{"type":"node","id":27401210,"lat":50.6848941,"lon":7.1866968,"tags":{"VRS:gemeinde":"KÖNIGSWINTER","VRS:name":"Longenburg","VRS:ortsteil":"Mitte","VRS:ref":"56513","name":"Longenburg / CJD Königswinter","passenger_information_display":"yes","public_transport":"stop_position","railway":"tram_stop","ref:IFOPT":"de:05382:56513:1:12","tram":"yes","wheelchair":"yes"}},{"type":"node","id":27401216,"lat":50.6772497,"lon":7.1888865,"tags":{"VRS:gemeinde":"KÖNIGSWINTER","VRS:name":"Clemens-August-Straße","VRS:ortsteil":"Mitte","VRS:ref":"56411","name":"Königswinter Clemens-August-Straße","network":"VRS","network:wikidata":"Q896041","operator":"SWB","passenger_information_display":"yes","public_transport":"stop_position","railway":"tram_stop","tram":"yes","wheelchair":"yes"}},{"type":"node","id":27401226,"lat":50.6577172,"lon":7.2095679,"tags":{"name":"Rhöndorf","passenger_information_display":"yes","public_transport":"stop_position","railway":"tram_stop","ref:IFOPT":"de:05382:56201:1:14","tram":"yes","wheelchair":"yes"}},{"type":"node","id":27401232,"lat":50.6686967,"lon":7.1964355,"tags":{"VRS:gemeinde":"KÖNIGSWINTER","VRS:ortsteil":"Mitte","VRS:ref":"56413","name":"Königswinter Denkmal","passenger_information_display":"yes","public_transport":"stop_position","railway":"tram_stop","toilets:wheelchair":"no","tram":"yes","wheelchair":"yes","wikidata":"Q63385261"}},{"type":"node","id":27401240,"lat":50.6488079,"lon":7.2149238,"tags":{"VRS:gemeinde":"BAD HONNEF","VRS:ortsteil":"Mitte","VRS:ref":"56112","name":"Am Spitzenbach","passenger_information_display":"yes","public_transport":"stop_position","railway":"tram_stop","ref:IFOPT":"de:05382:56112","tram":"yes","wheelchair":"yes","wikidata":"Q63385264"}},{"type":"node","id":27401243,"lat":50.6442134,"lon":7.2170091,"tags":{"VRS:gemeinde":"BAD HONNEF","VRS:name":"Bad Honnef (Stadtbahn)","VRS:ortsteil":"Mitte","VRS:ref":"56111","local_ref":"A","name":"Bad Honnef Stadtbahn","passenger_information_display":"yes","public_transport":"stop_position","railway":"tram_stop","ref":"A","ref:IFOPT":"de:05382:56111:1:11","tram":"yes","wheelchair":"yes"}},{"type":"node","id":27402089,"lat":50.7223856,"lon":7.1549382,"tags":{"VRS:gemeinde":"BONN","VRS:ortsteil":"Ramersdorf","VRS:ref":"68715","layer":"-1","level":"-1","local_ref":"1","name":"Ramersdorf","note":"Barrierefrei für 62 & 65, aber nicht 66 &68","passenger_information_display":"yes","public_transport":"stop_position","railway":"tram_stop","ref":"1","tactile_paving":"yes","tram":"yes","wheelchair":"yes"}},{"type":"node","id":28122005,"lat":50.9356984,"lon":6.9599243,"tags":{"VRS:gemeinde":"KÖLN","VRS:ortsteil":"Innenstadt","VRS:ref":"11110","name":"Heumarkt","public_transport":"stop_position","railway":"tram_stop","route_ref":"1, 7, 9","tram":"yes","wheelchair":"yes"}},{"type":"node","id":28122013,"lat":50.9380897,"lon":6.9713614,"tags":{"VRS:gemeinde":"KÖLN","VRS:ortsteil":"Deutz","VRS:ref":"11909","name":"Deutzer Freiheit","public_transport":"stop_position","railway":"tram_stop","tram":"yes","website":"https://www.kvb.koeln/haltestellen/overview/39/","wheelchair":"limited","wheelchair:description":"alle Infos direkt über den Link erreichbar"}},{"type":"node","id":28301370,"lat":50.9426536,"lon":7.042688,"tags":{"VRS:gemeinde":"KÖLN","VRS:name":"Kalker Friedhof","VRS:ortsteil":"Merheim","VRS:ref":"18510","name":"Kalker Friedhof","public_transport":"stop_position","railway":"tram_stop","tram":"yes","wheelchair":"yes"}},{"type":"node","id":28301373,"lat":50.9442983,"lon":7.0488157,"tags":{"VRS:gemeinde":"KÖLN","VRS:ortsteil":"Merheim","VRS:ref":"18511","name":"Merheim","public_transport":"stop_position","railway":"tram_stop","tram":"yes","wheelchair":"yes"}},{"type":"node","id":28301416,"lat":50.9539719,"lon":7.1164305,"tags":{"VRS:gemeinde":"BERGISCH GLADBACH","VRS:ortsteil":"Refrath","VRS:ref":"31612","name":"Refrath","public_transport":"stop_position","railway":"tram_stop","ref":"1","ref:IFOPT":"de:05378:31612:2:21","tram":"yes","wheelchair":"yes"}},{"type":"node","id":29766820,"lat":50.750959,"lon":7.0466484,"tags":{"VRS:gemeinde":"BONN","VRS:ortsteil":"Tannenbusch","VRS:ref":"64407","light_rail":"yes","local_ref":"1","name":"Tannenbusch Mitte","operator":"SWB","public_transport":"stop_position","railway":"stop","ref":"1","tram":"yes"}},{"type":"node","id":30388742,"lat":50.9747764,"lon":7.0148185,"tags":{"name":"Mülheim Berliner Straße","public_transport":"stop_position","railway":"tram_stop","ref:IFOPT":"de:05315:19713","tram":"yes","wheelchair":"yes"}},{"type":"node","id":31001576,"lat":50.7330461,"lon":7.1033279,"tags":{"VRS:gemeinde":"BONN","VRS:name":"Universität/Markt","VRS:ortsteil":"Innenstadt","VRS:ref":"61110","layer":"-2","level":"-2","light_rail":"yes","local_ref":"2","name":"Universität / Markt","operator":"SWB","public_transport":"stop_position","railway":"stop","ref":"2","tram":"yes","wheelchair":"limited"}},{"type":"node","id":31001719,"lat":50.7298514,"lon":7.1086072,"tags":{"VRS:gemeinde":"BONN","VRS:ortsteil":"Innenstadt","VRS:ref":"61209","light_rail":"yes","local_ref":"1","name":"Juridicum","operator":"SWB","public_transport":"stop_position","railway":"stop","ref":"1","tram":"yes","wheelchair":"no"}},{"type":"node","id":31001721,"lat":50.7257077,"lon":7.1115107,"tags":{"VRS:gemeinde":"BONN","VRS:name":"Bundesrechnungshof/Auswärtiges Amt","VRS:ortsteil":"Innenstadt","VRS:ref":"61208","light_rail":"yes","local_ref":"1","name":"Bundesrechnungshof/Auswärtiges Amt","operator":"SWB","public_transport":"stop_position","railway":"stop","ref":"1","tram":"yes","wheelchair":"no"}},{"type":"node","id":31001880,"lat":50.7219228,"lon":7.1144223,"tags":{"VRS:gemeinde":"BONN","VRS:ortsteil":"Innenstadt","VRS:ref":"61207","light_rail":"yes","local_ref":"1","name":"Museum Koenig","operator":"SWB","public_transport":"stop_position","railway":"stop","ref":"1","tram":"yes","wheelchair":"yes"}},{"type":"node","id":31052760,"lat":50.716819,"lon":7.1204827,"tags":{"VRS:gemeinde":"BONN","VRS:name":"Heussallee/Museumsmeile","VRS:ortsteil":"Gronau","VRS:ref":"62116","light_rail":"yes","local_ref":"1","name":"Heussallee/Museumsmeile","operator":"SWB","public_transport":"stop_position","railway":"stop","ref":"1","tram":"yes","wheelchair":"yes"}},{"type":"node","id":31182163,"lat":50.7933828,"lon":7.2030692,"tags":{"VRS:gemeinde":"SIEGBURG","VRS:name":"Siegburg Bf","VRS:ortsteil":"Mitte","VRS:ref":"55101","layer":"-1","level":"-1","light_rail":"yes","local_ref":"11","name":"Siegburg Bahnhof","name:de":"Siegburg Bahnhof","operator":"SSB","passenger_information_display":"yes","public_transport":"stop_position","railway":"stop","ref":"11","ref_name":"Siegburg Bahnhof, Siegburg","tram":"yes","wheelchair":"yes"}},{"type":"node","id":31260710,"lat":50.7637489,"lon":7.1717841,"tags":{"VRS:gemeinde":"SANKT AUGUSTIN","VRS:ortsteil":"Hangelar","VRS:ref":"55812","light_rail":"yes","local_ref":"A","name":"Hangelar Ost","operator":"SSB","passenger_information_display":"yes","public_transport":"stop_position","railway":"stop","ref":"A","ref:IFOPT":"de:05382:55812:1:12","ref_name":"Hangelar Ost, Sankt Augustin","tram":"yes"}},{"type":"node","id":31261077,"lat":50.7768326,"lon":7.188073,"tags":{"VRS:gemeinde":"SANKT AUGUSTIN","VRS:name":"Sankt Augustin Zentrum/Hochschule Bonn-Rhein-Sieg","VRS:ortsteil":"Mitte","VRS:ref":"55711","light_rail":"yes","local_ref":"A","name":"Sankt Augustin Zentrum/Hochschule Bonn-Rhein-Sieg","operator":"SSB","passenger_information_display":"yes","public_transport":"stop_position","railway":"stop","ref":"A","ref:IFOPT":"de:05382:55711:1:12","ref:ibnr":"443112","tram":"yes","uic_ref":"8070025","wheelchair":"yes"}},{"type":"node","id":31332908,"lat":50.7536803,"lon":7.0081403,"tags":{"VRS:gemeinde":"BORNHEIM","VRS:ortsteil":"Roisdorf","VRS:ref":"53110","light_rail":"yes","name":"Roisdorf West","operator":"HGK","public_transport":"stop_position","railway":"stop","ref:VRS":"53110","tram":"yes"}},{"type":"node","id":31332940,"lat":50.7681341,"lon":6.9509133,"tags":{"VRS:gemeinde":"BORNHEIM","VRS:name":"Waldorf","VRS:ortsteil":"Waldorf","VRS:ref":"53311","name":"Waldorf","public_transport":"stop_position","railway":"stop","ref:VRS":"53311","tram":"yes"}},{"type":"node","id":31332960,"lat":50.801031,"lon":6.9139313,"tags":{"VRS:gemeinde":"BRÜHL","VRS:name":"Schwadorf","VRS:ortsteil":"Schwadorf","VRS:ref":"84711","name":"Schwadorf","operator":"HGK","public_transport":"stop_position","railway":"stop","ref:VRS":"84711","tram":"yes","wheelchair":"yes"}},{"type":"node","id":31332973,"lat":50.8222735,"lon":6.8984513,"tags":{"VRS:gemeinde":"BRÜHL","VRS:name":"Brühl Süd","VRS:ortsteil":"Mitte","VRS:ref":"84111","local_ref":"A","name":"Brühl Süd","public_transport":"stop_position","railway":"stop","ref":"A","ref:VRS":"84111","tram":"yes","wheelchair":"yes","wheelchair:description":"Rampe"}},{"type":"node","id":31332993,"lat":50.8440737,"lon":6.9009926,"tags":{"VRS:gemeinde":"BRÜHL","VRS:ortsteil":"Vochem","VRS:ref":"84611","light_rail":"yes","name":"Brühl-Vochem","operator":"HGK","public_transport":"stop_position","railway":"stop","ref:VRS":"84611","tram":"yes"}},{"type":"node","id":31339549,"lat":50.7571598,"lon":7.0021686,"tags":{"VRS:gemeinde":"BORNHEIM","VRS:ortsteil":"Mitte","VRS:ref":"53111","name":"Bornheim Rathaus","note":"Stadtbahnhaltestelle mit Haupt-tag railway=tram_stop entspr. Diskussionsergebnis der Mailinglisten Köln und Bonn von 6/2018","official_name":"Bornheim Rathaus","operator":"HGK","public_transport":"stop_position","railway":"tram_stop","tram":"yes","wheelchair":"yes","wikidata":"Q63416439"}},{"type":"node","id":31339928,"lat":50.7612431,"lon":6.9895793,"tags":{"VRS:gemeinde":"BORNHEIM","VRS:ortsteil":"Mitte","VRS:ref":"53211","light_rail":"yes","name":"Bornheim","operator":"HGK","public_transport":"stop_position","railway":"stop","tram":"yes","wheelchair":"yes"}},{"type":"node","id":31339932,"lat":50.7647322,"lon":6.9694961,"tags":{"VRS:gemeinde":"BORNHEIM","VRS:ortsteil":"Dersdorf","VRS:ref":"53310","light_rail":"yes","name":"Dersdorf","official_name":"Dersdorf","operator":"HGK","public_transport":"stop_position","railway":"stop","ref":"KDDF","tram":"yes","wheelchair":"no"}},{"type":"node","id":31339933,"lat":50.7798235,"lon":6.9332081,"tags":{"VRS:gemeinde":"BORNHEIM","VRS:ortsteil":"Merten","VRS:ref":"53411","name":"Merten","public_transport":"stop_position","railway":"stop","ref":"B","ref:VRS":"53411","tram":"yes"}},{"type":"node","id":31339934,"lat":50.7942174,"lon":6.9209363,"tags":{"VRS:gemeinde":"BORNHEIM","VRS:ortsteil":"Walberberg","VRS:ref":"53412","light_rail":"yes","name":"Walberberg","operator":"HGK","public_transport":"stop_position","railway":"stop","tram":"yes","wheelchair":"yes"}},{"type":"node","id":31340049,"lat":50.8290631,"lon":6.8990131,"tags":{"VRS:gemeinde":"BRÜHL","VRS:ortsteil":"Mitte","VRS:ref":"84110","local_ref":"2","name":"Brühl Mitte","network":"VRS","network:long":"Verkehrsverbund Rhein-Sieg","public_transport":"stop_position","railway":"stop","ref":"2","ref:VRS":"84110","tram":"yes","wheelchair":"yes"}},{"type":"node","id":31343579,"lat":50.8647017,"lon":6.8975861,"tags":{"VRS:gemeinde":"HÜRTH","VRS:ortsteil":"Fischenich","VRS:ref":"83711","name":"Fischenich","public_transport":"stop_position","railway":"tram_stop","tram":"yes"}},{"type":"node","id":31343889,"lat":50.880358,"lon":6.8945374,"tags":{"VRS:gemeinde":"HÜRTH","VRS:ortsteil":"Hermülheim","VRS:ref":"83911","name":"Hürth-Hermülheim","public_transport":"stop_position","railway":"stop","ref:VRS":"83911","tram":"yes","wheelchair":"yes"}},{"type":"node","id":31346009,"lat":50.9182931,"lon":6.9302451,"tags":{"VRS:gemeinde":"KÖLN","VRS:ortsteil":"Sülz","VRS:ref":"13112","name":"Arnulfstraße","public_transport":"stop_position","railway":"tram_stop","ref:VRS":"13112","tram":"yes","wheelchair":"yes"}},{"type":"node","id":31615763,"lat":50.7391959,"lon":7.0732789,"tags":{"VRS:gemeinde":"BONN","VRS:ortsteil":"Nordstadt","VRS:ref":"61714","light_rail":"yes","name":"Propsthof Nord","operator":"SWB","public_transport":"stop_position","railway":"stop","tram":"yes","wheelchair":"yes"}},{"type":"node","id":31615765,"lat":50.7394383,"lon":7.0733845,"tags":{"VRS:gemeinde":"BONN","VRS:ortsteil":"Nordstadt","VRS:ref":"61714","light_rail":"yes","name":"Propsthof Nord","operator":"SWB","public_transport":"stop_position","railway":"stop","tram":"yes","wheelchair":"yes"}},{"type":"node","id":32179904,"lat":50.9355633,"lon":6.9320661,"tags":{"VRS:gemeinde":"KÖLN","VRS:ortsteil":"Innenstadt","VRS:ref":"11611","name":"Moltkestraße","public_transport":"stop_position","railway":"tram_stop","tram":"yes","website":"https://www.kvb.koeln/haltestellen/overview/28/","wheelchair":"yes","wheelchair:description":"Linien 1 (Bensberg) und 7 (Zündorf), moderne Niederflurfahrzeuge, Linie 1 rechtsrheinisch teilweise als U-Bahn"}},{"type":"node","id":32548775,"lat":50.9366592,"lon":6.9255863,"tags":{"VRS:gemeinde":"KÖLN","VRS:ortsteil":"Lindenthal","VRS:ref":"13011","name":"Universitätsstraße","public_transport":"stop_position","railway":"tram_stop","tram":"yes","website":"https://www.kvb.koeln/haltestellen/overview/143/","wheelchair":"yes","wheelchair:description":"Linien 1 (Weiden-West) und 7 (Frechen), moderne Niederflurfahrzeuge"}},{"type":"node","id":32548777,"lat":50.9366582,"lon":6.9242506,"tags":{"VRS:gemeinde":"KÖLN","VRS:ortsteil":"Lindenthal","VRS:ref":"13011","name":"Universitätsstraße","public_transport":"stop_position","railway":"tram_stop","tram":"yes","website":"https://www.kvb.koeln/haltestellen/overview/143/","wheelchair":"yes","wheelchair:description":"Linien 1 (Bensberg) und 7 (Zündorf), moderne Niederflurfahrzeuge, Linie 1 rechtsrheinisch teilweise als U-Bahn"}},{"type":"node","id":32548788,"lat":50.9365036,"lon":6.9332568,"tags":{"VRS:gemeinde":"KÖLN","VRS:ortsteil":"Innenstadt","VRS:ref":"11611","name":"Moltkestraße","public_transport":"stop_position","railway":"tram_stop","tram":"yes","website":"https://www.kvb.koeln/haltestellen/overview/28/","wheelchair":"yes","wheelchair:description":"alle Infos direkt über den Link erreichbar"}},{"type":"node","id":34960108,"lat":50.9566529,"lon":7.1296294,"tags":{"VRS:gemeinde":"BERGISCH GLADBACH","VRS:ortsteil":"Frankenforst","VRS:ref":"31613","name":"Kippekausen","public_transport":"stop_position","railway":"tram_stop","source":"own knowledge, www.kvb-koeln.de","tram":"yes"}},{"type":"node","id":58694601,"lat":50.7578851,"lon":7.0465104,"tags":{"VRS:gemeinde":"BONN","VRS:ortsteil":"Buschdorf","VRS:ref":"64608","local_ref":"2","name":"Buschdorf","public_transport":"stop_position","railway":"tram_stop","ref":"2","ref:IFOPT":"de:05314:64608:1:12","tram":"yes","wheelchair":"yes"}},{"type":"node","id":58694630,"lat":50.8471216,"lon":6.9783719,"tags":{"VRS:gemeinde":"KÖLN","VRS:name":"Godorf Bf","VRS:ortsteil":"Godorf","VRS:ref":"12911","name":"Godorf","public_transport":"stop_position","railway":"tram_stop","tram":"yes","wheelchair":"yes"}},{"type":"node","id":58694692,"lat":50.9143537,"lon":6.9719086,"tags":{"VRS:gemeinde":"KÖLN","VRS:ortsteil":"Bayenthal","VRS:ref":"12211","name":"Schönhauser Straße","operator":"KVB","public_transport":"stop_position","railway":"tram_stop","tram":"yes","wheelchair":"limited","wheelchair:description":"Die Stufe in die Bahn ist für Elektrorollstühle nicht zu bewältigen und Rampen sind nur in neuen Bahnen vorhanden."}},{"type":"node","id":59608692,"lat":51.2298982,"lon":6.7978446,"tags":{"description":"Wehrhahn S, Gleis 1","level":"0","local_ref":"1","name":"Wehrhahn S","public_transport":"stop_position","railway":"stop","ref":"1","ref:IFOPT":"de:05111:18019:1:1","subway":"yes","wheelchair":"yes"}},{"type":"node","id":59776017,"lat":50.9224034,"lon":6.9654443,"tags":{"VRS:gemeinde":"KÖLN","VRS:ortsteil":"Innenstadt","VRS:ref":"11410","bus":"no","name":"Ubierring","network":"VRS","network:wikidata":"Q896041","operator":"KVB","panoramax":"6eb0a29a-4d0f-4b26-90ce-e54fe950176c","public_transport":"stop_position","railway":"tram_stop","shelter":"yes","source":"survey","train":"no","tram":"yes","website":"https://www.kvb.koeln/qr/17/","wheelchair":"limited"}},{"type":"node","id":59973253,"lat":50.9117003,"lon":6.9232282,"tags":{"VRS:gemeinde":"KÖLN","VRS:ortsteil":"Klettenberg","VRS:ref":"13211","name":"Sülzgürtel","public_transport":"stop_position","railway":"tram_stop","ref:VRS":"13211","shelter":"yes","tram":"yes","wheelchair":"yes"}},{"type":"node","id":59973254,"lat":50.9153406,"lon":6.9270377,"tags":{"VRS:gemeinde":"KÖLN","VRS:ortsteil":"Klettenberg","VRS:ref":"13113","name":"Sülzburgstraße","public_transport":"stop_position","railway":"tram_stop","ref:VRS":"13113","tram":"yes","wheelchair":"yes"}},{"type":"node","id":59973255,"lat":50.9214167,"lon":6.9334147,"tags":{"VRS:gemeinde":"KÖLN","VRS:ortsteil":"Sülz","VRS:ref":"13111","bench":"yes","name":"Weißhausstraße","public_transport":"stop_position","railway":"tram_stop","ref:VRS":"13111","shelter":"yes","tram":"yes","wheelchair":"yes"}},{"type":"node","id":59973256,"lat":50.9246328,"lon":6.9369084,"tags":{"VRS:gemeinde":"KÖLN","VRS:ortsteil":"Innenstadt","VRS:ref":"11514","name":"Eifelwall/Stadtarchiv","old_name":"Eifelwall","public_transport":"stop_position","railway":"tram_stop","ref:VRS":"11514","toilets:wheelchair":"no","tram":"yes","wheelchair":"yes"}},{"type":"node","id":60657803,"lat":50.9258213,"lon":6.9308702,"tags":{"VRS:gemeinde":"KÖLN","VRS:ortsteil":"Sülz","VRS:ref":"13121","bench":"yes","name":"Universität","public_transport":"stop_position","railway":"tram_stop","shelter":"yes","tram":"yes","wheelchair":"yes"}},{"type":"node","id":75476540,"lat":50.9570744,"lon":6.9237039,"tags":{"VRS:gemeinde":"KÖLN","VRS:ortsteil":"Neuehrenfeld","VRS:ref":"14112","departures_board":"timetable","name":"Nußbaumerstraße","passenger_information_display":"yes","public_transport":"stop_position","railway":"tram_stop","ref:IFOPT":"de:05315:14112:1:12","tram":"yes","wheelchair":"no"}},{"type":"node","id":75476577,"lat":50.9548205,"lon":6.9214386,"tags":{"VRS:gemeinde":"KÖLN","VRS:name":"Subbelrather Straße/Gürtel","VRS:ortsteil":"Neuehrenfeld","VRS:ref":"14111","departures_board":"timetable","name":"Subbelrather Straße/Gürtel","passenger_information_display":"yes","public_transport":"stop_position","railway":"tram_stop","ref:IFOPT":"de:05315:14111:1:12","tram":"yes","wheelchair":"no"}},{"type":"node","id":76598858,"lat":50.9504004,"lon":6.9282643,"tags":{"VRS:gemeinde":"KÖLN","VRS:ortsteil":"Ehrenfeld","VRS:ref":"14021","name":"Gutenbergstraße","public_transport":"stop_position","railway":"tram_stop","ref:IFOPT":"de:05315:14021:1:12","tram":"yes","wheelchair":"yes"}},{"type":"node","id":76645863,"lat":50.939288,"lon":6.9104707,"tags":{"VRS:gemeinde":"KÖLN","VRS:name":"Oskar-Jäger-Straße/Gürtel","VRS:ortsteil":"Braunsfeld","VRS:ref":"13421","name":"Melatengürtel","public_transport":"stop_position","railway":"tram_stop","ref":"13","tram":"yes","wheelchair":"no"}},{"type":"node","id":76673418,"lat":50.9367473,"lon":6.9165891,"tags":{"VRS:gemeinde":"KÖLN","VRS:ortsteil":"Lindenthal","VRS:ref":"13012","name":"Melaten","public_transport":"stop_position","railway":"tram_stop","tram":"yes","website":"https://www.kvb.koeln/haltestellen/overview/144/","wheelchair":"yes","wheelchair:description":"volle Barrierefreiheit in beide Fahrtrichtungen. Linien 1 und 7, moderne Niederflurfahrzeuge, Linie 1 rechtsrheinisch teilweise als U-Bahn","wikidata":"Q63434124","wikimedia_commons":"Category:Stadtbahnhaltestelle Melaten"}},{"type":"node","id":78586828,"lat":50.9443823,"lon":6.9587478,"tags":{"bus":"no","local_ref":"2","name":"Breslauer Platz/Hbf","network":"VRS","network:wikidata":"Q896041","operator":"KVB","public_transport":"stop_position","railway":"tram_stop","ref":"2","ref:IFOPT":"de:05315:11212","train":"no","tram":"yes","website":"https://www.kvb.koeln/haltestellen/overview/9/","wheelchair":"yes"}},{"type":"node","id":78586832,"lat":50.9507507,"lon":6.9591608,"tags":{"name":"Ebertplatz","public_transport":"stop_position","railway":"tram_stop","ref:IFOPT":"de:05315:11810","subway":"yes","tram":"yes"}},{"type":"node","id":78586837,"lat":50.9542947,"lon":6.9648739,"tags":{"VRS:gemeinde":"KÖLN","VRS:ortsteil":"Innenstadt","VRS:ref":"11809","bus":"no","level":"-2","name":"Reichenspergerplatz","network":"VRS","network:wikidata":"Q896041","operator":"KVB","public_transport":"stop_position","railway":"tram_stop","ref:IFOPT":"de:05315:11809:1:12","ref:VRS":"11809","tram":"yes","wheelchair":"no"}},{"type":"node","id":78586844,"lat":50.9623376,"lon":6.9808537,"tags":{"VRS:gemeinde":"KÖLN","VRS:ortsteil":"Riehl","VRS:ref":"15112","name":"Boltensternstraße","network":"VRS","network:wikidata":"Q896041","operator":"KVB","public_transport":"stop_position","railway":"tram_stop","ref:IFOPT":"de:05315:15112:1:11","ref:VRS":"15112","tram":"yes","wheelchair":"yes"}},{"type":"node","id":78586851,"lat":50.9658431,"lon":6.9877448,"tags":{"VRS:gemeinde":"KÖLN","VRS:ortsteil":"Riehl","VRS:ref":"15113","name":"Slabystraße","network":"VRS","network:wikidata":"Q896041","operator":"KVB","public_transport":"stop_position","railway":"tram_stop","ref:VRS":"15113","tram":"yes","wheelchair":"no"}},{"type":"node","id":78589377,"lat":50.9578905,"lon":6.9743896,"tags":{"VRS:gemeinde":"KÖLN","VRS:ortsteil":"Riehl","VRS:ref":"15111","bus":"no","name":"Zoo/Flora","network":"VRS","network:wikidata":"Q896041","operator":"KVB","public_transport":"stop_position","railway":"tram_stop","ref:IFOPT":"de:05315:15111:1:11","ref:VRS":"15111","tram":"yes","wheelchair":"yes"}},{"type":"node","id":88306780,"lat":50.9173814,"lon":6.8574841,"tags":{"VRS:gemeinde":"KÖLN","VRS:ortsteil":"Marsdorf","VRS:ref":"13912","name":"Marsdorf","public_transport":"stop_position","railway":"stop","tram":"yes","wheelchair":"yes"}},{"type":"node","id":88870605,"lat":50.9626299,"lon":7.1493227,"tags":{"VRS:gemeinde":"BERGISCH GLADBACH","VRS:ortsteil":"Bensberg","VRS:ref":"31513","name":"Kölner Straße","public_transport":"stop_position","railway":"tram_stop","tram":"yes","wheelchair":"yes"}},{"type":"node","id":93433443,"lat":50.9693293,"lon":6.8729366,"tags":{"VRS:gemeinde":"KÖLN","VRS:ortsteil":"Bocklemünd","VRS:ref":"14611","local_ref":"1","name":"Bocklemünd","public_transport":"stop_position","railway":"tram_stop","ref":"1","ref:IFOPT":"de:05315:14611:1:14","tram":"yes"}},{"type":"node","id":93433508,"lat":50.9716411,"lon":6.8701662,"tags":{"VRS:gemeinde":"KÖLN","VRS:ortsteil":"Bocklemünd","VRS:ref":"14612","name":"Schaffrathsgasse","public_transport":"stop_position","railway":"tram_stop","source":"survey","tram":"yes"}},{"type":"node","id":99353660,"lat":50.7306165,"lon":7.1320214,"tags":{"VRS:gemeinde":"BONN","VRS:ortsteil":"Limperich","VRS:ref":"65515","name":"Limperich Nord","passenger_information_display":"yes","public_transport":"stop_position","railway":"tram_stop","tram":"yes","wheelchair":"yes"}},{"type":"node","id":137097060,"lat":50.9433311,"lon":6.9333536,"tags":{"VRS:gemeinde":"KÖLN","VRS:name":"Hans-Böckler-Platz/Bf West","VRS:ortsteil":"Innenstadt","VRS:ref":"11701","name":"Hans-Böckler-Platz/Bf West","public_transport":"stop_position","railway":"tram_stop","ref":"1","source":"knowledge","subway":"yes","tram":"yes","wheelchair":"yes","wikipedia":"de:Bahnhof Köln West#Stadtbahn-Haltestelle Hans-Böckler-Platz/Bf. West"}},{"type":"node","id":143456912,"lat":50.9327791,"lon":6.9763895,"tags":{"name":"Suevenstraße","public_transport":"stop_position","railway":"tram_stop","tram":"yes","wheelchair":"yes"}},{"type":"node","id":143456925,"lat":50.9391145,"lon":6.9784821,"tags":{"local_ref":"3","name":"Bahnhof Deutz / LANXESS arena","public_transport":"stop_position","railway":"tram_stop","ref":"3","tram":"yes","wheelchair":"yes"}},{"type":"node","id":143456955,"lat":50.9485307,"lon":6.9933,"tags":{"name":"Stegerwaldsiedlung","public_transport":"stop_position","railway":"tram_stop","tram":"yes","wheelchair":"yes"}},{"type":"node","id":143456974,"lat":50.9557298,"lon":7.0004154,"tags":{"name":"Grünstraße","operator":"KVB","public_transport":"stop_position","railway":"tram_stop","ref:IFOPT":"de:05315:19012","tram":"yes","wheelchair":"yes"}},{"type":"node","id":143457010,"lat":50.9662447,"lon":7.0068162,"tags":{"name":"Keupstraße","public_transport":"stop_position","railway":"tram_stop","ref:IFOPT":"de:05315:19711","tram":"yes","wheelchair":"yes"}},{"type":"node","id":143457031,"lat":50.9704585,"lon":7.0114166,"tags":{"name":"Von-Sparr-Straße","operator":"KVB","public_transport":"stop_position","railway":"tram_stop","ref:IFOPT":"de:05315:19712","tram":"yes","wikidata":"Q63434970"}},{"type":"node","id":143467770,"lat":50.9807953,"lon":7.0228703,"tags":{"name":"Im Weidenbruch","public_transport":"stop_position","railway":"tram_stop","ref:IFOPT":"de:05315:19612","tram":"yes","wheelchair":"yes"}},{"type":"node","id":143467786,"lat":50.9894428,"lon":7.0302835,"tags":{"name":"Am Emberg","public_transport":"stop_position","railway":"tram_stop","ref:IFOPT":"de:05315:19613","tram":"yes","wheelchair":"yes"}},{"type":"node","id":143467801,"lat":50.9961229,"lon":7.0374346,"tags":{"VRS:gemeinde":"KÖLN","VRS:ortsteil":"Dünnwald","VRS:ref":"19614","name":"Leuchterstraße","public_transport":"stop_position","railway":"tram_stop","ref":"2","ref:IFOPT":"de:05315:19614","tram":"yes","wheelchair":"yes"}},{"type":"node","id":143467802,"lat":50.9967882,"lon":7.037826,"tags":{"name":"Leuchterstraße","public_transport":"stop_position","railway":"tram_stop","ref":"1","ref:IFOPT":"de:05315:19614","tram":"yes","wheelchair":"yes"}},{"type":"node","id":143467812,"lat":51.0009933,"lon":7.0419446,"tags":{"name":"Odenthaler Straße","public_transport":"stop_position","railway":"tram_stop","ref:IFOPT":"de:05315:19615","tram":"yes","wheelchair":"yes"}},{"type":"node","id":143467828,"lat":51.0185216,"lon":7.0444875,"tags":{"name":"Schlebusch","public_transport":"stop_position","railway":"tram_stop","ref:IFOPT":"de:05316:23111","source":"survey","tram":"yes","wheelchair":"yes"}},{"type":"node","id":143480680,"lat":50.9709703,"lon":6.9690379,"tags":{"VRS:gemeinde":"KÖLN","VRS:name":"Amsterdamer Straße/Gürtel","VRS:ortsteil":"Riehl","VRS:ref":"15121","bus":"no","local_ref":"4","name":"Amsterdamer Straße/Gürtel","network":"VRS","network:wikidata":"Q896041","operator":"KVB","public_transport":"stop_position","railway":"tram_stop","ref":"4","ref:IFOPT":"de:05315:15121:1:14","route_ref":"16","train":"no","tram":"yes","wheelchair":"limited"}},{"type":"node","id":143480702,"lat":50.9723273,"lon":6.9513491,"tags":{"VRS:gemeinde":"KÖLN","VRS:name":"Neusser Straße/Gürtel","VRS:ortsteil":"Nippes","VRS:ref":"15011","local_ref":"2","name":"Neusser Straße/Gürtel","public_transport":"stop_position","railway":"tram_stop","ref":"2","ref:IFOPT":"de:05315:15011:1:12","tram":"yes","wheelchair":"no"}},{"type":"node","id":143480723,"lat":50.9683999,"lon":6.940602,"tags":{"VRS:gemeinde":"KÖLN","VRS:name":"Geldernstraße/Parkgürtel","VRS:ortsteil":"Bilderstöckchen","VRS:ref":"15201","name":"Geldernstraße/Parkgürtel","public_transport":"stop_position","railway":"tram_stop","ref:IFOPT":"de:05315:15201:1:11","tram":"yes","wheelchair":"no"}},{"type":"node","id":157329991,"lat":50.9482893,"lon":6.9202445,"tags":{"VRS:gemeinde":"KÖLN","VRS:ortsteil":"Ehrenfeld","VRS:ref":"14012","name":"Körnerstraße","public_transport":"stop_position","railway":"tram_stop","source":"survey","tram":"yes","wheelchair":"yes"}},{"type":"node","id":157330124,"lat":50.9459304,"lon":6.9258803,"tags":{"VRS:gemeinde":"KÖLN","VRS:ortsteil":"Ehrenfeld","VRS:ref":"14011","alt_name":"Piusstr.","name":"Piusstraße","public_transport":"stop_position","railway":"tram_stop","source":"survey","tram":"yes","wheelchair":"yes"}},{"type":"node","id":163074242,"lat":50.9357423,"lon":6.9402089,"tags":{"VRS:gemeinde":"KÖLN","VRS:ortsteil":"Innenstadt","VRS:ref":"11610","local_ref":"4","name":"Rudolfplatz","public_transport":"stop_position","railway":"tram_stop","ref":"4","tram":"yes","website":"https://www.kvb.koeln/haltestellen/overview/27/","wheelchair":"yes","wheelchair:description":"Linien 1 (Bensberg) und 7 (Zündorf), moderne Niederflurfahrzeuge, Linie 1 rechtsrheinisch teilweise als U-Bahn, Barrierefreier Umstieg auf die Linien 12 und 15 möglich (Aufzug) sowie die Busse 136 und 146"}},{"type":"node","id":164788302,"lat":51.2000471,"lon":6.7894208,"tags":{"VRS:gemeinde":"DÜSSELDORF","VRS:ortsteil":"Mitte","VRS:ref":"318236","description":"Uni-Kliniken, Gleis 1","local_ref":"1","name":"Uni-Kliniken","public_transport":"stop_position","railway":"stop","ref":"1","ref:IFOPT":"de:05111:18269:1:1","ref_name":"Uni Kliniken, Düsseldorf","subway":"yes","tram":"yes"}},{"type":"node","id":205307116,"lat":50.8848648,"lon":7.0591507,"tags":{"VRS:gemeinde":"KÖLN","VRS:ortsteil":"Porz","VRS:ref":"17311","construction:railway":"tram_stop","disused:public_transport":"stop_position","disused:railway":"tram_stop","name":"Porz Markt","ref:IFOPT":"de:05315:17311:1:11","tram":"yes","wheelchair":"yes"}},{"type":"node","id":207160370,"lat":50.9372011,"lon":6.8995299,"tags":{"VRS:gemeinde":"KÖLN","VRS:ortsteil":"Braunsfeld","VRS:ref":"13412","name":"Maarweg","public_transport":"stop_position","railway":"tram_stop","ref":"1","tram":"yes","website":"https://www.kvb.koeln/haltestellen/overview/179/","wheelchair":"yes","wheelchair:description":"alle Infos direkt über den Link erreichbar"}},{"type":"node","id":207511337,"lat":50.9374453,"lon":6.8895515,"tags":{"VRS:gemeinde":"KÖLN","VRS:ortsteil":"Braunsfeld","VRS:ref":"13414","name":"Eupener Straße","public_transport":"stop_position","railway":"tram_stop","tram":"yes","website":"https://www.kvb.koeln/haltestellen/overview/181/","wheelchair":"yes","wheelchair:description":"alle Infos direkt über den Link erreichbar"}},{"type":"node","id":207511340,"lat":50.9372956,"lon":6.8944312,"tags":{"VRS:gemeinde":"KÖLN","VRS:ortsteil":"Braunsfeld","VRS:ref":"13413","name":"Clarenbachstift","public_transport":"stop_position","railway":"tram_stop","ref":"1","tram":"yes","website":"https://www.kvb.koeln/haltestellen/overview/180/","wheelchair":"yes","wheelchair:description":"alle Infos direkt über den Link erreichbar"}},{"type":"node","id":220641181,"lat":50.965174,"lon":6.8844277,"tags":{"VRS:gemeinde":"KÖLN","VRS:ortsteil":"Vogelsang","VRS:ref":"14511","name":"Wolffsohnstraße","public_transport":"stop_position","railway":"tram_stop","tram":"yes","wheelchair":"yes"}},{"type":"node","id":241872940,"lat":50.9447138,"lon":6.9127666,"tags":{"VRS:gemeinde":"KÖLN","VRS:name":"Weinsbergstraße/Gürtel","VRS:ortsteil":"Ehrenfeld","VRS:ref":"14221","name":"Weinsbergstraße/Gürtel","public_transport":"stop_position","railway":"tram_stop","ref:IFOPT":"de:05315:14221:1:11","shelter":"yes","tram":"yes","wheelchair":"no"}},{"type":"node","id":244055560,"lat":50.9758625,"lon":6.8711293,"tags":{"VRS:gemeinde":"KÖLN","VRS:ortsteil":"Bocklemünd","VRS:ref":"14671","name":"Ollenhauerring","public_transport":"stop_position","railway":"tram_stop","source":"survey","tram":"yes"}},{"type":"node","id":246422911,"lat":50.9397631,"lon":6.9780113,"tags":{"VRS:gemeinde":"KÖLN","VRS:name":"Bf Deutz/Messe LANXESS arena","VRS:ortsteil":"Deutz","VRS:ref":"11901","name":"Bf Deutz/Messe","operator":"KVB","public_transport":"stop_position","railway":"tram_stop","tram":"yes","website":"https://www.kvb.koeln/haltestellen/overview/49/","wheelchair":"no"}},{"type":"node","id":246422944,"lat":50.9367847,"lon":6.9852599,"tags":{"local_ref":"1","name":"Deutz Technische Hochschule","note":"Name bis 2012-12-08: Deutz-Kalker-Bad / Fachhochschule","note_2":"Name bis 2015-12-13: Deutz Fachhochschule","old_name":"Deutz-Kalker-Bad / Fachhochschule","public_transport":"stop_position","railway":"tram_stop","ref":"1","subway":"yes","tram":"yes","wheelchair":"no"}},{"type":"node","id":247386381,"lat":51.0118652,"lon":6.9554354,"tags":{"VRS:gemeinde":"KÖLN","VRS:ortsteil":"Niehl","VRS:ref":"15713","bus":"no","name":"Fordwerke Mitte","network":"VRS","operator":"KVB","public_transport":"stop_position","railway":"tram_stop","source":"survey","train":"no","tram":"yes","wheelchair":"yes"}},{"type":"node","id":247386383,"lat":51.0058546,"lon":6.9554356,"tags":{"VRS:gemeinde":"KÖLN","VRS:ortsteil":"Niehl","VRS:ref":"15712","bus":"no","name":"Fordwerke Süd","network":"VRS","operator":"KVB","public_transport":"stop_position","railway":"tram_stop","source":"survey","train":"no","tram":"yes","wheelchair":"yes"}},{"type":"node","id":247409835,"lat":51.1704349,"lon":6.8398318,"tags":{"local_ref":"2","name":"Niederheid","public_transport":"stop_position","railway":"stop","ref":"2","ref:IFOPT":"de:05111:18265:1:2","source":"survey","subway":"yes","wheelchair":"no"}},{"type":"node","id":247409837,"lat":51.165973,"lon":6.8471501,"tags":{"local_ref":"1","name":"Am Trippelsberg","public_transport":"stop_position","railway":"tram_stop","ref:IFOPT":"de:05111:18289:0:1","subway":"yes","tram":"yes"}},{"type":"node","id":247488699,"lat":50.8741957,"lon":7.0600489,"tags":{"VRS:gemeinde":"KÖLN","VRS:ortsteil":"Zündorf","VRS:ref":"17614","image":"https://osm.memg.eu/PorzRosenhuegel.jpg","name":"Rosenhügel","public_transport":"stop_position","railway":"tram_stop","ref:IFOPT":"de:05315:17614:1:11","tram":"yes","wheelchair":"yes"}},{"type":"node","id":247488756,"lat":50.8996474,"lon":7.0303646,"tags":{"VRS:gemeinde":"KÖLN","VRS:name":"Ensen Gilgaustraße","VRS:ortsteil":"Ensen","VRS:ref":"17113","name":"Gilgaustraße","public_transport":"stop_position","railway":"tram_stop","tram":"yes","wheelchair":"yes","wheelchair:description":"Großer Abstand zwischen Bahnsteig und Bahn"}},{"type":"node","id":247488766,"lat":50.9065386,"lon":7.0149883,"tags":{"VRS:gemeinde":"KÖLN","VRS:name":"Westhoven Kölner Straße","VRS:ortsteil":"Westhoven","VRS:ref":"17111","name":"Westhoven, Kölner Straße","public_transport":"stop_position","railway":"tram_stop","tram":"yes","wheelchair":"no","wikidata":"Q63441161"}},{"type":"node","id":249126057,"lat":51.2702488,"lon":6.8304009,"tags":{"light_rail":"yes","local_ref":"1","name":"Hirschweg","public_transport":"stop_position","railway":"stop","ref:IFOPT":"de:05111:18061:0:1","subway":"yes","wheelchair":"yes"}},{"type":"node","id":249460094,"lat":50.9011739,"lon":7.0260044,"tags":{"VRS:gemeinde":"KÖLN","VRS:ortsteil":"Westhoven","VRS:ref":"17112","name":"Westhoven Berliner Straße","public_transport":"stop_position","railway":"tram_stop","tram":"yes","wheelchair":"yes"}},{"type":"node","id":254380330,"lat":50.9289895,"lon":6.9421704,"tags":{"VRS:gemeinde":"KÖLN","VRS:ortsteil":"Innenstadt","VRS:ref":"11511","bus":"no","name":"Barbarossaplatz","network":"VRS","network:wikidata":"Q896041","note":"Linien VRS 12, VRS 15","operator":"KVB","public_transport":"stop_position","railway":"tram_stop","ref:VRS":"11511","train":"no","tram":"yes","website":"https://www.kvb.koeln/haltestellen/overview/23/","wheelchair":"yes"}},{"type":"node","id":254380440,"lat":50.9266439,"lon":6.945806,"tags":{"VRS:gemeinde":"KÖLN","VRS:ortsteil":"Innenstadt","VRS:ref":"11510","name":"Eifelstraße","network":"VRS","network:wikidata":"Q896041","operator":"KVB","public_transport":"stop_position","railway":"tram_stop","ref:VRS":"11510","train":"no","tram":"yes","wheelchair":"limited"}},{"type":"node","id":254380578,"lat":50.9241416,"lon":6.9518203,"tags":{"VRS:gemeinde":"KÖLN","VRS:ortsteil":"Innenstadt","VRS:ref":"11412","bus":"no","name":"Ulrepforte","network":"VRS","network:wikidata":"Q896041","operator":"KVB","public_transport":"stop_position","railway":"tram_stop","train":"no","tram":"yes","wheelchair":"limited","wikimedia_commons":"Category:Stadtbahnhaltestelle Ulfreporte"}},{"type":"node","id":254899511,"lat":50.9041668,"lon":6.7973826,"tags":{"VRS:gemeinde":"FRECHEN","VRS:name":"Frechen-Benzelrath","VRS:ortsteil":"Benzelrath","VRS:ref":"82409","light_rail":"yes","name":"Frechen-Benzelrath","operator":"KVB AG","public_transport":"stop_position","railway":"tram_stop","ref:AST":"Be 2","tram":"yes","wheelchair":"yes"}},{"type":"node","id":255559792,"lat":50.9379486,"lon":6.8553815,"tags":{"VRS:gemeinde":"KÖLN","VRS:ortsteil":"Junkersdorf","VRS:ref":"13706","name":"Mohnweg","public_transport":"stop_position","railway":"tram_stop","ref":"1","tram":"yes","website":"https://www.kvb.koeln/haltestellen/overview/142/","wheelchair":"yes","wheelchair:description":"alle Infos direkt über den Link erreichbar"}},{"type":"node","id":255559795,"lat":50.9381268,"lon":6.8449927,"tags":{"VRS:gemeinde":"KÖLN","VRS:ortsteil":"Weiden","VRS:ref":"13707","alt_name":"Bahnstr.","name":"Bahnstraße","public_transport":"stop_position","railway":"tram_stop","tram":"yes","website":"https://www.kvb.koeln/haltestellen/overview/830/","wheelchair":"yes","wheelchair:description":"alle Infos direkt über den Link erreichbar"}},{"type":"node","id":255562063,"lat":50.9369858,"lon":6.909415,"tags":{"VRS:gemeinde":"KÖLN","VRS:name":"Aachener Straße/Gürtel","VRS:ortsteil":"Braunsfeld","VRS:ref":"13411","local_ref":"2","name":"Aachener Straße/Gürtel","public_transport":"stop_position","railway":"tram_stop","ref":"2","tram":"yes","website":"https://www.kvb.koeln/haltestellen/overview/178/","wheelchair":"yes","wheelchair:description":"Linien 1 (Weiden-West) und 7 (Frechen), moderne Niederflurfahrzeuge"}},{"type":"node","id":255562064,"lat":50.937035,"lon":6.9073403,"tags":{"VRS:gemeinde":"KÖLN","VRS:name":"Aachener Straße/Gürtel","VRS:ortsteil":"Braunsfeld","VRS:ref":"13411","local_ref":"1","name":"Aachener Straße/Gürtel","public_transport":"stop_position","railway":"tram_stop","ref":"1","tram":"yes","website":"https://www.kvb.koeln/haltestellen/overview/178/","wheelchair":"yes","wheelchair:description":"Linien 1 (Bensberg), moderne Niederflurfahrzeuge, Linie 1 rechtsrheinisch teilweise als U-Bahn"}},{"type":"node","id":255562065,"lat":50.9375124,"lon":6.9086882,"tags":{"VRS:gemeinde":"KÖLN","VRS:name":"Aachener Straße/Gürtel","VRS:ortsteil":"Braunsfeld","VRS:ref":"13411","local_ref":"3","name":"Aachener Straße/Gürtel","public_transport":"stop_position","railway":"tram_stop","ref":"3","tram":"yes","website":"https://www.kvb.koeln/haltestellen/overview/178/","wheelchair":"limited","wheelchair:description":"Linie 13 (Sülzgürtel) Hochflurfahrzeuge mit Stufen, nicht Barrierefrei, Einzelne Fahrten der Linie 7 (Niederflur=Barrierefrei)"}},{"type":"node","id":255562066,"lat":50.9365656,"lon":6.9084156,"tags":{"VRS:gemeinde":"KÖLN","VRS:name":"Aachener Straße/Gürtel","VRS:ortsteil":"Braunsfeld","VRS:ref":"13411","local_ref":"4","name":"Aachener Straße/Gürtel","public_transport":"stop_position","railway":"tram_stop","ref":"4","tram":"yes","website":"https://www.kvb.koeln/haltestellen/overview/178/","wheelchair":"limited","wheelchair:description":"Linie 7 (Zündorf), Barrierefrei, moderne Niederflurfahrzeuge, Linie 13 (Holweide), Hochflurfahrzeuge mit Stufen, nicht Barrierefrei"}},{"type":"node","id":255562068,"lat":50.9284084,"lon":6.9086543,"tags":{"VRS:gemeinde":"KÖLN","VRS:name":"Dürener Straße/Gürtel","VRS:ortsteil":"Lindenthal","VRS:ref":"13311","name":"Dürener Straße/Gürtel","public_transport":"stop_position","railway":"tram_stop","tram":"yes","wheelchair":"limited"}},{"type":"node","id":255728750,"lat":50.9198772,"lon":7.0963231,"tags":{"VRS:gemeinde":"KÖLN","VRS:ortsteil":"Rath/Heumar","VRS:ref":"18715","name":"Königsforst","public_transport":"stop_position","railway":"tram_stop","tram":"yes","wheelchair":"yes"}},{"type":"node","id":255728834,"lat":50.920312,"lon":7.0898979,"tags":{"FIXME":"check name","VRS:gemeinde":"KÖLN","VRS:ortsteil":"Rath/Heumar","VRS:ref":"18714","name":"Röttgensweg","public_transport":"stop_position","railway":"tram_stop","tram":"yes","wheelchair":"yes"}},{"type":"node","id":255728934,"lat":50.9204933,"lon":7.0802789,"tags":{"VRS:gemeinde":"KÖLN","VRS:ortsteil":"Rath/Heumar","VRS:ref":"18713","name":"Rath/Heumar","public_transport":"stop_position","railway":"tram_stop","ref:IFOPT":"de:05315:18713","tram":"yes","wheelchair":"yes"}},{"type":"node","id":256328486,"lat":51.1970595,"lon":6.7961732,"tags":{"local_ref":"2","name":"Universität Nord / Christophstraße","network":"Verkehrsverbund-Rhein Ruhr","operator":"Rheinbahn","public_transport":"stop_position","railway":"stop","ref":"2","ref:IFOPT":"de:05111:18099:0:2","ref_name":"Christophstraße, Düsseldorf","subway":"yes","tram":"yes","wheelchair":"yes"}},{"type":"node","id":256328491,"lat":51.1879637,"lon":6.8184161,"tags":{"local_ref":"1","name":"Opladener Straße","public_transport":"stop_position","railway":"stop","ref:IFOPT":"de:05111:18091:0:1","subway":"yes"}},{"type":"node","id":256328607,"lat":51.1845402,"lon":6.8207647,"tags":{"local_ref":"2","name":"Ickerswarder Straße","public_transport":"stop_position","railway":"stop","ref":"2","ref:IFOPT":"de:05111:18267:0:2","subway":"yes"}},{"type":"node","id":256329614,"lat":51.1794404,"lon":6.8275132,"tags":{"local_ref":"2","name":"Elbruchstraße","public_transport":"stop_position","railway":"stop","ref":"2","ref:IFOPT":"de:05111:18090:0:2","subway":"yes"}},{"type":"node","id":256329632,"lat":51.1751699,"lon":6.8330753,"tags":{"local_ref":"3","name":"Holthausen","public_transport":"stop_position","railway":"stop","ref":"3","ref:IFOPT":"de:05111:18266:4:3","ref_name":"Holthausen, Düsseldorf","subway":"yes"}},{"type":"node","id":256332108,"lat":51.1622377,"lon":6.8597257,"tags":{"local_ref":"1","name":"Kappeler Straße","public_transport":"stop_position","railway":"tram_stop","ref":"1","ref:IFOPT":"de:05111:18087:0:1","ref:ibnr":"653633","subway":"yes","wheelchair":"no"}},{"type":"node","id":256332118,"lat":51.1620964,"lon":6.8750215,"tags":{"description":"Urdenbacher Allee, Gleis 1","local_ref":"1","name":"Urdenbacher Allee","public_transport":"stop_position","railway":"tram_stop","ref":"1","ref:IFOPT":"de:05111:18264:0:1","ref:ibnr":"653882","subway":"yes","tram":"yes"}},{"type":"node","id":256332125,"lat":51.1615444,"lon":6.8776177,"tags":{"local_ref":"1","name":"Benrath S","network":"VRR","network:short":"VRR","network:wikidata":"Q448199","public_transport":"stop_position","railway":"stop","ref":"1","ref:IFOPT":"de:05111:18263:1:1","subway":"yes"}},{"type":"node","id":256432872,"lat":50.9644974,"lon":6.9536917,"tags":{"VRS:gemeinde":"KÖLN","VRS:ortsteil":"Nippes","VRS:ref":"15012","name":"Florastraße","network":"VRS","network:wikidata":"Q896041","operator":"KVB","public_transport":"stop_position","railway":"tram_stop","ref":"12, 15","ref:IFOPT":"de:05315:15012:1:12","subway":"yes","tram":"yes","wheelchair":"yes"}},{"type":"node","id":256572334,"lat":50.8920881,"lon":7.05572,"tags":{"VRS:gemeinde":"KÖLN","VRS:name":"Porz Steinstraße","VRS:ortsteil":"Porz","VRS:ref":"17310","name":"Steinstraße","public_transport":"stop_position","railway":"tram_stop","ref:IFOPT":"de:05315:17310:1:11","tram":"yes","wheelchair":"yes"}},{"type":"node","id":256572343,"lat":50.9290138,"lon":6.9431358,"tags":{"VRS:gemeinde":"KÖLN","VRS:ortsteil":"Innenstadt","VRS:ref":"11511","bus":"no","name":"Barbarossaplatz","network":"VRS","network:wikidata":"Q896041","operator":"KVB","public_transport":"stop_position","railway":"tram_stop","ref:VRS":"11511","train":"no","tram":"yes","website":"https://www.kvb.koeln/haltestellen/overview/23/","wheelchair":"no"}},{"type":"node","id":257750524,"lat":51.0241759,"lon":6.9534122,"tags":{"VRS:gemeinde":"KÖLN","VRS:ortsteil":"Merkenich","VRS:ref":"16510","bus":"no","name":"Merkenich Mitte","network":"VRS","network:wikidata":"Q896041","operator":"KVB","public_transport":"stop_position","railway":"tram_stop","ref:IFOPT":"de:05315:16510:1:11","train":"no","tram":"yes","wheelchair":"yes"}},{"type":"node","id":258068652,"lat":50.957902,"lon":7.0251618,"tags":{"VRS:gemeinde":"KÖLN","VRS:ortsteil":"Buchheim","VRS:ref":"19312","name":"Buchheim Herler Straße","public_transport":"stop_position","railway":"tram_stop","ref":"1","tram":"yes","wheelchair":"yes"}},{"type":"node","id":259615507,"lat":50.9171438,"lon":6.907249,"tags":{"VRS:gemeinde":"KÖLN","VRS:ortsteil":"Sülz","VRS:ref":"13217","name":"Sülz Hermeskeiler Platz","network":"VRS","network:wikidata":"Q896041","operator":"KVB","public_transport":"stop_position","railway":"tram_stop","ref:VRS":"13217","route_ref":"9","tram":"yes","wheelchair":"yes"}},{"type":"node","id":259624280,"lat":50.9570271,"lon":7.0125111,"tags":{"VRS:gemeinde":"KÖLN","VRS:name":"Bf Mülheim","VRS:ortsteil":"Mülheim","VRS:ref":"19201","local_ref":"8","name":"Bahnhof Mülheim","public_transport":"stop_position","railway":"tram_stop","ref":"8","tram":"yes","wheelchair":"limited"}},{"type":"node","id":264121210,"lat":51.011997,"lon":6.9067136,"tags":{"VRS:gemeinde":"KÖLN","VRS:ortsteil":"Heimersdorf","VRS:ref":"16110","bus":"no","local_ref":"2","name":"Heimersdorf","network":"VRS","network:wikidata":"Q896041","operator":"KVB","public_transport":"stop_position","railway":"tram_stop","ref":"2","ref:IFOPT":"de:05315:16110:1:12","train":"no","tram":"yes","wheelchair":"yes"}},{"type":"node","id":264138769,"lat":50.9952206,"lon":6.9200078,"tags":{"VRS:gemeinde":"KÖLN","VRS:ortsteil":"Longerich","VRS:ref":"15510","name":"Meerfeldstraße","network":"VRS","network:wikidata":"Q896041","operator":"KVB","public_transport":"stop_position","railway":"tram_stop","ref:IFOPT":"de:05315:15510:1:12","source":"survey","train":"no","tram":"yes","wheelchair":"yes"}},{"type":"node","id":264139218,"lat":50.9940061,"lon":6.9325851,"tags":{"VRS:gemeinde":"KÖLN","VRS:ortsteil":"Longerich","VRS:ref":"15612","name":"Altonaer Platz","network":"VRS","network:wikidata":"Q896041","operator":"KVB","public_transport":"stop_position","railway":"tram_stop","ref:IFOPT":"de:05315:15612:1:12","source":"survey","tactile_paving":"no","train":"no","tram":"yes","wheelchair":"yes"}},{"type":"node","id":264139231,"lat":50.991878,"lon":6.9412229,"tags":{"VRS:gemeinde":"KÖLN","VRS:ortsteil":"Longerich","VRS:ref":"15611","bus":"no","name":"Wilhelm-Sollmann-Straße","network":"VRS","network:wikidata":"Q896041","operator":"KVB","public_transport":"stop_position","railway":"tram_stop","ref:IFOPT":"de:05315:15611:1:12","train":"no","tram":"yes","wheelchair":"yes"}},{"type":"node","id":264139586,"lat":50.9955165,"lon":6.9554996,"tags":{"VRS:gemeinde":"KÖLN","VRS:ortsteil":"Niehl","VRS:ref":"15411","bus":"no","name":"Niehl Nord","network":"VRS","network:wikidata":"Q896041","operator":"KVB","public_transport":"stop_position","railway":"tram_stop","ref:IFOPT":"de:05315:15411:1:11","train":"no","tram":"yes","wheelchair":"limited"}},{"type":"node","id":264139588,"lat":51.0020835,"lon":6.9553475,"tags":{"VRS:gemeinde":"KÖLN","VRS:ortsteil":"Niehl","VRS:ref":"15711","bus":"no","name":"Geestemünder Straße","network":"VRS","network:wikidata":"Q896041","operator":"KVB","public_transport":"stop_position","railway":"tram_stop","ref:IFOPT":"de:05315:15711:1:11","train":"no","tram":"yes","wheelchair":"yes"}},{"type":"node","id":264373944,"lat":50.9518637,"lon":6.9250247,"tags":{"VRS:gemeinde":"KÖLN","VRS:ortsteil":"Ehrenfeld","VRS:ref":"14022","name":"Liebigstraße","public_transport":"stop_position","railway":"tram_stop","ref:IFOPT":"de:05315:14022:1:11","tram":"yes","wheelchair":"yes"}},{"type":"node","id":265730463,"lat":50.9165296,"lon":6.9414078,"tags":{"VRS:gemeinde":"KÖLN","VRS:ortsteil":"Zollstock","VRS:ref":"12011","name":"Pohligstraße","operator":"KVB","public_transport":"stop_position","railway":"tram_stop","tram":"yes","website":"https://www.kvb.koeln/haltestellen/overview/52/","wheelchair":"yes"}},{"type":"node","id":265776555,"lat":50.9612036,"lon":7.0308944,"tags":{"VRS:gemeinde":"KÖLN","VRS:ortsteil":"Buchheim","VRS:ref":"19313","name":"Wichheimer Straße","public_transport":"stop_position","railway":"tram_stop","ref:IFOPT":"de:05315:19313","tram":"yes","wheelchair":"yes"}},{"type":"node","id":265778202,"lat":50.9668503,"lon":7.0389928,"tags":{"VRS:gemeinde":"KÖLN","VRS:name":"Holweide Vischeringstraße","VRS:ortsteil":"Holweide","VRS:ref":"19411","alt_name":"Holweide Vischeringstr.","name":"Vischeringstraße","public_transport":"stop_position","railway":"tram_stop","ref:IFOPT":"de:05315:19411","tram":"yes","wheelchair":"yes"}},{"type":"node","id":265778206,"lat":50.9678511,"lon":7.0447525,"tags":{"VRS:gemeinde":"KÖLN","VRS:ortsteil":"Holweide","VRS:ref":"19412","name":"Maria-Himmelfahrt-Straße","public_transport":"stop_position","railway":"tram_stop","ref:IFOPT":"de:05315:19412","tram":"yes","wheelchair":"yes"}},{"type":"node","id":266221718,"lat":51.1923445,"lon":6.8139617,"tags":{"description":"Werstener Dorfstraße, Bahnsteig 4","local_ref":"4","name":"Werstener Dorfstraße","public_transport":"stop_position","railway":"stop","ref":"4","ref:IFOPT":"de:05111:18268:3:4","subway":"yes"}},{"type":"node","id":267148291,"lat":50.7275487,"lon":7.1421775,"tags":{"VRS:gemeinde":"BONN","VRS:ortsteil":"Limperich","VRS:ref":"65517","name":"Küdinghoven","passenger_information_display":"yes","public_transport":"stop_position","railway":"tram_stop","tactile_paving":"no","tram":"yes","wheelchair":"limited"}},{"type":"node","id":267149014,"lat":50.7256834,"lon":7.1466763,"tags":{"name":"Schießbergweg","passenger_information_display":"yes","public_transport":"stop_position","railway":"tram_stop","ref:IFOPT":"de:05314:68717","shelter":"yes","tactile_paving":"yes","tram":"yes","wheelchair":"yes"}},{"type":"node","id":267173204,"lat":51.281811,"lon":6.8362137,"tags":{"light_rail":"yes","local_ref":"1","name":"Ratingen, Felderhof","public_transport":"stop_position","railway":"stop","ref:IFOPT":"de:05158:18059:0:1","shelter":"yes","subway":"yes","wheelchair":"yes"}},{"type":"node","id":267173279,"lat":51.2907066,"lon":6.8398378,"tags":{"light_rail":"yes","local_ref":"1","name":"Europaring","public_transport":"stop_position","railway":"stop","ref:IFOPT":"de:05158:19848:1:1","subway":"yes","wheelchair":"yes"}},{"type":"node","id":269596945,"lat":50.9633371,"lon":6.9685102,"tags":{"VRS:gemeinde":"KÖLN","VRS:ortsteil":"Riehl","VRS:ref":"15120","name":"Kinderkrankenhaus","network":"VRS","network:wikidata":"Q896041","operator":"KVB","public_transport":"stop_position","railway":"tram_stop","ref:IFOPT":"de:05315:15120:1:11","train":"no","tram":"yes","wheelchair":"yes"}},{"type":"node","id":273948471,"lat":50.9849854,"lon":6.9617944,"tags":{"VRS:gemeinde":"KÖLN","VRS:ortsteil":"Niehl","VRS:ref":"15413","local_ref":"1","name":"Niehl Sebastianstraße","network":"VRS","network:wikidata":"Q896041","operator":"KVB","public_transport":"stop_position","railway":"tram_stop","ref:IFOPT":"de:05315:15413:1:11","train":"no","tram":"yes","wheelchair":"yes"}},{"type":"node","id":275577633,"lat":50.8971474,"lon":7.0472214,"tags":{"VRS:gemeinde":"KÖLN","VRS:ortsteil":"Ensen","VRS:ref":"17114","name":"Ensen Kloster","public_transport":"stop_position","railway":"tram_stop","tram":"yes","wheelchair":"yes"}},{"type":"node","id":276278176,"lat":50.977073,"lon":6.9689305,"tags":{"VRS:gemeinde":"KÖLN","VRS:ortsteil":"Niehl","VRS:ref":"15414","name":"Nesselrodestraße","network":"VRS","network:wikidata":"Q896041","operator":"KVB","public_transport":"stop_position","railway":"tram_stop","ref:IFOPT":"de:05315:15414:1:12","train":"no","tram":"yes","wheelchair":"yes"}},{"type":"node","id":276471891,"lat":51.0180001,"lon":6.9554717,"tags":{"VRS:gemeinde":"KÖLN","VRS:ortsteil":"Niehl","VRS:ref":"15714","name":"Fordwerke Nord","network":"VRS","operator":"KVB","public_transport":"stop_position","railway":"tram_stop","source":"survey","tram":"yes"}},{"type":"node","id":276476385,"lat":51.0280841,"lon":6.9481637,"tags":{"VRS:gemeinde":"KÖLN","VRS:ortsteil":"Merkenich","VRS:ref":"16511","bus":"no","description":"Endhaltestelle","name":"Merkenich","network":"VRS","operator":"KVB","public_transport":"stop_position","railway":"tram_stop","ref:IFOPT":"de:05315:16511:1:11","shelter":"yes","train":"no","tram":"yes","wheelchair":"yes"}},{"type":"node","id":277248722,"lat":51.2947674,"lon":6.8465963,"tags":{"light_rail":"yes","local_ref":"1","name":"Ratingen Mitte","public_transport":"stop_position","railway":"stop","ref":"1","subway":"yes","wheelchair":"yes"}},{"type":"node","id":277821646,"lat":50.9694045,"lon":7.0550172,"tags":{"VRS:gemeinde":"KÖLN","VRS:ortsteil":"Holweide","VRS:ref":"19413","name":"Neufelder Straße/Krankenhaus Holweide","public_transport":"stop_position","railway":"tram_stop","ref:IFOPT":"de:05315:19413","tram":"yes","wheelchair":"yes"}},{"type":"node","id":277845364,"lat":50.9717522,"lon":7.0644217,"tags":{"VRS:gemeinde":"KÖLN","VRS:ortsteil":"Dellbrück","VRS:ref":"19510","name":"Dellbrück Mauspfad","public_transport":"stop_position","railway":"tram_stop","ref:IFOPT":"de:05315:19510","tram":"yes","wheelchair":"yes"}},{"type":"node","id":282505473,"lat":50.7700069,"lon":7.1799985,"tags":{"VRS:gemeinde":"SANKT AUGUSTIN","VRS:ortsteil":"Mitte","VRS:ref":"55709","light_rail":"yes","name":"Sankt Augustin Ort","operator":"SSB","public_transport":"stop_position","railway":"stop","ref:IFOPT":"de:05382:55709:1:12","tram":"yes"}},{"type":"node","id":288143177,"lat":50.9308338,"lon":6.9721654,"tags":{"VRS:gemeinde":"KÖLN","VRS:ortsteil":"Deutz","VRS:ref":"11916","name":"Severinsbrücke","public_transport":"stop_position","railway":"tram_stop","tram":"yes","wheelchair":"yes"}},{"type":"node","id":288561032,"lat":50.9632088,"lon":7.1424377,"tags":{"VRS:gemeinde":"BERGISCH GLADBACH","VRS:ortsteil":"Lückerath","VRS:ref":"31514","name":"Neuenweg","public_transport":"stop_position","railway":"tram_stop","tram":"yes","wheelchair":"yes"}},{"type":"node","id":288561132,"lat":50.9630455,"lon":7.1563986,"tags":{"VRS:gemeinde":"BERGISCH GLADBACH","VRS:ortsteil":"Bensberg","VRS:ref":"31512","name":"Im Hoppenkamp","public_transport":"stop_position","railway":"tram_stop","tram":"yes","wheelchair":"yes"}},{"type":"node","id":288797402,"lat":51.2733883,"lon":6.8337146,"tags":{"light_rail":"yes","local_ref":"1","name":"Düsseldorf-Hubertushain","public_transport":"stop_position","railway":"stop","ref:IFOPT":"de:05111:18060:0:1","subway":"yes","wheelchair":"yes"}},{"type":"node","id":289402007,"lat":51.2134231,"lon":6.7753531,"tags":{"local_ref":"1","name":"Kirchplatz","public_transport":"stop_position","railway":"stop","ref":"1","ref:IFOPT":"de:05111:18250:2:1","subway":"yes"}},{"type":"node","id":289402600,"lat":51.2255983,"lon":6.777973,"tags":{"local_ref":"5","name":"Heinrich-Heine-Allee","network":"VRR","note":"Rheinbahn Netzumstellung 2016","opening_date":"2016-02-21","operator":"Rheinbahn AG","public_transport":"stop_position","railway":"stop","ref":"5","ref:IFOPT":"de:05111:18036:4:5","subway":"yes"}},{"type":"node","id":289403282,"lat":51.2266732,"lon":6.7837494,"tags":{"layer":"-2","level":"-3","local_ref":"1","name":"Schadowstraße","note":"Rheinbahn Netzumstellung 2016","opening_date":"2016-02-21","public_transport":"stop_position","railway":"stop","railway:ref":"Sco","ref":"1","ref:IFOPT":"de:05111:18230:1:1","subway":"yes"}},{"type":"node","id":289751411,"lat":50.9487089,"lon":6.9513881,"tags":{"VRS:gemeinde":"KÖLN","VRS:ortsteil":"Innenstadt","VRS:ref":"11801","layer":"-2","name":"Hansaring","public_transport":"stop_position","railway":"tram_stop","ref":"1","subway":"yes","tram":"yes","wheelchair":"yes"}},{"type":"node","id":290353007,"lat":51.2317667,"lon":6.8082769,"tags":{"local_ref":"2","name":"Düsseldorf Lindemannstraße","public_transport":"stop_position","railway":"tram_stop","ref":"2","ref:IFOPT":"de:05111:18225:2:2","subway":"yes","tram":"yes"}},{"type":"node","id":290354405,"lat":51.2320574,"lon":6.8093801,"tags":{"local_ref":"1","name":"Düsseldorf Lindemannstraße","public_transport":"stop_position","railway":"tram_stop","ref":"1","ref:IFOPT":"de:05111:18225:1:1","subway":"yes","tram":"yes"}},{"type":"node","id":290354406,"lat":51.2332182,"lon":6.8142798,"tags":{"local_ref":"1","name":"Düsseldorf Engerstraße","public_transport":"stop_position","railway":"tram_stop","ref":"1","ref:IFOPT":"de:05111:18224:1:1","subway":"yes","tram":"yes","wheelchair":"no"}},{"type":"node","id":291553775,"lat":50.9674253,"lon":6.8784654,"tags":{"VRS:gemeinde":"KÖLN","VRS:ortsteil":"Vogelsang","VRS:ref":"14512","name":"Westfriedhof","public_transport":"stop_position","railway":"tram_stop","tram":"yes","wheelchair":"yes"}},{"type":"node","id":292667909,"lat":50.6843395,"lon":7.1579869,"tags":{"VRS:gemeinde":"BONN","VRS:name":"Bad Godesberg Bf","VRS:ortsteil":"Bad Godesberg","VRS:ref":"66101","layer":"-2","light_rail":"yes","local_ref":"U2","name":"Bad Godesberg Bahnhof","operator":"SWB","public_transport":"stop_position","railway":"stop","ref":"U2","tram":"yes","wheelchair":"yes"}},{"type":"node","id":293163167,"lat":50.7018243,"lon":7.1364231,"tags":{"VRS:gemeinde":"BONN","VRS:name":"Max-Löbner-Straße/Friesdorf","VRS:ortsteil":"Friesdorf","VRS:ref":"66606","light_rail":"yes","local_ref":"B","name":"Max-Löbner-Straße","operator":"SWB","public_transport":"stop_position","railway":"stop","ref":"B","ref:IFOPT":"de:05314:66606:1:12","tram":"yes","wheelchair":"yes"}},{"type":"node","id":293702018,"lat":50.6964155,"lon":7.1417932,"tags":{"VRS:gemeinde":"BONN","VRS:name":"Hochkreuz/Deutsches Museum Bonn","VRS:ortsteil":"Plittersdorf","VRS:ref":"66707","light_rail":"yes","local_ref":"B","name":"Hochkreuz / Deutsches Museum Bonn","network":"VRS","network:long":"Verkehrsverbund Rhein-Sieg","operator":"SWB","public_transport":"stop_position","railway":"stop","ref":"B","tram":"yes","wheelchair":"yes"}},{"type":"node","id":293704285,"lat":50.7329267,"lon":7.0960932,"tags":{"VRS:gemeinde":"BONN","VRS:ortsteil":"Innenstadt","VRS:ref":"61101","layer":"-2","level":"-2","light_rail":"yes","local_ref":"U4a","name":"Bonn Hauptbahnhof","operator":"SWB","public_transport":"stop_position","railway":"stop","ref":"U4a","ref:VRS":"61101","tram":"yes","wheelchair":"yes"}},{"type":"node","id":294098844,"lat":50.6803717,"lon":7.1582962,"tags":{"VRS:gemeinde":"BONN","VRS:name":"Bad Godesberg Stadthalle","VRS:ortsteil":"Bad Godesberg","VRS:ref":"66206","layer":"-2","light_rail":"yes","name":"Stadthalle","operator":"SWB","public_transport":"stop_position","railway":"stop","tram":"yes","wheelchair":"yes"}},{"type":"node","id":295098522,"lat":50.6879281,"lon":7.1535079,"tags":{"VRS:gemeinde":"BONN","VRS:ortsteil":"Bad Godesberg","VRS:ref":"66109","light_rail":"yes","name":"Plittersdorfer Straße","operator":"SWB","public_transport":"stop_position","railway":"stop","tram":"yes","wheelchair":"yes"}},{"type":"node","id":295098721,"lat":50.6918714,"lon":7.1475236,"tags":{"VRS:gemeinde":"BONN","VRS:ortsteil":"Plittersdorf","VRS:ref":"66708","local_ref":"2","name":"Wurzerstraße","public_transport":"stop_position","railway":"stop","ref":"2","tram":"yes","wheelchair":"yes"}},{"type":"node","id":296969652,"lat":50.7165,"lon":7.1080372,"tags":{"VRS:gemeinde":"BONN","VRS:ortsteil":"Kessenich","VRS:ref":"62225","local_ref":"A","name":"Eduard-Otto-Straße","public_transport":"stop_position","railway":"tram_stop","ref":"A","ref_name":"Bonn-Kessenich Eduard-Otto-Straße","tram":"yes","wheelchair":"yes"}},{"type":"node","id":300378088,"lat":50.9055476,"lon":6.9420089,"tags":{"VRS:gemeinde":"KÖLN","VRS:ortsteil":"Zollstock","VRS:ref":"12015","name":"Zollstockgürtel","operator":"KVB","public_transport":"stop_position","railway":"tram_stop","tram":"yes","wheelchair":"yes"}},{"type":"node","id":300378090,"lat":50.9101135,"lon":6.9414002,"tags":{"VRS:gemeinde":"KÖLN","VRS:ortsteil":"Zollstock","VRS:ref":"12013","name":"Gottesweg","operator":"KVB","public_transport":"stop_position","railway":"tram_stop","tram":"yes","website":"https://www.kvb.koeln/haltestellen/overview/54/","wheelchair":"yes"}},{"type":"node","id":300378092,"lat":50.9315868,"lon":6.9405549,"tags":{"VRS:gemeinde":"KÖLN","VRS:ortsteil":"Innenstadt","VRS:ref":"11512","name":"Zülpicher Platz","network":"VRS","network:wikidata":"Q896041","operator":"KVB","public_transport":"stop_position","railway":"tram_stop","train":"no","tram":"yes","wheelchair":"yes"}},{"type":"node","id":300403947,"lat":50.9316732,"lon":6.9500139,"tags":{"VRS:gemeinde":"KÖLN","VRS:ortsteil":"Innenstadt","VRS:ref":"11112","level":"-2","name":"Poststraße","network":"VRS","network:wikidata":"Q896041","operator":"KVB","public_transport":"stop_position","railway":"tram_stop","ref:VRS":"11112","train":"no","tram":"yes","wheelchair":"yes"}},{"type":"node","id":300403950,"lat":50.9349658,"lon":6.9492917,"tags":{"VRS:gemeinde":"KÖLN","VRS:ortsteil":"Innenstadt","VRS:ref":"11111","level":"-2","local_ref":"2","name":"Neumarkt","network":"VRS","network:wikidata":"Q896041","operator":"KVB","public_transport":"stop_position","railway":"tram_stop","ref":"2","tram":"yes","wheelchair":"yes"}},{"type":"node","id":300423694,"lat":50.7739725,"lon":7.1851582,"tags":{"VRS:gemeinde":"SANKT AUGUSTIN","VRS:ortsteil":"Mitte","VRS:ref":"55710","light_rail":"yes","name":"Sankt Augustin Kloster","operator":"SSB","public_transport":"stop_position","railway":"stop","ref:IFOPT":"de:05382:55710:1:12","tram":"yes"}},{"type":"node","id":300514892,"lat":50.940426,"lon":6.8160495,"tags":{"VRS:gemeinde":"KÖLN","VRS:ortsteil":"Weiden","VRS:ref":"13702","name":"Weiden West","public_transport":"stop_position","railway":"tram_stop","ref":"1","tram":"yes","website":"https://www.kvb.koeln/haltestellen/overview/702/","wheelchair":"yes","wheelchair:description":"alle Infos direkt über den Link erreichbar"}},{"type":"node","id":302263139,"lat":51.2282133,"lon":6.7908031,"tags":{"local_ref":"1","name":"Pempelforter Straße","public_transport":"stop_position","railway":"stop","ref":"1","ref:IFOPT":"de:05111:18227:1:1","subway":"yes"}},{"type":"node","id":302264335,"lat":51.2226917,"lon":6.7755872,"tags":{"local_ref":"1","name":"Benrather Straße U","public_transport":"stop_position","railway":"stop","railway:ref":"Bes","ref":"1","ref:IFOPT":"de:05111:18287:1:1","subway":"yes"}},{"type":"node","id":302264727,"lat":51.2182642,"lon":6.7754326,"tags":{"local_ref":"1","name":"Graf-Adolf-Platz","name:etymology:wikidata":"Q92234","name:etymology:wikipedia":"de:Adolf V. (Berg)","public_transport":"stop_position","railway":"stop","ref:IFOPT":"de:05111:18243:1:1","subway":"yes"}},{"type":"node","id":304080570,"lat":51.2661006,"lon":6.8272771,"tags":{"light_rail":"yes","local_ref":"1","name":"Oberrath","public_transport":"stop_position","railway":"stop","ref":"1","ref:IFOPT":"de:05111:18062:0:1","subway":"yes","wheelchair":"yes"}},{"type":"node","id":310877824,"lat":50.9375112,"lon":6.9979813,"tags":{"VRS:gemeinde":"KÖLN","VRS:ortsteil":"Kalk","VRS:ref":"18010","name":"Kalk Post","public_transport":"stop_position","railway":"tram_stop","subway":"yes","tram":"yes","wheelchair":"yes"}},{"type":"node","id":310877834,"lat":50.941603,"lon":7.0224947,"tags":{"VRS:gemeinde":"KÖLN","VRS:ortsteil":"Höhenberg","VRS:ref":"18110","description":"Fuldaer Straße, Gleis 1","layer":"-2","level":"-1","local_ref":"1","name":"Fuldaer Straße","public_transport":"stop_position","railway":"tram_stop","ref":"1","tram":"yes","wheelchair":"no"}},{"type":"node","id":310877836,"lat":50.93882,"lon":7.0080992,"tags":{"VRS:gemeinde":"KÖLN","VRS:ortsteil":"Kalk","VRS:ref":"18011","description":"Kalk Kapelle, Gleis 1","layer":"-2","level":"-2","name":"Kalk Kapelle","public_transport":"stop_position","railway":"tram_stop","ref":"1","subway":"yes","tram":"yes","wheelchair":"yes"}},{"type":"node","id":310877837,"lat":50.941749,"lon":7.029233,"tags":{"VRS:gemeinde":"KÖLN","VRS:ortsteil":"Höhenberg","VRS:ref":"18111","description":"Höhenberg, Frankfurter Straße, Stadtbahn 1 Stop Richtung Kalker Friedhof","layer":"-1","level":"-1","name":"Sportpark Höhenberg","old_name":"Höhenberg Frankfurter Straße","public_transport":"stop_position","railway":"tram_stop","tram":"yes","wheelchair":"yes"}},{"type":"node","id":310877848,"lat":50.9327954,"lon":7.0216602,"tags":{"VRS:gemeinde":"KÖLN","VRS:ortsteil":"Vingst","VRS:ref":"18211","level":"-1","name":"Vingst","public_transport":"stop_position","railway":"tram_stop","ref:IFOPT":"de:05315:18211","tram":"yes"}},{"type":"node","id":318266429,"lat":50.9856523,"lon":6.9463363,"tags":{"VRS:gemeinde":"KÖLN","VRS:ortsteil":"Weidenpesch","VRS:ref":"15312","name":"Scheibenstraße","network":"VRS","operator":"KVB","public_transport":"stop_position","railway":"tram_stop","ref:IFOPT":"de:05315:15312:1:12","train":"no","tram":"yes","wheelchair":"yes"}},{"type":"node","id":348148542,"lat":51.2931165,"lon":6.8422881,"tags":{"light_rail":"yes","name":"Weststraße","public_transport":"stop_position","railway":"stop","ref:IFOPT":"de:05158:18214:1:1","subway":"yes","wheelchair":"yes"}},{"type":"node","id":357581296,"lat":50.9291537,"lon":6.9571867,"tags":{"layer":"-2","local_ref":"2","name":"Severinstraße","public_transport":"stop_position","railway":"tram_stop","ref":"2","tram":"yes"}},{"type":"node","id":358543620,"lat":50.9127519,"lon":6.9231066,"tags":{"VRS:gemeinde":"KÖLN","VRS:ortsteil":"Klettenberg","VRS:ref":"13211","name":"Sülzgürtel","public_transport":"stop_position","railway":"tram_stop","ref:VRS":"13211","tram":"yes","wheelchair":"yes"}},{"type":"node","id":358545902,"lat":50.9145452,"lon":6.9205205,"tags":{"VRS:gemeinde":"KÖLN","VRS:name":"Berrenrather Straße/Gürtel","VRS:ortsteil":"Sülz","VRS:ref":"13213","name":"Berrenrather Straße/Gürtel","public_transport":"stop_position","railway":"tram_stop","tram":"yes","wheelchair":"no"}},{"type":"node","id":358547766,"lat":50.9163909,"lon":6.9178808,"tags":{"VRS:gemeinde":"KÖLN","VRS:ortsteil":"Sülz","VRS:ref":"13214","name":"Euskirchener Straße","public_transport":"stop_position","railway":"tram_stop","tram":"yes","wheelchair":"no"}},{"type":"node","id":358550216,"lat":50.917324,"lon":6.9168891,"tags":{"VRS:gemeinde":"KÖLN","VRS:ortsteil":"Sülz","VRS:ref":"13214","name":"Euskirchener Straße","public_transport":"stop_position","railway":"tram_stop","tram":"yes","wheelchair":"no"}},{"type":"node","id":358819604,"lat":50.9191118,"lon":6.9102157,"tags":{"VRS:gemeinde":"KÖLN","VRS:ortsteil":"Sülz","VRS:ref":"13216","name":"Mommsenstraße","network":"VRS","network:wikidata":"Q896041","operator":"KVB","public_transport":"stop_position","railway":"tram_stop","ref:VRS":"13216","route_ref":"9","tram":"yes","wheelchair":"yes"}},{"type":"node","id":358827355,"lat":50.920809,"lon":6.9148952,"tags":{"VRS:gemeinde":"KÖLN","VRS:name":"Zülpicher Straße/Gürtel","VRS:ortsteil":"Sülz","VRS:ref":"13215","name":"Zülpicher Straße/Gürtel","network":"VRS","network:wikidata":"Q896041","operator":"KVB","public_transport":"stop_position","railway":"tram_stop","tram":"yes","wheelchair":"no"}},{"type":"node","id":358834410,"lat":50.919742,"lon":6.915645,"tags":{"VRS:gemeinde":"KÖLN","VRS:name":"Zülpicher Straße/Gürtel","VRS:ortsteil":"Sülz","VRS:ref":"13215","name":"Zülpicher Straße/Gürtel","network":"VRS","network:wikidata":"Q896041","operator":"KVB","public_transport":"stop_position","railway":"tram_stop","tram":"yes","wheelchair":"no"}},{"type":"node","id":360682400,"lat":50.9307864,"lon":6.9080714,"tags":{"VRS:gemeinde":"KÖLN","VRS:ortsteil":"Lindenthal","VRS:ref":"13310","name":"Wüllnerstraße","public_transport":"stop_position","railway":"tram_stop","tram":"yes","wheelchair":"no"}},{"type":"node","id":364851131,"lat":51.2549065,"lon":6.8223601,"tags":{"light_rail":"yes","local_ref":"1","name":"Rather Broich","public_transport":"stop_position","railway":"stop","ref":"1","ref:IFOPT":"de:05111:18215:1:1","subway":"yes","wheelchair":"yes"}},{"type":"node","id":364851132,"lat":51.2513777,"lon":6.8221994,"tags":{"light_rail":"yes","local_ref":"1","name":"Mörsenbroicher Weg","public_transport":"stop_position","railway":"stop","ref:IFOPT":"de:05111:18216:0:1","subway":"yes","wheelchair":"yes"}},{"type":"node","id":365181812,"lat":51.2634205,"lon":6.8253872,"tags":{"light_rail":"yes","local_ref":"1","name":"Rather Waldstadion","public_transport":"stop_position","railway":"stop","ref:IFOPT":"de:05111:18063:0:1","subway":"yes","wheelchair":"yes"}},{"type":"node","id":365182441,"lat":51.2878027,"lon":6.8400501,"tags":{"light_rail":"yes","local_ref":"1","name":"Gerhardstraße","public_transport":"stop_position","railway":"stop","ref:IFOPT":"de:05158:18058:0:1","shelter":"yes","subway":"yes","wheelchair":"yes"}},{"type":"node","id":370584190,"lat":50.7057589,"lon":7.132303,"tags":{"VRS:gemeinde":"BONN","VRS:name":"Deutsche Telekom/Olof-Palme-Allee","VRS:ortsteil":"Gronau","VRS:ref":"62114","light_rail":"yes","name":"Olof-Palme-Allee","network":"VRS","old_name":"Deutsche Telekom / Olof-Palme-Allee;Olof-Palme-Allee / Platz der Vereinten Nationen","operator":"SWB","public_transport":"stop_position","railway":"stop","tram":"yes","wheelchair":"yes"}},{"type":"node","id":382012848,"lat":50.9357735,"lon":6.9477532,"tags":{"VRS:gemeinde":"KÖLN","VRS:ortsteil":"Innenstadt","VRS:ref":"11111","local_ref":"3","name":"Neumarkt","public_transport":"stop_position","railway":"tram_stop","ref":"3","ref:VRS":"11111","tram":"yes","wheelchair":"yes"}},{"type":"node","id":392951650,"lat":50.9241855,"lon":6.9119106,"tags":{"VRS:gemeinde":"KÖLN","VRS:name":"Gleueler Straße/Gürtel","VRS:ortsteil":"Lindenthal","VRS:ref":"13321","name":"Gleueler Straße/Gürtel","public_transport":"stop_position","railway":"tram_stop","tram":"yes","wheelchair":"no"}},{"type":"node","id":393402276,"lat":50.995613,"lon":6.9113075,"tags":{"VRS:gemeinde":"KÖLN","VRS:ortsteil":"Longerich","VRS:ref":"15512","bus":"no","name":"Longerich Friedhof","network":"VRS","network:wikidata":"Q896041","operator":"KVB","public_transport":"stop_position","railway":"tram_stop","train":"no","tram":"yes","wikidata":"Q63442133"}},{"type":"node","id":393403340,"lat":50.9960114,"lon":6.9149313,"tags":{"VRS:gemeinde":"KÖLN","VRS:ortsteil":"Longerich","VRS:ref":"15511","bus":"no","name":"Longericher Straße","network":"VRS","network:wikidata":"Q896041","operator":"KVB","public_transport":"stop_position","railway":"tram_stop","ref:IFOPT":"de:05315:15511:1:12","train":"no","tram":"yes","wheelchair":"yes"}},{"type":"node","id":401890836,"lat":51.2332342,"lon":6.8141154,"tags":{"bench":"yes","bin":"yes","bus":"yes","check_date:shelter":"2026-05-05","highway":"bus_stop","lit":"yes","local_ref":"1","name":"Düsseldorf Engerstraße","network":"VRR","network:wikidata":"Q448199","public_transport":"platform","ref":"1","ref:IFOPT":"de:05111:18224:1:1","shelter":"yes","tactile_paving":"no"}},{"type":"node","id":424052409,"lat":50.9448607,"lon":6.9425609,"tags":{"VRS:gemeinde":"KÖLN","VRS:name":"Christophstraße/Mediapark","VRS:ortsteil":"Innenstadt","VRS:ref":"11712","layer":"-2","level":"-1","name":"Christophstraße/Mediapark","outdoor_seating":"no","public_transport":"stop_position","railway":"tram_stop","subway":"yes","tram":"yes","wheelchair":"yes"}},{"type":"node","id":445070887,"lat":50.964584,"lon":6.9337666,"tags":{"VRS:gemeinde":"KÖLN","VRS:ortsteil":"Bilderstöckchen","VRS:ref":"15222","name":"Escher Straße","public_transport":"stop_position","railway":"tram_stop","ref:IFOPT":"de:05315:15222:1:11","tram":"yes","wheelchair":"no"}},{"type":"node","id":470616058,"lat":50.9435032,"lon":6.9820005,"tags":{"name":"Koelnmesse","public_transport":"stop_position","railway":"tram_stop","tram":"yes","wheelchair":"yes","wikidata":"Q63434987","wikimedia_commons":"Category:Stadtbahnhaltestelle Koelnmesse","wikipedia":"en:Koelnmesse station"}},{"type":"node","id":475518448,"lat":50.9581367,"lon":6.9552899,"tags":{"VRS:gemeinde":"KÖLN","VRS:ortsteil":"Nippes","VRS:ref":"15013","level":"-2","name":"Lohsestraße","network":"VRS","network:wikidata":"Q896041","operator":"KVB","public_transport":"stop_position","railway":"tram_stop","ref:IFOPT":"de:05315:15013:1:11","subway":"yes","train":"no","tram":"yes","wheelchair":"no"}},{"type":"node","id":477842683,"lat":51.1609073,"lon":6.8848449,"tags":{"local_ref":"2","name":"Benrath Betriebshof","public_transport":"stop_position","railway":"stop","ref":"2","ref:IFOPT":"de:05111:18262:0:2","shelter":"yes","source":"survey","subway":"yes"}},{"type":"node","id":482749484,"lat":50.9781979,"lon":6.9487993,"tags":{"VRS:gemeinde":"KÖLN","VRS:ortsteil":"Weidenpesch","VRS:ref":"15311","name":"Mollwitzstraße","network":"VRS","network:wikidata":"Q896041","operator":"KVB","public_transport":"stop_position","railway":"tram_stop","ref:IFOPT":"de:05315:15311:1:12","train":"no","tram":"yes","wheelchair":"yes"}},{"type":"node","id":497051695,"lat":50.9674504,"lon":6.9880969,"tags":{"VRS:gemeinde":"KÖLN","VRS:ortsteil":"Riehl","VRS:ref":"15113","name":"Slabystraße","network":"VRS","network:wikidata":"Q896041","operator":"Senina stanica","public_transport":"stop_position","railway":"tram_stop","tram":"yes","wheelchair":"no"}},{"type":"node","id":505829740,"lat":50.921293,"lon":6.9606099,"tags":{"VRS:gemeinde":"KÖLN","VRS:ortsteil":"Innenstadt","VRS:ref":"11411","local_ref":"3","name":"Chlodwigplatz","network":"VRS","network:wikidata":"Q896041","operator":"KVB","panoramax":"9b67b1b5-458d-4f5a-88b2-697facb73d88","public_transport":"stop_position","railway":"tram_stop","ref":"3","tram":"yes","wheelchair":"limited","wheelchair:description":"Tram line 15 easily accessible, tram line 16 not","wikimedia_commons":"File:KVB Chlodwigplatz.jpg"}},{"type":"node","id":524126976,"lat":50.7097397,"lon":7.1743069,"tags":{"VRS:gemeinde":"BONN","VRS:name":"Oberkassel Süd/Römlinghoven","VRS:ortsteil":"Oberkassel","VRS:ref":"68810","name":"Oberkassel Süd / Römlinghoven","passenger_information_display":"yes","public_transport":"stop_position","railway":"tram_stop","shelter":"yes","tram":"yes","wheelchair":"no"}},{"type":"node","id":534903451,"lat":51.0015173,"lon":7.0427089,"tags":{"name":"Odenthaler Straße","public_transport":"stop_position","railway":"tram_stop","ref:IFOPT":"de:05315:19615","tram":"yes","wheelchair":"yes"}},{"type":"node","id":540994807,"lat":50.7379673,"lon":7.0566041,"tags":{"VRS:gemeinde":"BONN","VRS:ortsteil":"Dransdorf","VRS:ref":"64209","name":"Robert-Kirchhoff-Straße","public_transport":"stop_position","railway":"stop","tram":"yes"}},{"type":"node","id":594778342,"lat":50.9094342,"lon":6.806148,"tags":{"VRS:gemeinde":"FRECHEN","VRS:ortsteil":"Mitte","VRS:ref":"82411","name":"Frechen Rathaus","public_transport":"stop_position","railway":"tram_stop","ref:VRS":"82411","tram":"yes","wheelchair":"yes","wikidata":"Q63434908"}},{"type":"node","id":594780829,"lat":50.9115661,"lon":6.8233597,"tags":{"VRS:gemeinde":"FRECHEN","VRS:name":"Frechen Bf","VRS:ortsteil":"Mitte","VRS:ref":"82413","light_rail":"yes","name":"Frechen Bahnhof","public_transport":"stop_position","railway":"tram_stop","tram":"yes","wheelchair":"yes"}},{"type":"node","id":597716086,"lat":50.9009366,"lon":6.9444717,"tags":{"VRS:gemeinde":"KÖLN","VRS:name":"Zollstock Südfriedhof","VRS:ortsteil":"Zollstock","VRS:ref":"12016","name":"Zollstock Südfriedhof","network":"VRS","network:wikidata":"Q896041","operator":"KVB","public_transport":"stop_position","railway":"tram_stop","tram":"yes","wheelchair":"yes"}},{"type":"node","id":598172861,"lat":50.9438491,"lon":7.0473429,"tags":{"VRS:gemeinde":"KÖLN","VRS:ortsteil":"Merheim","VRS:ref":"18511","name":"Merheim","public_transport":"stop_position","railway":"tram_stop","tram":"yes","wheelchair":"yes"}},{"type":"node","id":602246548,"lat":50.7509587,"lon":7.046521,"tags":{"VRS:gemeinde":"BONN","VRS:ortsteil":"Tannenbusch","VRS:ref":"64407","light_rail":"yes","local_ref":"2","name":"Tannenbusch Mitte","operator":"SWB","public_transport":"stop_position","railway":"stop","ref":"2","tram":"yes"}},{"type":"node","id":605463644,"lat":50.9383279,"lon":6.8352454,"tags":{"VRS:gemeinde":"KÖLN","VRS:ortsteil":"Weiden","VRS:ref":"13708","local_ref":"2","name":"Weiden Zentrum","official_name":"Weiden Zentrum","public_transport":"stop_position","railway":"tram_stop","ref:IFOPT":"de:05315:13708:1:12","tram":"yes","website":"https://www.kvb.koeln/haltestellen/overview/261/","wheelchair":"yes","wheelchair:description":"alle Infos direkt über den Link erreichbar"}},{"type":"node","id":605463645,"lat":50.9384025,"lon":6.828639,"tags":{"VRS:gemeinde":"KÖLN","VRS:ortsteil":"Weiden","VRS:ref":"13709","name":"Weiden Römergrab","old_name":"Weiden Schulstraße","public_transport":"stop_position","railway":"tram_stop","ref":"1","tram":"yes","website":"https://www.kvb.koeln/haltestellen/overview/241/","wheelchair":"yes","wheelchair:description":"alle Infos direkt über den Link erreichbar","wikidata":"Q15994248","wikimedia_commons":"Category:Stadtbahnhaltestelle Weiden Römergrab","wikipedia":"en:Weiden Römergrab station"}},{"type":"node","id":605463652,"lat":50.9376585,"lon":6.8689984,"tags":{"VRS:gemeinde":"KÖLN","VRS:ortsteil":"Junkersdorf","VRS:ref":"13611","name":"Junkersdorf","public_transport":"stop_position","railway":"tram_stop","ref":"1","tram":"yes","website":"https://www.kvb.koeln/haltestellen/overview/200/","wheelchair":"yes","wheelchair:description":"alle Infos direkt über den Link erreichbar"}},{"type":"node","id":605463656,"lat":50.9377051,"lon":6.8814755,"tags":{"VRS:gemeinde":"KÖLN","VRS:ortsteil":"Müngersdorf","VRS:ref":"13511","name":"Alter Militärring","public_transport":"stop_position","railway":"tram_stop","ref":"1","tram":"yes","website":"https://www.kvb.koeln/haltestellen/overview/186/","wheelchair":"yes","wheelchair:description":"alle Infos direkt über den Link erreichbar"}},{"type":"node","id":620032639,"lat":50.7403684,"lon":7.0694915,"tags":{"VRS:gemeinde":"BONN","VRS:ortsteil":"Innenstadt","VRS:ref":"61713","name":"Brühler Straße","public_transport":"stop_position","railway":"stop","tram":"yes","wheelchair":"yes"}},{"type":"node","id":629041709,"lat":50.7402507,"lon":7.0695017,"tags":{"VRS:gemeinde":"BONN","VRS:ortsteil":"Innenstadt","VRS:ref":"61713","name":"Brühler Straße","public_transport":"stop_position","railway":"stop","tram":"yes","wheelchair":"yes"}},{"type":"node","id":629045124,"lat":50.738036,"lon":7.0565892,"tags":{"VRS:gemeinde":"BONN","VRS:ortsteil":"Dransdorf","VRS:ref":"64209","name":"Robert-Kirchhoff-Straße","public_transport":"stop_position","railway":"stop","tram":"yes"}},{"type":"node","id":632737909,"lat":50.9774784,"lon":6.8982931,"tags":{"VRS:gemeinde":"KÖLN","VRS:old_ref":"14451","VRS:ortsteil":"Ossendorf","name":"Alter Flughafen Butzweilerhof","public_transport":"stop_position","railway":"tram_stop","ref:IFOPT":"de:05315:14416:1:11","tram":"yes","wheelchair":"yes"}},{"type":"node","id":632969675,"lat":50.9352392,"lon":6.9576027,"tags":{"description":"Köln, Heumarkt, Tram, Linie 5, Ri. Severinstraße","name":"Heumarkt","public_transport":"stop_position","railway":"tram_stop","start_date":"2013-12-15","subway":"yes","tram":"yes","wheelchair":"yes","wikidata":"Q15851859","wikimedia_commons":"Category:U-Bahnhof Heumarkt","wikipedia":"en:Heumarkt station"}},{"type":"node","id":633163736,"lat":50.9382821,"lon":6.9595988,"tags":{"light_rail":"yes","name":"Rathaus","public_transport":"stop_position","railway":"tram_stop","ref:IFOPT":"de:05315:11114","start_date":"2012-12-09","subway":"yes","tram":"yes","wheelchair":"limited","wikidata":"Q1230823","wikimedia_commons":"Category:U-Bahnhof Rathaus (Köln)","wikipedia":"en:Rathaus station (Cologne)"}},{"type":"node","id":633633942,"lat":50.7543938,"lon":7.1476913,"tags":{"VRS:gemeinde":"BONN","VRS:ortsteil":"Vilich-Müldorf","VRS:ref":"68206","light_rail":"yes","name":"Vilich-Müldorf","operator":"SSB","passenger_information_display":"yes","public_transport":"stop_position","railway":"stop","ref:IFOPT":"de:05314:68206:1:12","tram":"yes","wheelchair":"yes"}},{"type":"node","id":633769844,"lat":50.7396279,"lon":7.1183398,"tags":{"VRS:gemeinde":"BONN","VRS:name":"Konrad-Adenauer-Platz","VRS:ortsteil":"Beuel","VRS:ref":"65115","light_rail":"yes","local_ref":"A","name":"Konrad-Adenauer-Platz","operator":"SWB","passenger_information_display":"yes","public_transport":"stop_position","railway":"stop","ref":"A","tram":"yes","wheelchair":"yes"}},{"type":"node","id":633769851,"lat":50.7396762,"lon":7.1182642,"tags":{"VRS:gemeinde":"BONN","VRS:name":"Konrad-Adenauer-Platz","VRS:ortsteil":"Beuel","VRS:ref":"65115","light_rail":"yes","local_ref":"A","name":"Konrad-Adenauer-Platz","operator":"SWB","passenger_information_display":"yes","public_transport":"stop_position","railway":"stop","ref":"A","tram":"yes","wheelchair":"yes"}},{"type":"node","id":633769854,"lat":50.7390284,"lon":7.118533,"tags":{"VRS:gemeinde":"BONN","VRS:name":"Konrad-Adenauer-Platz","VRS:ortsteil":"Beuel","VRS:ref":"65115","local_ref":"B","name":"Konrad-Adenauer-Platz","passenger_information_display":"yes","public_transport":"stop_position","railway":"tram_stop","ref":"B","tram":"yes","wheelchair":"yes"}},{"type":"node","id":633769872,"lat":50.7391876,"lon":7.1180191,"tags":{"VRS:gemeinde":"BONN","VRS:name":"Konrad-Adenauer-Platz","VRS:ortsteil":"Beuel","VRS:ref":"65115","local_ref":"B","name":"Konrad-Adenauer-Platz","passenger_information_display":"yes","public_transport":"stop_position","railway":"tram_stop","ref":"B","tram":"yes","wheelchair":"yes"}},{"type":"node","id":634284493,"lat":50.7931412,"lon":7.2029484,"tags":{"VRS:gemeinde":"SIEGBURG","VRS:name":"Siegburg Bf","VRS:ortsteil":"Mitte","VRS:ref":"55101","light_rail":"yes","local_ref":"12","name":"Siegburg Bahnhof","name:de":"Siegburg Bahnhof","operator":"SSB","passenger_information_display":"yes","public_transport":"stop_position","railway":"stop","ref":"12","ref_name":"Siegburg Bahnhof, Siegburg","tram":"yes","wheelchair":"yes"}},{"type":"node","id":635045104,"lat":50.9411655,"lon":6.9506402,"tags":{"VRS:gemeinde":"KÖLN","VRS:ortsteil":"Innenstadt","VRS:ref":"11209","name":"Appellhofplatz","network":"VRS","network:wikidata":"Q896041","operator":"KVB","public_transport":"stop_position","railway":"tram_stop","ref:VRS":"11209","tram":"yes","wheelchair":"no","wheelchair:description":"Kein Rollstuhlgerechter Zugang zur Linie 5 (No step free entrance to line 5)"}},{"type":"node","id":651963087,"lat":50.9846953,"lon":6.8883553,"tags":{"VRS:gemeinde":"KÖLN","VRS:old_ref":"14479","VRS:ortsteil":"Ossendorf","name":"Sparkasse Am Butzweilerhof","public_transport":"stop_position","railway":"tram_stop","ref:IFOPT":"de:05315:14414:1:11","tram":"yes","wheelchair":"yes"}},{"type":"node","id":654851362,"lat":50.7119614,"lon":7.1394291,"tags":{"VRS:gemeinde":"BONN","VRS:ortsteil":"Hochkreuz","VRS:ref":"66614","name":"Rheinaue","public_transport":"stop_position","railway":"stop","toilets:wheelchair":"no","tram":"yes","wheelchair":"yes"}},{"type":"node","id":654851363,"lat":50.7119875,"lon":7.1392976,"tags":{"VRS:gemeinde":"BONN","VRS:ortsteil":"Hochkreuz","VRS:ref":"66614","name":"Rheinaue","public_transport":"stop_position","railway":"stop","toilets:wheelchair":"no","tram":"yes","wheelchair":"yes"}},{"type":"node","id":658431051,"lat":50.7290159,"lon":7.1363898,"tags":{"VRS:gemeinde":"BONN","VRS:ortsteil":"Limperich","VRS:ref":"65516","name":"Limperich","passenger_information_display":"yes","public_transport":"stop_position","railway":"tram_stop","tactile_paving":"no","tram":"yes","wheelchair":"limited"}},{"type":"node","id":661824920,"lat":50.7375154,"lon":7.1029243,"tags":{"VRS:gemeinde":"BONN","VRS:name":"Bertha-von-Suttner-Platz/Beethovenhaus","VRS:ortsteil":"Innenstadt","VRS:ref":"61115","local_ref":"B2","name":"Bertha-von-Suttner-Platz / Beethovenhaus","public_transport":"stop_position","railway":"tram_stop","ref":"B2","ref_name":"Bertha Suttner Platz, Bonn","tram":"yes","wheelchair":"yes"}},{"type":"node","id":661824961,"lat":50.7374405,"lon":7.1018376,"tags":{"VRS:gemeinde":"BONN","VRS:name":"Bertha-von-Suttner-Platz/Beethovenhaus","VRS:ortsteil":"Innenstadt","VRS:ref":"61115","light_rail":"yes","local_ref":"A2","name":"Bertha-von-Suttner-Platz / Beethovenhaus","operator":"SWB","public_transport":"stop_position","railway":"stop","ref":"A2","ref_name":"Bertha Suttner Platz, Bonn","tram":"yes","wheelchair":"yes"}},{"type":"node","id":661824964,"lat":50.7374281,"lon":7.1029354,"tags":{"VRS:gemeinde":"BONN","VRS:name":"Bertha-von-Suttner-Platz/Beethovenhaus","VRS:ortsteil":"Innenstadt","VRS:ref":"61115","local_ref":"B1","name":"Bertha-von-Suttner-Platz / Beethovenhaus","public_transport":"stop_position","railway":"tram_stop","ref":"B1","ref_name":"Bertha Suttner Platz, Bonn","tram":"yes","wheelchair":"yes"}},{"type":"node","id":690667156,"lat":50.912969,"lon":6.9408447,"tags":{"VRS:gemeinde":"KÖLN","VRS:ortsteil":"Zollstock","VRS:ref":"12012","name":"Herthastraße","network":"VRS","network:wikidata":"Q896041","operator":"KVB","public_transport":"stop_position","railway":"tram_stop","tram":"yes","website":"https://www.kvb.koeln/haltestellen/overview/53/","wheelchair":"yes"}},{"type":"node","id":690667158,"lat":50.9129648,"lon":6.940726,"tags":{"VRS:gemeinde":"KÖLN","VRS:ortsteil":"Zollstock","VRS:ref":"12012","name":"Herthastraße","network":"VRS","network:wikidata":"Q896041","operator":"KVB","public_transport":"stop_position","railway":"tram_stop","tram":"yes","website":"https://www.kvb.koeln/haltestellen/overview/53/","wheelchair":"yes"}},{"type":"node","id":711656819,"lat":50.9375837,"lon":6.874683,"tags":{"VRS:gemeinde":"KÖLN","VRS:ortsteil":"Müngersdorf","VRS:ref":"13512","name":"Rheinenergie-Stadion","note":"(Gleis 3+4)","public_transport":"stop_position","railway":"tram_stop","ref:IFOPT":"de:05315:13512:1:11","shelter":"yes","tram":"yes","website":"https://www.kvb.koeln/haltestellen/overview/187/","wheelchair":"yes","wheelchair:description":"alle Infos direkt über den Link erreichbar"}},{"type":"node","id":712257097,"lat":50.9199469,"lon":6.9860676,"tags":{"VRS:gemeinde":"KÖLN","VRS:ortsteil":"Poll","VRS:ref":"17015","name":"Raiffeisenstraße","public_transport":"stop_position","railway":"tram_stop","tram":"yes","wheelchair":"yes"}},{"type":"node","id":720589906,"lat":50.9204636,"lon":6.9158173,"tags":{"VRS:gemeinde":"KÖLN","VRS:name":"Zülpicher Straße/Gürtel","VRS:ortsteil":"Sülz","VRS:ref":"13215","name":"Zülpicher Straße/Gürtel","network":"VRS","network:wikidata":"Q896041","operator":"KVB","public_transport":"stop_position","railway":"tram_stop","shelter":"yes","tram":"yes","wheelchair":"yes"}},{"type":"node","id":720589907,"lat":50.9202119,"lon":6.9144703,"tags":{"VRS:gemeinde":"KÖLN","VRS:name":"Zülpicher Straße/Gürtel","VRS:ortsteil":"Sülz","VRS:ref":"13215","name":"Zülpicher Straße/Gürtel","network":"VRS","network:wikidata":"Q896041","operator":"KVB","public_transport":"stop_position","railway":"tram_stop","tram":"yes","wheelchair":"yes"}},{"type":"node","id":720589915,"lat":50.9224996,"lon":6.9223511,"tags":{"VRS:gemeinde":"KÖLN","VRS:name":"Uniklinik Köln","VRS:ortsteil":"Sülz","VRS:ref":"13123","name":"Uniklinik Köln","network":"VRS","network:wikidata":"Q896041","operator":"KVB","public_transport":"stop_position","railway":"tram_stop","tram":"yes","wheelchair":"yes"}},{"type":"node","id":728905365,"lat":50.9819425,"lon":6.8942979,"tags":{"VRS:gemeinde":"KÖLN","VRS:old_ref":"14464","VRS:ortsteil":"Ossendorf","name":"IKEA Am Butzweilerhof","public_transport":"stop_position","railway":"tram_stop","ref:IFOPT":"de:05315:14415:1:11","tram":"yes","wheelchair":"yes"}},{"type":"node","id":800443787,"lat":50.9571249,"lon":7.0125706,"tags":{"VRS:gemeinde":"KÖLN","VRS:name":"Bf Mülheim","VRS:ortsteil":"Mülheim","VRS:ref":"19201","local_ref":"9","name":"Bahnhof Mülheim","public_transport":"stop_position","railway":"tram_stop","ref":"9","tram":"yes","wheelchair":"limited","wheelchair:description":"Über Aufzüge vom S-Bahn-Bahnsteig und vom Bahnhofsvorplatz aus erreichbar."}},{"type":"node","id":914692558,"lat":51.1951481,"lon":6.8023734,"tags":{"description":"Südpark, Gleis 2+9","local_ref":"2;9","name":"Südpark","network":"VRR","operator":"Rheinbahn","public_transport":"stop_position","railway":"stop","ref:IFOPT":"de:05111:18295:0:2;de:05111:18295:0:9","subway":"yes","wheelchair":"yes"}},{"type":"node","id":928976153,"lat":50.7124589,"lon":7.1713013,"tags":{"VRS:gemeinde":"BONN","VRS:ortsteil":"Oberkassel","VRS:ref":"68811","name":"Oberkassel Mitte","passenger_information_display":"yes","public_transport":"stop_position","railway":"tram_stop","tram":"yes","wheelchair":"no"}},{"type":"node","id":931157856,"lat":50.9745877,"lon":7.0745376,"tags":{"VRS:gemeinde":"KÖLN","VRS:ortsteil":"Dellbrück","VRS:ref":"19511","name":"Dellbrück Hauptstraße","public_transport":"stop_position","railway":"tram_stop","ref:IFOPT":"de:05315:19511","tram":"yes","wheelchair":"yes"}},{"type":"node","id":943958109,"lat":50.9708392,"lon":6.969135,"tags":{"VRS:gemeinde":"KÖLN","VRS:name":"Amsterdamer Straße/Gürtel","VRS:ortsteil":"Riehl","VRS:ref":"15121","bus":"no","local_ref":"1","name":"Amsterdamer Straße/Gürtel","network":"VRS","network:wikidata":"Q896041","operator":"KVB","public_transport":"stop_position","railway":"tram_stop","ref":"1","ref:IFOPT":"de:05315:15121:1:11","route_ref":"13","train":"no","tram":"yes","wheelchair":"limited"}},{"type":"node","id":944477623,"lat":50.9723213,"lon":6.9513976,"tags":{"VRS:gemeinde":"KÖLN","VRS:name":"Neusser Straße/Gürtel","VRS:ortsteil":"Nippes","VRS:ref":"15011","local_ref":"4","name":"Neusser Straße/Gürtel","public_transport":"stop_position","railway":"tram_stop","ref":"4","ref:IFOPT":"de:05315:15011:1:13","tram":"yes","wheelchair":"yes","wheelchair:description":"Aufzüge meistens ausser Betrieb"}},{"type":"node","id":949747901,"lat":51.1623443,"lon":6.8553165,"tags":{"bench":"no","bin":"yes","bus":"yes","highway":"bus_stop","lit":"yes","local_ref":"1","name":"Schöne Aussicht","public_transport":"platform","ref:IFOPT":"de:05111:18088:0:1","ref:ibnr":"653821","ref_name":"Schöne Aussicht, Düsseldorf","shelter":"no","tactile_paving":"no","wheelchair":"no"}},{"type":"node","id":958511902,"lat":50.9175977,"lon":6.8588897,"tags":{"VRS:gemeinde":"KÖLN","VRS:ortsteil":"Marsdorf","VRS:ref":"13912","name":"Marsdorf","public_transport":"stop_position","railway":"stop","tram":"yes","wheelchair":"yes"}},{"type":"node","id":990080568,"lat":50.9246353,"lon":6.9367906,"tags":{"VRS:gemeinde":"KÖLN","VRS:ortsteil":"Innenstadt","VRS:ref":"11514","name":"Eifelwall/Stadtarchiv","old_name":"Eifelwall","public_transport":"stop_position","railway":"tram_stop","ref:VRS":"11514","toilets:wheelchair":"no","tram":"yes","wheelchair":"yes"}},{"type":"node","id":1025250562,"lat":50.929145,"lon":6.9571498,"tags":{"VRS:gemeinde":"KÖLN","VRS:ortsteil":"Innenstadt","VRS:ref":"11311","local_ref":"3","name":"Severinstraße","public_transport":"stop_position","railway":"tram_stop","ref":"3","tram":"yes","wheelchair":"yes"}},{"type":"node","id":1035780651,"lat":50.6441943,"lon":7.2169183,"tags":{"VRS:gemeinde":"BAD HONNEF","VRS:name":"Bad Honnef (Stadtbahn)","VRS:ortsteil":"Mitte","VRS:ref":"56111","local_ref":"A","name":"Bad Honnef Stadtbahn","passenger_information_display":"yes","public_transport":"stop_position","railway":"tram_stop","ref":"A","ref:IFOPT":"de:05382:56111:1:11","tram":"yes","wheelchair":"yes"}},{"type":"node","id":1037675830,"lat":50.9540192,"lon":7.1158317,"tags":{"VRS:gemeinde":"BERGISCH GLADBACH","VRS:ortsteil":"Refrath","VRS:ref":"31612","name":"Refrath","public_transport":"stop_position","railway":"tram_stop","ref:IFOPT":"de:05378:31612:1:12","shelter":"yes","tram":"yes","wheelchair":"yes"}},{"type":"node","id":1055536081,"lat":50.7681933,"lon":6.9509766,"tags":{"VRS:gemeinde":"BORNHEIM","VRS:name":"Waldorf","VRS:ortsteil":"Waldorf","VRS:ref":"53311","name":"Waldorf","public_transport":"stop_position","railway":"stop","ref:VRS":"53311","tram":"yes"}},{"type":"node","id":1075332466,"lat":50.7364496,"lon":7.0958639,"tags":{"VRS:gemeinde":"BONN","VRS:name":"Stadthaus","VRS:ortsteil":"Innenstadt","VRS:ref":"61114","local_ref":"D","name":"Stadthaus","name:en":"City Hall","operator":"SWB","public_transport":"stop_position","railway":"tram_stop","ref":"D","ref_name":"Stadthaus, Bonn","tram":"yes","wheelchair":"yes"}},{"type":"node","id":1079448045,"lat":50.7511772,"lon":7.1298948,"tags":{"VRS:gemeinde":"BONN","VRS:ortsteil":"Vilich-Rheindf.","VRS:ref":"65207","light_rail":"yes","name":"Vilich","operator":"SSB","passenger_information_display":"yes","public_transport":"stop_position","railway":"stop","tram":"yes","wheelchair":"yes"}},{"type":"node","id":1133702278,"lat":50.8338147,"lon":6.9014133,"tags":{"VRS:gemeinde":"BRÜHL","VRS:ortsteil":"Mitte","VRS:ref":"84109","name":"Brühl Nord","public_transport":"stop_position","railway":"stop","tram":"yes","wheelchair":"yes"}},{"type":"node","id":1134105689,"lat":50.8228382,"lon":6.9794588,"tags":{"VRS:gemeinde":"WESSELING","VRS:name":"Wesseling","VRS:ortsteil":"Mitte","VRS:ref":"85111","name":"Wesseling","public_transport":"stop_position","railway":"tram_stop","ref":"1","tram":"yes"}},{"type":"node","id":1198542493,"lat":50.7330782,"lon":7.0961287,"tags":{"VRS:gemeinde":"BONN","VRS:ortsteil":"Innenstadt","VRS:ref":"61101","layer":"-2","level":"-2","light_rail":"yes","local_ref":"U1","name":"Bonn Hauptbahnhof","public_transport":"stop_position","railway":"stop","ref":"U1","tram":"yes","wheelchair":"yes"}},{"type":"node","id":1198543551,"lat":50.7328382,"lon":7.0959933,"tags":{"VRS:gemeinde":"BONN","VRS:ortsteil":"Innenstadt","VRS:ref":"61101","layer":"-2","level":"-2","light_rail":"yes","local_ref":"U2","name":"Bonn Hauptbahnhof","operator":"SWB","public_transport":"stop_position","railway":"stop","ref":"U2","tram":"yes","wheelchair":"yes"}},{"type":"node","id":1209873837,"lat":50.8011057,"lon":6.9140186,"tags":{"VRS:gemeinde":"BRÜHL","VRS:name":"Schwadorf","VRS:ortsteil":"Schwadorf","VRS:ref":"84711","name":"Schwadorf","operator":"HGK","public_transport":"stop_position","railway":"stop","ref:VRS":"84711","tram":"yes","wheelchair":"yes"}},{"type":"node","id":1228950597,"lat":50.7110215,"lon":7.1269985,"tags":{"VRS:gemeinde":"BONN","VRS:name":"Deutsche Telekom/Ollenhauerstraße","VRS:ortsteil":"Gronau","VRS:ref":"62115","light_rail":"yes","name":"Ollenhauerstraße","old_name":"Deutsche Telekom / Ollenhauerstraße","operator":"SWB","public_transport":"stop_position","railway":"stop","tram":"yes","wheelchair":"yes"}},