{"elements":[{"type":"node","id":277517145,"lat":48.0044274,"lon":37.8076918,"tags":{"name":"проспект Гурова","name:uk":"проспект Гурова","public_transport":"stop_position","railway":"tram_stop","tram":"yes"}},{"type":"node","id":280167097,"lat":47.9931498,"lon":37.8058213,"tags":{"name":"Проспект Дзержинського","name:ru":"Проспект Дзержинского","name:uk":"Проспект Дзержинського","public_transport":"stop_position","railway":"tram_stop","tram":"yes"}},{"type":"node","id":289159684,"lat":47.9866037,"lon":37.8057331,"tags":{"name":"ДМЗ","name:uk":"ДМЗ","public_transport":"stop_position","railway":"tram_stop","tram":"yes"}},{"type":"node","id":334070119,"lat":47.98966,"lon":37.8056756,"tags":{"name":"Проспект Праці","name:en":"Pratsi Avenue","name:ru":"Проспект Труда","name:uk":"Проспект Праці","public_transport":"stop_position","railway":"tram_stop","tram":"yes"}},{"type":"node","id":334226028,"lat":48.0104554,"lon":37.8080116,"tags":{"name":"Критий ринок","name:ru":"Крытый рынок","name:uk":"Критий ринок","public_transport":"stop_position","railway":"tram_stop","tram":"yes"}},{"type":"node","id":335645128,"lat":48.0231573,"lon":37.8047826,"tags":{"name":"Готель «Шахтар»","name:ru":"Гостиница «Шахтёр»","name:uk":"Готель «Шахтар»","public_transport":"stop_position","railway":"tram_stop","tram":"yes"}},{"type":"node","id":362234435,"lat":48.0263792,"lon":37.8017488,"tags":{"name":"Проспект Звільнення Донбасу","name:en":"Zvilnennia Donbasu Avenue","name:ru":"Проспект Освобождения Донбасса","name:uk":"Проспект Звільнення Донбасу","public_transport":"stop_position","railway":"tram_stop","tram":"yes"}},{"type":"node","id":865027831,"lat":48.0503708,"lon":37.7583329,"tags":{"name":"Вулиця Куїнджі","name:en":"Kuindzhi street","name:ru":"Улица Куинджи","name:uk":"Вулиця Куїнджі","public_transport":"stop_position","railway":"tram_stop","tram":"yes"}},{"type":"node","id":865027865,"lat":48.0448868,"lon":37.7486926,"tags":{"name":"Залізничний вокзал","name:en":"Railway station (Vokzal)","name:ru":"Железнодорожный вокзал","name:uk":"Залізничний вокзал","public_transport":"stop_position","railway":"tram_stop","tram":"yes"}},{"type":"node","id":865027874,"lat":48.0511901,"lon":37.770781,"tags":{"name":"Поліграфічна вулиця","name:en":"Poligraficheskaya street","name:ru":"Полиграфическая улица","name:uk":"Поліграфічна вулиця","public_transport":"stop_position","railway":"tram_stop","tram":"yes"}},{"type":"node","id":1295318632,"lat":48.0434569,"lon":37.7895273,"tags":{"name":"Вулиця Павла Поповича","name:ru":"Улица Павла Поповича","name:uk":"Вулиця Павла Поповича","public_transport":"stop_position","railway":"tram_stop","tram":"yes"}},{"type":"node","id":1336762628,"lat":48.0150532,"lon":37.8073961,"tags":{"name":"Проспект Ватутіна","name:ru":"Проспект Ватутина","name:uk":"Проспект Ватутіна","public_transport":"stop_position","railway":"tram_stop","tram":"yes"}},{"type":"node","id":1336762633,"lat":48.0119925,"lon":37.8079022,"tags":{"name":"Академічна","name:ru":"Академическая","name:uk":"Академічна","public_transport":"stop_position","railway":"tram_stop","tram":"yes"}},{"type":"node","id":1336762644,"lat":48.0483342,"lon":37.7726535,"tags":{"name":"Київський райвиконком","name:en":"Kievsky RIK (district executive Committee)","name:ru":"Киевский райисполком","name:uk":"Київський райвиконком","operator":"ДЭАТ","public_transport":"stop_position","railway":"tram_stop","tram":"yes"}},{"type":"node","id":1336762650,"lat":48.0447067,"lon":37.7749101,"tags":{"name":"Економічна вулиця","name:en":"Ekonomichna Street","name:ru":"Экономическая улица","name:uk":"Економічна вулиця","public_transport":"stop_position","railway":"tram_stop","tram":"yes"}},{"type":"node","id":1336762660,"lat":48.0329702,"lon":37.7913959,"tags":{"name":"Вулиця Молодих шахтарів","name:ru":"Улица Молодых шахтёров","name:uk":"Вулиця Молодих шахтарів","public_transport":"stop_position","railway":"tram_stop","tram":"yes"}},{"type":"node","id":1336762664,"lat":48.0378816,"lon":37.7915951,"tags":{"name":"АЗС (на вимогу)","name:ru":"АЗС (по требованию)","name:uk":"АЗС (на вимогу)","public_transport":"stop_position","railway":"tram_stop","tram":"yes"}},{"type":"node","id":1336762670,"lat":48.0470149,"lon":37.7544203,"tags":{"name":"Путилівська вулиця","name:en":"Putilovskaya street","name:ru":"Путиловская улица","name:uk":"Путилівська вулиця","public_transport":"stop_position","railway":"tram_stop","tram":"yes"}},{"type":"node","id":1336762679,"lat":48.0426105,"lon":37.7917261,"tags":{"name":"Вулиця Очаківська","name:ru":"Улица Очаковская","name:uk":"Вулиця Очаківська","public_transport":"stop_position","railway":"tram_stop","tram":"yes"}},{"type":"node","id":1336762695,"lat":48.0524383,"lon":37.7673047,"tags":{"name":"Південна прохідна (на вимогу)","name:ru":"Южная проходная (по требованию)","name:uk":"Південна прохідна (на вимогу)","public_transport":"stop_position","railway":"tram_stop","tram":"yes"}},{"type":"node","id":1336762701,"lat":48.0307024,"lon":37.7964306,"tags":{"name":"Вулиця Коцюбинського","name:ru":"Улица Коцюбинского","name:uk":"Вулиця Коцюбинського","public_transport":"stop_position","railway":"tram_stop","tram":"yes"}},{"type":"node","id":1336762712,"lat":48.0425826,"lon":37.7786493,"tags":{"loc_name:ru":"Ветка","loc_name:uk":"Вєтка","name":"Київський проспект","name:en":"Kievsky Avenue","name:ru":"Киевский проспект","name:uk":"Київський проспект","public_transport":"stop_position","railway":"tram_stop","tram":"yes"}},{"type":"node","id":1669493017,"lat":48.0429737,"lon":37.7862509,"tags":{"name":"Вулиця 18-го Партз'їзду","name:ru":"Улица 18-го Партсъезда","name:uk":"Вулиця 18-го Партз'їзду","public_transport":"stop_position","railway":"tram_stop","tram":"yes"}},{"type":"node","id":2419088896,"lat":47.9958985,"lon":37.8057938,"tags":{"name":"ТК «Москва»","name:uk":"ТК «Москва»","public_transport":"stop_position","railway":"tram_stop","tram":"yes"}},{"type":"node","id":2419089347,"lat":48.0425934,"lon":37.7786727,"tags":{"loc_name:ru":"Ветка","loc_name:uk":"Вєтка","name":"Київський проспект","name:en":"Kievsky avenue","name:ru":"Киевский проспект","name:uk":"Київський проспект","public_transport":"stop_position","railway":"tram_stop","tram":"yes"}},{"type":"node","id":2419089409,"lat":48.0473018,"lon":37.7548221,"tags":{"name":"Путилівська вулиця","name:en":"Putilovskaya street","name:ru":"Путиловская улица","name:uk":"Путилівська вулиця","public_transport":"stop_position","railway":"tram_stop","tram":"yes"}},{"type":"node","id":2419089413,"lat":48.048337,"lon":37.7726802,"tags":{"name":"Київський райвиконком","name:en":"Kievsky RIK (district executive Committee)","name:ru":"Киевский райисполком","name:uk":"Київський райвиконком","operator":"ДЭАТ","public_transport":"stop_position","railway":"tram_stop","tram":"yes"}},{"type":"node","id":2419089417,"lat":48.0504047,"lon":37.7583272,"tags":{"name":"Вулиця Куїнджі","name:en":"Kuindzhi street","name:ru":"Улица Куинджи","name:uk":"Вулиця Куїнджі","public_transport":"stop_position","railway":"tram_stop","tram":"yes"}},{"type":"node","id":2419089436,"lat":48.0524796,"lon":37.767314,"tags":{"name":"Південна прохідна (на вимогу)","name:ru":"Южная проходная (по требованию)","name:uk":"Південна прохідна (на вимогу)","public_transport":"stop_position","railway":"tram_stop","tram":"yes"}},{"type":"node","id":2420024841,"lat":47.9896602,"lon":37.8055986,"tags":{"name":"Проспект Труда","name:ru":"Проспект Труда","name:uk":"Проспект Труда","public_transport":"platform"}},{"type":"node","id":2421707559,"lat":48.017838,"lon":37.8071432,"tags":{"name":"Стадіон «Донбас Арена»","name:ru":"Стадион «Донбасс Арена»","name:uk":"Стадіон «Донбас Арена»","public_transport":"stop_position","railway":"tram_stop","tram":"yes"}},{"type":"node","id":2425670958,"lat":48.03297,"lon":37.7914497,"tags":{"name":"Вулиця Молодих шахтарів","name:ru":"Улица Молодых шахтёров","name:uk":"Вулиця Молодих шахтарів","public_transport":"stop_position","railway":"tram_stop","tram":"yes"}},{"type":"node","id":2445991787,"lat":48.0446274,"lon":37.7750906,"tags":{"name":"Економічна вулиця","name:en":"Ekonomichna Street","name:ru":"Экономическая улица","name:uk":"Економічна вулиця","public_transport":"stop_position","railway":"tram_stop","tram":"yes"}},{"type":"node","id":2445991788,"lat":48.0509003,"lon":37.7712039,"tags":{"name":"Поліграфічна вулиця","name:en":"Poligraficheskaya street","name:ru":"Полиграфическая улица","name:uk":"Поліграфічна вулиця","public_transport":"stop_position","railway":"tram_stop","tram":"yes"}},{"type":"node","id":2453209500,"lat":48.0378824,"lon":37.7916352,"tags":{"name":"АЗС (на вимогу)","name:ru":"АЗС (по требованию)","name:uk":"АЗС (на вимогу)","public_transport":"stop_position","railway":"tram_stop","tram":"yes"}},{"type":"node","id":2453209507,"lat":48.0429972,"lon":37.786243,"tags":{"name":"Вулиця 18-го Партз’їзду","name:ru":"Улица 18-го Партсъезда","name:uk":"Вулиця 18-го Партз’їзду","public_transport":"stop_position","railway":"tram_stop","tram":"yes"}},{"type":"node","id":2453209508,"lat":48.04261,"lon":37.7917736,"tags":{"name":"Вулиця Очаківська","name:ru":"Улица Очаковская","name:uk":"Вулиця Очаківська","public_transport":"stop_position","railway":"tram_stop","tram":"yes"}},{"type":"node","id":2453209509,"lat":48.0434799,"lon":37.7895241,"tags":{"name":"Вулиця Павла Поповича","name:ru":"Улица Павла Поповича","name:uk":"Вулиця Павла Поповича","public_transport":"stop_position","railway":"tram_stop","tram":"yes"}},{"type":"node","id":1336762640,"lat":48.0444664,"lon":37.7748589,"tags":{"name":"Економічна вулиця","name:en":"Ekonomichna Street","name:ru":"Экономическая улица","name:uk":"Економічна вулиця","public_transport":"stop_position","railway":"tram_stop","tram":"yes"}},{"type":"node","id":1346296062,"lat":48.1219613,"lon":37.7504734,"tags":{"name":"Вулиця Волонтерська","name:uk":"Вулиця Волонтерська","public_transport":"stop_position","railway":"tram_stop","tram":"yes"}},{"type":"node","id":1346296063,"lat":48.1216777,"lon":37.7505258,"tags":{"name":"Вулиця Волонтерська","name:uk":"Вулиця Волонтерська","public_transport":"stop_position","railway":"tram_stop","tram":"yes"}},{"type":"node","id":1346296101,"lat":48.1262595,"lon":37.7500555,"tags":{"name":"Млин","name:uk":"Млин","public_transport":"stop_position","railway":"tram_stop","tram":"yes"}},{"type":"node","id":1346296387,"lat":48.141042,"lon":37.7366189,"tags":{"name":"Горсад","name:uk":"Горсад","public_transport":"stop_position","railway":"tram_stop","tram":"yes"}},{"type":"node","id":1346296469,"lat":48.1611974,"lon":37.7080446,"tags":{"name":"Центральна прохідна","name:uk":"Центральна прохідна","public_transport":"stop_position","railway":"tram_stop","tram":"yes"}},{"type":"node","id":1346296535,"lat":48.1710751,"lon":37.6902709,"tags":{"name":"4-а прохідна АКХЗ","name:uk":"4-а прохідна АКХЗ","public_transport":"stop_position","railway":"tram_stop","tram":"yes"}},{"type":"node","id":1346296546,"lat":48.1710331,"lon":37.6903671,"tags":{"name":"4-а прохідна АКХЗ","name:uk":"4-а прохідна АКХЗ","public_transport":"stop_position","railway":"tram_stop","tram":"yes"}},{"type":"node","id":1600572093,"lat":48.1330527,"lon":37.7382105,"tags":{"name":"Улибка","name:ru":"Улыбка","name:uk":"Улибка","public_transport":"stop_position","railway":"tram_stop"}},{"type":"node","id":2511524920,"lat":48.1266471,"lon":37.7395144,"tags":{"name":"Палац культури","name:ru":"Дворец культуры","name:uk":"Палац культури","public_transport":"stop_position","railway":"tram_stop","tram":"yes"}},{"type":"node","id":2511524929,"lat":48.1267513,"lon":37.7394486,"tags":{"name":"Палац культури","name:ru":"Дворец культуры","name:uk":"Палац культури","public_transport":"stop_position","railway":"tram_stop","tram":"yes"}},{"type":"node","id":2511524933,"lat":48.1261314,"lon":37.7501055,"tags":{"name":"Млин","name:uk":"Млин","public_transport":"stop_position","railway":"tram_stop","tram":"yes"}},{"type":"node","id":2512668130,"lat":48.1613957,"lon":37.707936,"tags":{"name":"Центральна прохідна","name:uk":"Центральна прохідна","public_transport":"stop_position","railway":"tram_stop","tram":"yes"}},{"type":"node","id":2512756169,"lat":48.1303381,"lon":37.738789,"tags":{"name":"Буревісник","name:ru":"Буревестник","name:uk":"Буревісник","public_transport":"stop_position","railway":"tram_stop","tram":"yes"}},{"type":"node","id":2512756171,"lat":48.1304822,"lon":37.7387156,"tags":{"name":"Буревісник","name:ru":"Буревестник","name:uk":"Буревісник","public_transport":"stop_position","railway":"tram_stop","tram":"yes"}},{"type":"node","id":2512756172,"lat":48.1263087,"lon":37.744845,"tags":{"name":"Проміжна","name:uk":"Проміжна","public_transport":"stop_position","railway":"tram_stop","tram":"yes"}},{"type":"node","id":2512756173,"lat":48.1263506,"lon":37.7449728,"tags":{"name":"Проміжна","name:uk":"Проміжна","public_transport":"stop_position","railway":"tram_stop","tram":"yes"}},{"type":"node","id":2519637501,"lat":48.152769,"lon":37.7179396,"tags":{"name":"Автобаза","name:uk":"Автобаза","public_transport":"stop_position","railway":"tram_stop","tram":"yes"}},{"type":"node","id":2519637502,"lat":48.1528583,"lon":37.7177071,"tags":{"name":"Автобаза","name:uk":"Автобаза","public_transport":"stop_position","railway":"tram_stop","tram":"yes"}},{"type":"node","id":2519637503,"lat":48.1487063,"lon":37.7247413,"tags":{"name":"Вокзал","name:uk":"Вокзал","public_transport":"stop_position","railway":"tram_stop","tram":"yes"}},{"type":"node","id":2519637504,"lat":48.148799,"lon":37.7245138,"tags":{"name":"Вокзал","name:uk":"Вокзал","public_transport":"stop_position","railway":"tram_stop","tram":"yes"}},{"type":"node","id":2519637505,"lat":48.144205,"lon":37.7326381,"tags":{"name":"Завод металоконструкцій","name:ru":"Завод металлоконструкций","name:uk":"Завод металоконструкцій","public_transport":"stop_position","railway":"tram_stop","tram":"yes"}},{"type":"node","id":2519637506,"lat":48.1442421,"lon":37.7325277,"tags":{"name":"Завод металоконструкцій","name:ru":"Завод металлоконструкций","name:uk":"Завод металоконструкцій","public_transport":"stop_position","railway":"tram_stop","tram":"yes"}},{"type":"node","id":2519637507,"lat":48.1409058,"lon":37.7366888,"tags":{"name":"Мехколонна","name:uk":"Мехколонна","public_transport":"stop_position","railway":"tram_stop","tram":"yes"}},{"type":"node","id":2519637510,"lat":48.1569239,"lon":37.7114265,"tags":{"name":"Трест","name:uk":"Трест","public_transport":"stop_position","railway":"tram_stop","tram":"yes"}},{"type":"node","id":2519637511,"lat":48.1571082,"lon":37.7113377,"tags":{"name":"Трест","name:uk":"Трест","public_transport":"stop_position","railway":"tram_stop","tram":"yes"}},{"type":"node","id":2519637602,"lat":48.1602642,"lon":37.7026017,"tags":{"name":"2-а прохідна","name:uk":"2-а прохідна","public_transport":"stop_position","railway":"tram_stop","tram":"yes"}},{"type":"node","id":2519637603,"lat":48.1602658,"lon":37.7026975,"tags":{"name":"2-а прохідна","name:uk":"2-а прохідна","public_transport":"stop_position","railway":"tram_stop","tram":"yes"}},{"type":"node","id":2519637604,"lat":48.1671761,"lon":37.6934913,"tags":{"name":"3-я прохідна","name:uk":"3-я прохідна","public_transport":"stop_position","railway":"tram_stop","tram":"yes"}},{"type":"node","id":2519637605,"lat":48.1673669,"lon":37.6933843,"tags":{"name":"3-я прохідна","name:uk":"3-я прохідна","public_transport":"stop_position","railway":"tram_stop","tram":"yes"}}]}