{"elements":[{"type":"node","id":6139144935,"lat":35.4643375,"lon":-97.5151582,"tags":{"name":"Arena","network":"COTPA","public_transport":"stop_position","railway":"tram_stop","tram":"yes"}},{"type":"node","id":6139145057,"lat":35.4655256,"lon":-97.5060921,"tags":{"name":"East Bricktown","network":"COTPA","public_transport":"stop_position","railway":"tram_stop","tram":"yes"}},{"type":"node","id":6139145058,"lat":35.4643064,"lon":-97.5089145,"tags":{"name":"Ballpark","network":"COTPA","public_transport":"stop_position","railway":"tram_stop","tram":"yes"}},{"type":"node","id":6139145059,"lat":35.4643063,"lon":-97.512106,"tags":{"name":"Santa Fe Hub","network":"COTPA","public_transport":"stop_position","railway":"tram_stop","tram":"yes"}},{"type":"node","id":6139145062,"lat":35.4661713,"lon":-97.5194728,"tags":{"name":"Myriad Gardens","network":"COTPA","public_transport":"stop_position","railway":"tram_stop","tram":"yes"}},{"type":"node","id":6139145063,"lat":35.4686829,"lon":-97.5194521,"tags":{"name":"Library","network":"COTPA","public_transport":"stop_position","railway":"tram_stop","tram":"yes"}},{"type":"node","id":6139145064,"lat":35.4717057,"lon":-97.5193737,"tags":{"name":"Transit Center","network":"COTPA","public_transport":"stop_position","railway":"tram_stop","tram":"yes"}},{"type":"node","id":6139145065,"lat":35.4718929,"lon":-97.5159076,"tags":{"name":"Federal Courthouse","network":"COTPA","public_transport":"stop_position","railway":"tram_stop","tram":"yes"}},{"type":"node","id":6139145066,"lat":35.4725078,"lon":-97.5142493,"tags":{"name":"Broadway Avenue","network":"COTPA","public_transport":"stop_position","railway":"tram_stop","tram":"yes"}},{"type":"node","id":6139145067,"lat":35.4758976,"lon":-97.5141348,"tags":{"name":"Automobile Alley","network":"COTPA","public_transport":"stop_position","railway":"tram_stop","tram":"yes"}},{"type":"node","id":6139145068,"lat":35.4799636,"lon":-97.5139554,"tags":{"name":"Art Park","network":"COTPA","public_transport":"stop_position","railway":"tram_stop","tram":"yes"}},{"type":"node","id":6139145069,"lat":35.4800332,"lon":-97.5189838,"tags":{"name":"North Hudson","network":"COTPA","public_transport":"stop_position","railway":"tram_stop","tram":"yes"}},{"type":"node","id":6139145070,"lat":35.4795128,"lon":-97.5227083,"tags":{"name":"Dewey Avenue","network":"COTPA","public_transport":"stop_position","railway":"tram_stop","tram":"yes"}},{"type":"node","id":6139145071,"lat":35.4782052,"lon":-97.5193552,"tags":{"name":"Midtown","network":"COTPA","public_transport":"stop_position","railway":"tram_stop","tram":"yes"}},{"type":"node","id":6139145072,"lat":35.4781344,"lon":-97.5164615,"tags":{"name":"Northwest 10th Street","network":"COTPA","public_transport":"stop_position","railway":"tram_stop","tram":"yes"}},{"type":"node","id":6139145073,"lat":35.4752418,"lon":-97.5162372,"tags":{"name":"Law School","network":"COTPA","public_transport":"stop_position","railway":"tram_stop","tram":"yes"}},{"type":"node","id":6139145074,"lat":35.4720792,"lon":-97.5163433,"tags":{"name":"Memorial Museum","network":"COTPA","public_transport":"stop_position","railway":"tram_stop","tram":"yes"}},{"type":"node","id":6139145075,"lat":35.468952,"lon":-97.5164617,"tags":{"name":"Business District","network":"COTPA","public_transport":"stop_position","railway":"tram_stop","tram":"yes"}},{"type":"node","id":6139145076,"lat":35.4663924,"lon":-97.5153946,"tags":{"name":"Century Center","network":"COTPA","public_transport":"stop_position","railway":"tram_stop","tram":"yes"}},{"type":"node","id":6139145077,"lat":35.4663896,"lon":-97.5116165,"tags":{"name":"Bricktown","network":"COTPA","public_transport":"stop_position","railway":"tram_stop","tram":"yes"}},{"type":"node","id":6139145078,"lat":35.4664077,"lon":-97.5093931,"tags":{"name":"Mickey Mantle","network":"COTPA","public_transport":"stop_position","railway":"tram_stop","tram":"yes"}},{"type":"node","id":6580451837,"lat":35.4623999,"lon":-97.5168542,"tags":{"name":"Scissortail Park","network":"COTPA","public_transport":"stop_position","railway":"tram_stop","tram":"yes"}},{"type":"node","id":6139145061,"lat":35.4624639,"lon":-97.5168536,"tags":{"name":"Scissortail Park","network":"COTPA","public_transport":"stop_position","railway":"tram_stop","tram":"yes"}},{"type":"node","id":8447076216,"lat":35.4656083,"lon":-97.5132174,"tags":{"name":"Oklahoma City Amtrak/Santa Fe Hub","network":"COTPA","public_transport":"stop_position","railway":"tram_stop","tram":"yes"}}]}