{"elements":[{"type":"node","id":4064178131,"lat":30.6671909,"lon":104.0739399,"tags":{"name":"太升南路","name:en":"Taisheng South Road","name:zh":"太升南路","public_transport":"stop_position","railway":"stop","subway":"yes"}},{"type":"node","id":4064178133,"lat":30.6465919,"lon":104.1165055,"tags":{"name":"万年场","name:en":"Wannianchang","name:zh":"万年场","public_transport":"stop_position","railway":"stop","subway":"yes"}},{"type":"node","id":4064178134,"lat":30.6558299,"lon":104.0967488,"tags":{"name":"玉双路","name:en":"Yushuang Road","name:zh":"玉双路","public_transport":"stop_position","railway":"stop","ref":"04/07","subway":"yes"}},{"type":"node","id":4064178141,"lat":30.6677163,"lon":104.0479077,"tags":{"name":"宽窄巷子","name:en":"Kuanzhaixiangzi Alleys","name:zh":"宽窄巷子","public_transport":"stop_position","railway":"stop","subway":"yes"}},{"type":"node","id":4064178144,"lat":30.6759957,"lon":103.9618731,"tags":{"name":"中坝","name:en":"Zhongba","name:zh":"中坝","public_transport":"stop_position","railway":"stop","station":"subway","subway":"yes"}},{"type":"node","id":4064178170,"lat":30.6728492,"lon":104.0180084,"tags":{"name":"西南财大","name:en":"Southwestern University of Finance and Economics","name:zh":"西南财大","public_transport":"stop_position","railway":"stop","subway":"yes"}},{"type":"node","id":4064178390,"lat":30.6767304,"lon":103.920427,"tags":{"name":"非遗博览园","name:en":"Intangible Cultural Heritage Park","public_transport":"stop_position","railway":"stop","station":"subway","subway":"yes"}},{"type":"node","id":4064241019,"lat":30.6715248,"lon":104.0259673,"tags":{"name":"草堂北路","name:en":"Caotang North Road","name:zh":"草堂北路","public_transport":"stop_position","railway":"stop","subway":"yes"}},{"type":"node","id":4064241020,"lat":30.6790972,"lon":103.9963288,"tags":{"name":"清江西路","name:en":"Qingjiang West Road","name:zh":"清江西路","public_transport":"stop_position","railway":"stop","station":"subway","subway":"yes"}},{"type":"node","id":4064241021,"lat":30.6491717,"lon":104.110925,"tags":{"name":"双桥路","name:en":"Shuangqiao Road","name:zh":"双桥路","public_transport":"stop_position","railway":"stop","subway":"yes"}},{"type":"node","id":4072596587,"lat":30.6685108,"lon":104.0382049,"tags":{"name":"中医大·省医院","name:en":"Chengdu University of TCM & Sichuan Provincial People's Hospital","name:zh":"中医大·省医院","public_transport":"stop_position","railway":"stop","subway":"yes"}},{"type":"node","id":4072596627,"lat":30.6721303,"lon":103.9429335,"tags":{"name":"蔡桥","name:en":"Caiqiao","name:zh":"蔡桥","public_transport":"stop_position","railway":"stop","station":"subway","subway":"yes"}},{"type":"node","id":4078818228,"lat":30.6694304,"lon":104.0637071,"tags":{"name":"骡马市","name:en":"Luomashi","name:zh":"骡马市","public_transport":"stop_position","railway":"stop","subway":"yes"}},{"type":"node","id":4893005381,"lat":30.6801415,"lon":103.9117294,"tags":{"name":"马厂坝","name:en":"Machangba","public_transport":"stop_position","railway":"stop","station":"subway","subway":"yes"}},{"type":"node","id":4893005397,"lat":30.6798074,"lon":103.8870836,"tags":{"name":"凤凰大街","name:en":"Fenghuang Avenue","public_transport":"stop_position","railway":"stop","subway":"yes","toilets:wheelchair":"yes","wheelchair":"limited"}},{"type":"node","id":4893005400,"lat":30.6810883,"lon":103.871377,"tags":{"name":"涌泉","name:en":"Yongquan","public_transport":"stop_position","railway":"stop","station":"subway","subway":"yes","toilets:wheelchair":"yes","wheelchair":"yes"}},{"type":"node","id":4893005406,"lat":30.6869895,"lon":103.8586008,"tags":{"name":"光华公园","name:en":"Guanghua Park","public_transport":"stop_position","railway":"stop","station":"subway","subway":"yes"}},{"type":"node","id":4893005409,"lat":30.6921987,"lon":103.8496735,"tags":{"name":"南熏大道","name:en":"Nanxun Avenue","public_transport":"stop_position","railway":"stop","station":"subway","subway":"yes"}},{"type":"node","id":4893005921,"lat":30.688723,"lon":103.841051,"tags":{"name":"凤溪河","name:en":"Fengxihe","public_transport":"stop_position","railway":"stop","station":"subway","subway":"yes"}},{"type":"node","id":4893005925,"lat":30.6834968,"lon":103.8290775,"tags":{"name":"杨柳河","name:en":"Yangliuhe","public_transport":"stop_position","railway":"stop","station":"subway","subway":"yes"}},{"type":"node","id":4893005927,"lat":30.677921,"lon":103.816824,"tags":{"name":"万盛","name:en":"Wansheng","public_transport":"stop_position","railway":"stop","station":"subway","subway":"yes"}},{"type":"node","id":4893005986,"lat":30.6492334,"lon":104.1619897,"tags":{"name":"来龙","name:en":"Lailong","name:zh":"来龙","public_transport":"stop_position","railway":"stop","subway":"yes"}},{"type":"node","id":4893005993,"lat":30.6482795,"lon":104.1702625,"tags":{"name":"十陵","name:en":"Shiling","name:zh":"十陵","public_transport":"stop_position","railway":"stop","subway":"yes"}},{"type":"node","id":4893005997,"lat":30.6490115,"lon":104.1785118,"tags":{"name":"成都大学","name:en":"Chengdu University","name:zh":"成都大学","public_transport":"stop_position","railway":"stop","subway":"yes"}},{"type":"node","id":4893006003,"lat":30.650711,"lon":104.1941248,"tags":{"name":"明蜀王陵","name:en":"Mingshuwangling","public_transport":"stop_position","railway":"stop","subway":"yes","wheelchair":"yes"}},{"type":"node","id":4893006121,"lat":30.6497489,"lon":104.2178875,"tags":{"name":"西河","name:en":"Xihe","public_transport":"stop_position","railway":"stop","subway":"yes"}},{"type":"node","id":5280629137,"lat":30.6745873,"lon":104.0074564,"tags":{"name":"文化宫","name:en":"Cultural Palace","name:zh":"文化宫","public_transport":"stop_position","railway":"stop","subway":"yes"}},{"type":"node","id":5292055457,"lat":30.7608985,"lon":103.9018314,"tags":{"name":"天映路","name:en":"Tianying Road","name:zh":"天映路","public_transport":"stop_position","railway":"tram_stop","station":"tram","tram":"yes"}},{"type":"node","id":5292055522,"lat":30.800641,"lon":103.8678215,"tags":{"name":"晨光","name:en":"Chenguang","name:zh":"晨光","public_transport":"stop_position","railway":"tram_stop","ref":"92/08","station":"tram","tram":"yes"}},{"type":"node","id":5617074685,"lat":30.6627842,"lon":104.0820747,"tags":{"name":"市二医院","name:en":"Chengdu Second People's Hospital","name:zh":"市二医院","public_transport":"stop_position","railway":"stop","subway":"yes"}},{"type":"node","id":5621991564,"lat":30.6511872,"lon":104.1366618,"tags":{"name":"槐树店","name:en":"Huaishudian","name:zh":"槐树店","public_transport":"stop_position","railway":"stop","subway":"yes"}},{"type":"node","id":6161012363,"lat":30.7531956,"lon":103.9199676,"tags":{"name":"合信路","name:en":"Hexin Road","name:zh":"合信路","public_transport":"stop_position","railway":"tram_stop","station":"tram","tram":"yes"}},{"type":"node","id":6161012364,"lat":30.75631,"lon":103.9227207,"tags":{"name":"合作路","name:en":"Hezuo Road","name:zh":"合作路","public_transport":"stop_position","railway":"tram_stop","station":"tram","tram":"yes"}},{"type":"node","id":6161012366,"lat":30.7577079,"lon":103.9223038,"tags":{"name":"合作路","name:en":"Hezuo Road","name:zh":"合作路","public_transport":"stop_position","railway":"tram_stop","station":"tram","tram":"yes"}},{"type":"node","id":6161012368,"lat":30.7597516,"lon":103.9193914,"tags":{"name":"天欣路","name:en":"Tianxin Road","name:zh":"天欣路","public_transport":"stop_position","railway":"tram_stop","station":"tram","tram":"yes"}},{"type":"node","id":6161012370,"lat":30.7603307,"lon":103.9186924,"tags":{"name":"天欣路","name:en":"Tianxin Road","name:zh":"天欣路","public_transport":"stop_position","railway":"tram_stop","station":"tram","tram":"yes"}},{"type":"node","id":6161012372,"lat":30.7671832,"lon":103.9127767,"tags":{"name":"安埠","name:en":"Anbu","name:zh":"安埠","public_transport":"stop_position","railway":"tram_stop","station":"tram","tram":"yes"}},{"type":"node","id":6161017952,"lat":30.7678869,"lon":103.8949121,"tags":{"name":"天源路","name:en":"Tianyuan Road","name:zh":"天源路","public_transport":"stop_position","railway":"tram_stop","station":"tram","tram":"yes"}},{"type":"node","id":6161017954,"lat":30.7687741,"lon":103.8943136,"tags":{"name":"天源路","name:en":"Tianyuan Road","name:zh":"天源路","public_transport":"stop_position","railway":"tram_stop","station":"tram","tram":"yes"}},{"type":"node","id":6161017956,"lat":30.7781382,"lon":103.8594221,"tags":{"name":"德富大道","name:en":"Defu Avenue","name:zh":"德富大道","public_transport":"stop_position","railway":"tram_stop","station":"tram","tram":"yes"}},{"type":"node","id":6161017958,"lat":30.7779392,"lon":103.8583068,"tags":{"name":"德富大道","name:en":"Defu Avenue","name:zh":"德富大道","public_transport":"stop_position","railway":"tram_stop","station":"tram","tram":"yes"}},{"type":"node","id":6161018194,"lat":30.7767357,"lon":103.8538536,"tags":{"name":"红旗大道","name:en":"Hongqi Avenue","name:zh":"红旗大道","public_transport":"stop_position","railway":"tram_stop","station":"tram","tram":"yes"}},{"type":"node","id":6161018196,"lat":30.7773804,"lon":103.8531409,"tags":{"name":"红旗大道","name:en":"Hongqi Avenue","name:zh":"红旗大道","public_transport":"stop_position","railway":"tram_stop","station":"tram","tram":"yes"}},{"type":"node","id":6161018198,"lat":30.779829,"lon":103.8503303,"tags":{"name":"红展东路","name:en":"Hongzhan East Road","name:zh":"红展东路","public_transport":"stop_position","railway":"tram_stop","ref":"92/11","station":"tram","tram":"yes"}},{"type":"node","id":6161018200,"lat":30.7811987,"lon":103.8502431,"tags":{"name":"红展东路","name:en":"Hongzhan East Road","name:zh":"红展东路","public_transport":"stop_position","railway":"tram_stop","ref":"92/11","station":"tram","tram":"yes"}},{"type":"node","id":6161018202,"lat":30.7868516,"lon":103.8564054,"tags":{"name":"大禹东路","name:en":"Dayu East Road","name:zh":"大禹东路","public_transport":"stop_position","railway":"tram_stop","ref":"92/10","station":"tram","tram":"yes"}},{"type":"node","id":6161018203,"lat":30.7862743,"lon":103.8557211,"tags":{"name":"大禹东路","name:en":"Dayu East Road","name:zh":"大禹东路","public_transport":"stop_position","railway":"tram_stop","ref":"92/10","station":"tram","tram":"yes"}},{"type":"node","id":6161018210,"lat":30.7917851,"lon":103.8604565,"tags":{"name":"花石","name:en":"Huashi","name:zh":"花石","public_transport":"stop_position","railway":"tram_stop","ref":"92/09","station":"tram","tram":"yes"}},{"type":"node","id":6161018211,"lat":30.7926599,"lon":103.8611147,"tags":{"name":"花石","name:en":"Huashi","name:zh":"花石","public_transport":"stop_position","railway":"tram_stop","ref":"92/09","station":"tram","tram":"yes"}},{"type":"node","id":6162387270,"lat":30.7672026,"lon":103.9128024,"tags":{"name":"安埠","name:en":"Anbu","name:zh":"安埠","public_transport":"stop_position","railway":"tram_stop","station":"tram","tram":"yes"}},{"type":"node","id":6162388591,"lat":30.7609181,"lon":103.9018531,"tags":{"name":"天映路","name:en":"Tianying Road","name:zh":"天映路","public_transport":"stop_position","railway":"tram_stop","station":"train","train":"yes","tram":"yes"}},{"type":"node","id":6216221290,"lat":30.8006616,"lon":103.8678064,"tags":{"name":"晨光","name:en":"Chenguang","name:zh":"晨光","public_transport":"stop_position","railway":"tram_stop","ref":"92/08","tram":"yes"}},{"type":"node","id":6656616672,"lat":30.661234,"lon":103.8662379,"tags":{"name":"明光","name:en":"Mingguang","name:zh":"明光","public_transport":"stop_position","railway":"stop","ref":"19/06","subway":"yes"}},{"type":"node","id":6656616673,"lat":30.6751744,"lon":103.8533747,"tags":{"name":"温泉大道","name:en":"Wenquan Avenue","name:zh":"温泉大道","public_transport":"stop_position","railway":"stop","ref":"19/05","subway":"yes"}},{"type":"node","id":6656616674,"lat":30.6905793,"lon":103.8409754,"tags":{"name":"凤溪河","name:en":"Fengxihe","name:zh":"凤溪河","public_transport":"stop_position","railway":"stop","ref":"19/04","subway":"yes"}},{"type":"node","id":6656616675,"lat":30.7019352,"lon":103.8269442,"tags":{"name":"市五医院","name:en":"Chengdu Fifth People's Hospital","name:zh":"市五医院","public_transport":"stop_position","railway":"stop","ref":"19/03","subway":"yes"}},{"type":"node","id":6656616677,"lat":30.7242344,"lon":103.8117265,"tags":{"name":"黄石","name:en":"Huangshi","name:zh":"黄石","public_transport":"stop_position","railway":"stop","ref":"19/02","subway":"yes"}},{"type":"node","id":6656616680,"lat":30.7586198,"lon":103.7917902,"tags":{"name":"金星","name:en":"Jinxing","name:zh":"金星","public_transport":"stop_position","railway":"stop","ref":"19/01","subway":"yes"}},{"type":"node","id":6669929053,"lat":30.3154012,"lon":104.4424855,"tags":{"name":"天府机场1号2号航站楼","name:en":"Terminal 1 & 2 of Tianfu International Airport","name:zh":"天府机场1号2号航站楼","name:zh-Hans":"天府机场1号2号航站楼","name:zh-Hant":"天府機場1號2號航廈","public_transport":"stop_position","railway":"stop","subway":"yes"}},{"type":"node","id":6669929054,"lat":30.2941993,"lon":104.4325836,"tags":{"name":"天府机场3号4号航站楼","name:en":"Terminal 3 & 4 of Tianfu International Airport","name:zh":"天府机场3号4号航站楼","name:zh-Hans":"天府机场3号4号航站楼","name:zh-Hant":"天府機場3號4號航站樓","public_transport":"stop_position","railway":"stop","subway":"yes"}},{"type":"node","id":6669929055,"lat":30.2809067,"lon":104.3849476,"tags":{"name":"福田","name:en":"Futian","name:zh":"福田","name:zh-Hans":"福田","name:zh-Hant":"福田","public_transport":"stop_position","railway":"stop","subway":"yes"}},{"type":"node","id":6942926869,"lat":30.7525258,"lon":103.9193191,"tags":{"name":"合信路","name:en":"Hexin Road","name:zh":"合信路","public_transport":"stop_position","railway":"tram_stop","tram":"yes"}},{"type":"node","id":7090080191,"lat":30.8255007,"lon":103.8783509,"tags":{"name":"郫县西站","name:en":"Pixian West Railway Station","name:zh":"郫县西站","public_transport":"stop_position","railway":"tram_stop","ref":"92/01","tram":"yes"}},{"type":"node","id":7090080192,"lat":30.8254738,"lon":103.8783707,"tags":{"name":"郫县西站","name:en":"Pixian West Railway Station","name:zh":"郫县西站","public_transport":"stop_position","railway":"tram_stop","ref":"92/01","tram":"yes"}},{"type":"node","id":7090080201,"lat":30.8187623,"lon":103.8775058,"tags":{"name":"梨园路","name:en":"Liyuan Road","name:zh":"梨园路","public_transport":"stop_position","railway":"tram_stop","ref":"92/03","tram":"yes"}},{"type":"node","id":7090080202,"lat":30.8177925,"lon":103.8774948,"tags":{"name":"梨园路","name:en":"Liyuan Road","name:zh":"梨园路","public_transport":"stop_position","railway":"tram_stop","ref":"92/03","tram":"yes"}},{"type":"node","id":7090080207,"lat":30.8098283,"lon":103.8759878,"tags":{"name":"望丛祠","name:en":"Wangcong Temple","name:zh":"望丛祠","public_transport":"stop_position","railway":"tram_stop","ref":"92/05","tram":"yes"}},{"type":"node","id":7090080208,"lat":30.8098124,"lon":103.8759621,"tags":{"name":"望丛祠","name:en":"Wangcong Temple","name:zh":"望丛祠","public_transport":"stop_position","railway":"tram_stop","ref":"92/05","tram":"yes"}},{"type":"node","id":7090080248,"lat":30.8054287,"lon":103.8750085,"tags":{"name":"何公路","name:en":"Hegong Road","name:zh":"何公路","public_transport":"stop_position","railway":"tram_stop","ref":"92/07","tram":"yes"}},{"type":"node","id":7090080261,"lat":30.8058025,"lon":103.8755241,"tags":{"name":"何公路","name:en":"Hegong Road","name:zh":"何公路","public_transport":"stop_position","railway":"tram_stop","ref":"92/07","tram":"yes"}},{"type":"node","id":7090254100,"lat":30.7444222,"lon":103.9271246,"tags":{"name":"电子科大","name:en":"University of Electronic Science and Technology of China","name:zh":"电子科大","public_transport":"stop_position","railway":"tram_stop","tram":"yes"}},{"type":"node","id":7090254101,"lat":30.7447922,"lon":103.9261716,"tags":{"name":"电子科大","name:en":"University of Electronic Science and Technology of China","name:zh":"电子科大","public_transport":"stop_position","railway":"tram_stop","tram":"yes"}},{"type":"node","id":7090306317,"lat":30.7318548,"lon":103.9487595,"tags":{"name":"锦城学院","name:en":"Chengdu Jincheng College","name:zh":"锦城学院","public_transport":"stop_position","railway":"tram_stop","tram":"yes"}},{"type":"node","id":7090306536,"lat":30.6869415,"lon":103.9759146,"tags":{"name":"成都西站","name:en":"Chengdu West Railway Station","name:zh":"成都西站","public_transport":"stop_position","railway":"tram_stop","ref":"92/33","tram":"yes","wikidata":"Q22099778","wikipedia":"zh:成都西站站"}},{"type":"node","id":7090306537,"lat":30.6869735,"lon":103.9759072,"tags":{"name":"成都西站","name:en":"Chengdu West Railway Station","name:zh":"成都西站","public_transport":"stop_position","railway":"tram_stop","ref":"92/33","tram":"yes","wikidata":"Q22099778","wikipedia":"zh:成都西站站"}},{"type":"node","id":7090306545,"lat":30.6972153,"lon":103.9748322,"tags":{"name":"联工","name:en":"Liangong","name:zh":"联工","public_transport":"stop_position","railway":"tram_stop","tram":"yes"}},{"type":"node","id":7090306550,"lat":30.6971984,"lon":103.9748071,"tags":{"name":"联工","name:en":"Liangong","name:zh":"联工","public_transport":"stop_position","railway":"tram_stop","tram":"yes"}},{"type":"node","id":7090306555,"lat":30.7161131,"lon":103.9671291,"tags":{"name":"土龙路","name:en":"Tulong Road","name:zh":"土龙路","public_transport":"stop_position","railway":"tram_stop","tram":"yes"}},{"type":"node","id":7090306556,"lat":30.7166973,"lon":103.9663355,"tags":{"name":"土龙路","name:en":"Tulong Road","name:zh":"土龙路","public_transport":"stop_position","railway":"tram_stop","tram":"yes"}},{"type":"node","id":7090306559,"lat":30.7267653,"lon":103.9546025,"tags":{"name":"新业路","name:en":"Xinye Road","name:zh":"新业路","public_transport":"stop_position","railway":"tram_stop","tram":"yes"}},{"type":"node","id":7090306560,"lat":30.7268277,"lon":103.9546647,"tags":{"name":"新业路","name:en":"Xinye Road","name:zh":"新业路","public_transport":"stop_position","railway":"tram_stop","tram":"yes"}},{"type":"node","id":7294649638,"lat":30.7326869,"lon":103.9478134,"tags":{"description":"tram","name":"锦城学院","name:en":"Chengdu Jincheng College","name:zh":"锦城学院","public_transport":"stop_position","railway":"tram_stop","tram":"yes"}},{"type":"node","id":8064716324,"lat":30.6498003,"lon":104.21789,"tags":{"name":"西河","name:en":"Xihe","public_transport":"stop_position","railway":"stop","subway":"yes"}},{"type":"node","id":8064716346,"lat":30.6507481,"lon":104.194117,"tags":{"name":"明蜀王陵","name:en":"Mingshuwangling","public_transport":"stop_position","railway":"stop","subway":"yes"}},{"type":"node","id":8064716354,"lat":30.649091,"lon":104.1785092,"tags":{"name":"成都大学","name:en":"Chengdu University","name:zh":"成都大学","public_transport":"stop_position","railway":"stop","subway":"yes"}},{"type":"node","id":8064716369,"lat":30.6483625,"lon":104.1702583,"tags":{"name":"十陵","name:en":"Shiling","name:zh":"十陵","public_transport":"stop_position","railway":"stop","subway":"yes"}},{"type":"node","id":8064716372,"lat":30.6492863,"lon":104.1620079,"tags":{"name":"来龙","name:en":"Lailong","name:zh":"来龙","public_transport":"stop_position","railway":"stop","subway":"yes"}},{"type":"node","id":8064720993,"lat":30.6512768,"lon":104.1366335,"tags":{"name":"槐树店","name:en":"Huaishudian","name:zh":"槐树店","public_transport":"stop_position","railway":"stop","subway":"yes"}},{"type":"node","id":8064721017,"lat":30.6466991,"lon":104.1165718,"tags":{"name":"万年场","name:en":"Wannianchang","name:zh":"万年场","public_transport":"stop_position","railway":"stop","subway":"yes"}},{"type":"node","id":8064721019,"lat":30.6492686,"lon":104.1109867,"tags":{"name":"双桥路","name:en":"Shuangqiao Road","name:zh":"双桥路","public_transport":"stop_position","railway":"stop","subway":"yes"}},{"type":"node","id":8064721022,"lat":30.655917,"lon":104.096807,"tags":{"name":"玉双路","name:en":"Yushuang Road","name:zh":"玉双路","public_transport":"stop_position","railway":"stop","ref":"04/09","subway":"yes"}},{"type":"node","id":8064721028,"lat":30.6628479,"lon":104.0821195,"tags":{"name":"市二医院","name:en":"Chengdu Second People's Hospital","name:zh":"市二医院","public_transport":"stop_position","railway":"stop","subway":"yes"}},{"type":"node","id":8064721046,"lat":30.6695054,"lon":104.0637123,"tags":{"name":"骡马市","name:en":"Luomashi","name:zh":"骡马市","public_transport":"stop_position","railway":"stop","subway":"yes"}},{"type":"node","id":8064721047,"lat":30.6673018,"lon":104.0740047,"tags":{"name":"太升南路","name:en":"Taisheng South Road","name:zh":"太升南路","public_transport":"stop_position","railway":"stop","subway":"yes"}},{"type":"node","id":8067489060,"lat":30.6678257,"lon":104.0478982,"tags":{"name":"宽窄巷子","name:en":"Kuanzhaixiangzi Alleys","name:zh":"宽窄巷子","public_transport":"stop_position","railway":"stop","subway":"yes"}},{"type":"node","id":8067592103,"lat":30.6686438,"lon":104.0382929,"tags":{"name":"中医大·省医院","name:en":"Chengdu University of TCM & Sichuan Provincial People's Hospital","name:zh":"中医大·省医院","public_transport":"stop_position","railway":"stop","subway":"yes"}},{"type":"node","id":8261580605,"lat":30.7586914,"lon":103.7919301,"tags":{"name":"金星","name:en":"Jinxing","name:zh":"金星","public_transport":"stop_position","railway":"stop","ref":"19/01","subway":"yes"}},{"type":"node","id":8261580607,"lat":30.7243059,"lon":103.8118419,"tags":{"name":"黄石","name:en":"Huangshi","name:zh":"黄石","public_transport":"stop_position","railway":"stop","ref":"19/02","subway":"yes"}},{"type":"node","id":8261607260,"lat":30.661291,"lon":103.866312,"tags":{"name":"明光","name:en":"Mingguang","name:zh":"明光","public_transport":"stop_position","railway":"stop","ref":"19/06","subway":"yes"}},{"type":"node","id":8261607267,"lat":30.6752314,"lon":103.8534488,"tags":{"name":"温泉大道","name:en":"Wenquan Avenue","name:zh":"温泉大道","public_transport":"stop_position","railway":"stop","ref":"19/05","subway":"yes"}},{"type":"node","id":8261607273,"lat":30.6906363,"lon":103.8410495,"tags":{"name":"凤溪河","name:en":"Fengxihe","name:zh":"凤溪河","public_transport":"stop_position","railway":"stop","ref":"19/04","subway":"yes"}},{"type":"node","id":8261607290,"lat":30.7019712,"lon":103.8270303,"tags":{"name":"市五医院","name:en":"Chengdu Fifth People's Hospital","name:zh":"市五医院","public_transport":"stop_position","railway":"stop","ref":"19/03","subway":"yes"}},{"type":"node","id":8311964748,"lat":30.6865766,"lon":103.9749981,"tags":{"name":"成都西站","name:en":"Chengdu West Railway Station","name:zh":"成都西站","public_transport":"stop_position","railway":"stop","station":"subway","subway":"yes"}},{"type":"node","id":8348764612,"lat":30.3369666,"lon":104.4526642,"tags":{"name":"天府机场北","name:en":"Tianfu International Airport North","name:zh":"天府机场北","public_transport":"stop_position","railway":"stop","subway":"yes"}},{"type":"node","id":8849585786,"lat":30.2806126,"lon":104.3847591,"tags":{"name":"福田","name:en":"Futian","name:zh":"福田","name:zh-Hans":"福田","name:zh-Hant":"福田","public_transport":"stop_position","railway":"stop","subway":"yes"}},{"type":"node","id":8919126236,"lat":30.3138383,"lon":104.31463,"tags":{"name":"三岔","name:en":"Sancha","name:zh":"三岔","name:zh-Hans":"三岔","name:zh-Hant":"三岔","public_transport":"stop_position","railway":"stop","subway":"yes"}},{"type":"node","id":8919126237,"lat":30.3139229,"lon":104.3149893,"tags":{"name":"三岔","name:en":"Sancha","name:zh":"三岔","name:zh-Hans":"三岔","name:zh-Hant":"三岔","public_transport":"stop_position","railway":"stop","subway":"yes"}},{"type":"node","id":9004692991,"lat":30.6715806,"lon":104.0259776,"tags":{"name":"草堂北路","name:en":"Caotang North Road","name:zh":"草堂北路","public_transport":"stop_position","railway":"stop","subway":"yes"}},{"type":"node","id":9004692993,"lat":30.6729199,"lon":104.0180222,"tags":{"name":"西南财大","name:en":"Southwestern University of Finance and Economics","name:zh":"西南财大","public_transport":"stop_position","railway":"stop","subway":"yes"}},{"type":"node","id":9004692994,"lat":30.674667,"lon":104.0074727,"tags":{"name":"文化宫","name:en":"Cultural Palace","name:zh":"文化宫","public_transport":"stop_position","railway":"stop","subway":"yes"}},{"type":"node","id":9019461832,"lat":30.6374515,"lon":103.9195071,"tags":{"name":"九江北","name:en":"Jiujiang North","name:zh":"九江北","public_transport":"stop_position","railway":"stop","subway":"yes"}},{"type":"node","id":9019461833,"lat":30.6371718,"lon":103.9195148,"tags":{"name":"九江北","name:en":"Jiujiang North","name:zh":"九江北","public_transport":"stop_position","railway":"stop","subway":"yes"}},{"type":"node","id":9024956934,"lat":30.4736058,"lon":104.0233964,"tags":{"name":"怡心湖","public_transport":"stop_position","railway":"stop","subway":"yes"}},{"type":"node","id":9025172327,"lat":30.3926126,"lon":104.1485145,"tags":{"name":"天府站","name:en":"Tianfu Railway Station","name:zh":"天府站","name:zh-Hans":"天府站","name:zh-Hant":"天府站","public_transport":"stop_position","railway":"stop","subway":"yes"}},{"type":"node","id":9025172364,"lat":30.392982,"lon":104.1487069,"tags":{"name":"天府站","name:en":"Tianfu Railway Station","name:zh":"天府站","name:zh-Hans":"天府站","name:zh-Hant":"天府站","public_transport":"stop_position","railway":"stop","subway":"yes"}},{"type":"node","id":9164861764,"lat":30.3369355,"lon":104.452756,"tags":{"name":"天府机场北","name:en":"Tianfu International Airport North","name:zh":"天府机场北","name:zh-Hans":"天府机场北","name:zh-Hant":"天府機場北","public_transport":"stop_position","railway":"stop","subway":"yes"}},{"type":"node","id":9164861768,"lat":30.3153663,"lon":104.4425804,"tags":{"name":"天府机场1号2号航站楼","name:en":"Terminal 1 & 2 of Tianfu International Airport","name:zh":"天府机场1号2号航站楼","name:zh-Hans":"天府机场1号2号航站楼","name:zh-Hant":"天府機場1號2號航廈","public_transport":"stop_position","railway":"stop","subway":"yes"}},{"type":"node","id":9164861769,"lat":30.2941604,"lon":104.4326789,"tags":{"name":"天府机场3号4号航站楼","name:en":"Terminal 3 & 4 of Tianfu International Airport","name:zh":"天府机场3号4号航站楼","name:zh-Hans":"天府机场3号4号航站楼","name:zh-Hant":"天府機場3號4號航站樓","public_transport":"stop_position","railway":"stop","subway":"yes"}},{"type":"node","id":10771129572,"lat":30.6767918,"lon":103.9204591,"tags":{"name":"非遗博览园","name:en":"Intangible Cultural Heritage Park","public_transport":"stop_position","railway":"stop","station":"subway","subway":"yes"}},{"type":"node","id":10771129575,"lat":30.6802042,"lon":103.9117583,"tags":{"name":"马厂坝","name:en":"Machangba","public_transport":"stop_position","railway":"stop","station":"subway","subway":"yes"}},{"type":"node","id":10771129589,"lat":30.6799035,"lon":103.8870975,"tags":{"name":"凤凰大街","name:en":"Fenghuang Avenue","public_transport":"stop_position","railway":"stop","subway":"yes","toilets:wheelchair":"yes","wheelchair":"limited"}},{"type":"node","id":10771129592,"lat":30.6811961,"lon":103.8713823,"tags":{"name":"涌泉","name:en":"Yongquan","public_transport":"stop_position","railway":"stop","station":"subway","subway":"yes","toilets:wheelchair":"yes","wheelchair":"yes"}},{"type":"node","id":10771129598,"lat":30.6870781,"lon":103.8586517,"tags":{"name":"光华公园","name:en":"Guanghua Park","public_transport":"stop_position","railway":"stop","station":"subway","subway":"yes"}},{"type":"node","id":10771129600,"lat":30.6922588,"lon":103.8497009,"tags":{"name":"南熏大道","name:en":"Nanxun Avenue","public_transport":"stop_position","railway":"stop","station":"subway","subway":"yes"}},{"type":"node","id":10771129611,"lat":30.6887816,"lon":103.8410123,"tags":{"name":"凤溪河","name:en":"Fengxihe","public_transport":"stop_position","railway":"stop","station":"subway","subway":"yes"}},{"type":"node","id":10771129614,"lat":30.6835569,"lon":103.8290421,"tags":{"name":"杨柳河","name:en":"Yangliuhe","public_transport":"stop_position","railway":"stop","station":"subway","subway":"yes"}},{"type":"node","id":10771129616,"lat":30.6779804,"lon":103.8167871,"tags":{"name":"万盛","name:en":"Wansheng","public_transport":"stop_position","railway":"stop","station":"subway","subway":"yes"}},{"type":"node","id":10771129623,"lat":30.6791564,"lon":103.9963663,"tags":{"name":"清江西路","name:en":"Qingjiang West Road","name:zh":"清江西路","public_transport":"stop_position","railway":"stop","station":"subway","subway":"yes"}},{"type":"node","id":10771129635,"lat":30.6866421,"lon":103.9749798,"tags":{"name":"成都西站","name:en":"Chengdu West Railway Station","name:zh":"成都西站","public_transport":"stop_position","railway":"stop","station":"subway","subway":"yes"}},{"type":"node","id":10771129647,"lat":30.6760178,"lon":103.9617991,"tags":{"name":"中坝","name:en":"Zhongba","name:zh":"中坝","public_transport":"stop_position","railway":"stop","station":"subway","subway":"yes"}},{"type":"node","id":10771129662,"lat":30.6721946,"lon":103.942957,"tags":{"name":"蔡桥","name:en":"Caiqiao","name:zh":"蔡桥","public_transport":"stop_position","railway":"stop","station":"subway","subway":"yes"}},{"type":"node","id":11381436608,"lat":30.6087035,"lon":103.9429309,"tags":{"name":"龙桥路","public_transport":"stop_position","railway":"stop","subway":"yes"}},{"type":"node","id":11381436609,"lat":30.6087531,"lon":103.9430416,"tags":{"name":"龙桥路","public_transport":"stop_position","railway":"stop","subway":"yes"}},{"type":"node","id":11381436610,"lat":30.5717189,"lon":103.9557758,"tags":{"name":"双流机场2航站楼东","name:en":"East of Terminal 2 of Shuangliu International Airport","name:zh":"双流机场2航站楼东","name:zh-Hans":"双流机场2航站楼东","name:zh-Hant":"雙流機場2航廈東","public_transport":"stop_position","railway":"stop","subway":"yes"}},{"type":"node","id":11381436611,"lat":30.5717727,"lon":103.9556491,"tags":{"name":"双流机场2航站楼东","name:en":"East of Terminal 2 of Shuangliu International Airport","name:zh":"双流机场2航站楼东","name:zh-Hans":"双流机场2航站楼东","name:zh-Hant":"雙流機場2航廈東","public_transport":"stop_position","railway":"stop","subway":"yes"}},{"type":"node","id":11381436612,"lat":30.5382362,"lon":103.9714146,"tags":{"name":"龙港","public_transport":"stop_position","railway":"stop","subway":"yes"}},{"type":"node","id":11381436613,"lat":30.5383489,"lon":103.9714914,"tags":{"name":"龙港","public_transport":"stop_position","railway":"stop","subway":"yes"}},{"type":"node","id":11381436614,"lat":30.5014838,"lon":104.0068728,"tags":{"name":"温家山","public_transport":"stop_position","railway":"stop","subway":"yes"}},{"type":"node","id":11381436615,"lat":30.5014778,"lon":104.0067429,"tags":{"name":"温家山","public_transport":"stop_position","railway":"stop","subway":"yes"}},{"type":"node","id":11381436616,"lat":30.4867768,"lon":104.0091689,"tags":{"name":"牧华路","public_transport":"stop_position","railway":"stop","subway":"yes"}},{"type":"node","id":11381436617,"lat":30.4867202,"lon":104.0088916,"tags":{"name":"牧华路","public_transport":"stop_position","railway":"stop","subway":"yes"}},{"type":"node","id":11381436618,"lat":30.4734744,"lon":104.0233436,"tags":{"name":"怡心湖","public_transport":"stop_position","railway":"stop","subway":"yes"}},{"type":"node","id":11381436622,"lat":30.4551885,"lon":104.0394015,"tags":{"name":"正兴湾","name:en":"Zhengxingwan","public_transport":"stop_position","railway":"stop","subway":"yes"}},{"type":"node","id":11381436623,"lat":30.455075,"lon":104.0389561,"tags":{"name":"正兴湾","name:en":"Zhengxingwan","public_transport":"stop_position","railway":"stop","subway":"yes"}},{"type":"node","id":11381436624,"lat":30.4351609,"lon":104.0598008,"tags":{"name":"红莲","public_transport":"stop_position","railway":"stop","subway":"yes"}},{"type":"node","id":11381436625,"lat":30.4353052,"lon":104.0597982,"tags":{"name":"红莲","public_transport":"stop_position","railway":"stop","subway":"yes"}},{"type":"node","id":11381436626,"lat":30.4327045,"lon":104.0838417,"tags":{"name":"天府商务区","public_transport":"stop_position","railway":"stop","subway":"yes"}},{"type":"node","id":11381436627,"lat":30.4325489,"lon":104.0837672,"tags":{"name":"天府商务区","public_transport":"stop_position","railway":"stop","subway":"yes"}},{"type":"node","id":11381436628,"lat":30.4202445,"lon":104.1066545,"tags":{"name":"蓝家店","public_transport":"stop_position","railway":"stop","subway":"yes"}},{"type":"node","id":11381436629,"lat":30.420154,"lon":104.1065631,"tags":{"name":"蓝家店","public_transport":"stop_position","railway":"stop","subway":"yes"}},{"type":"node","id":11729669366,"lat":30.9066459,"lon":103.6026772,"tags":{"name":"合乐（预留）","public_transport":"station","tram":"yes"}},{"type":"node","id":13871801278,"lat":30.8964284,"lon":103.6042515,"tags":{"name":"青城山站","public_transport":"station","tram":"yes"}},{"type":"node","id":13871801279,"lat":30.9024911,"lon":103.6041423,"tags":{"name":"白鸽路","public_transport":"station","tram":"yes"}},{"type":"node","id":13871801280,"lat":30.9024671,"lon":103.6040318,"tags":{"name":"白鸽路","public_transport":"station","tram":"yes"}},{"type":"node","id":13871801281,"lat":30.9113629,"lon":103.6069889,"tags":{"name":"新益","public_transport":"station","tram":"yes"}},{"type":"node","id":13871801282,"lat":30.9114067,"lon":103.6069027,"tags":{"name":"新益","public_transport":"station","tram":"yes"}},{"type":"node","id":9394217242,"lat":30.9623991,"lon":103.6101656,"tags":{"name":"铁军路","public_transport":"stop_position","railway":"tram_stop","tram":"yes"}},{"type":"node","id":9394217260,"lat":30.9623643,"lon":103.6101733,"tags":{"name":"铁军路","public_transport":"stop_position","railway":"tram_stop","tram":"yes"}},{"type":"node","id":11411723662,"lat":30.9877557,"lon":103.5989515,"tags":{"name":"石牛","public_transport":"stop_position","railway":"tram_stop","tram":"yes"}},{"type":"node","id":11729669241,"lat":30.9179562,"lon":103.6114499,"tags":{"name":"青城山高中站","public_transport":"stop_position","railway":"tram_stop","tram":"yes"}},{"type":"node","id":11729669242,"lat":30.9179696,"lon":103.6114053,"tags":{"name":"青城山高中站","public_transport":"stop_position","railway":"tram_stop","tram":"yes"}},{"type":"node","id":11729669274,"lat":30.8964168,"lon":103.6042992,"tags":{"name":"青城山站","public_transport":"stop_position","railway":"tram_stop","tram":"yes"}},{"type":"node","id":11729669275,"lat":30.8964347,"lon":103.604198,"tags":{"name":"青城山站","public_transport":"stop_position","railway":"tram_stop","tram":"yes"}},{"type":"node","id":11729669364,"lat":30.902485,"lon":103.6041168,"tags":{"name":"白鸽路","public_transport":"stop_position","railway":"tram_stop","tram":"yes"}},{"type":"node","id":11729669365,"lat":30.9024779,"lon":103.6040642,"tags":{"name":"白鸽路","public_transport":"stop_position","railway":"tram_stop","tram":"yes"}},{"type":"node","id":11729669385,"lat":30.9114036,"lon":103.6069364,"tags":{"name":"新益","public_transport":"stop_position","railway":"tram_stop","tram":"yes"}},{"type":"node","id":11729669386,"lat":30.9113823,"lon":103.6069768,"tags":{"name":"新益","public_transport":"stop_position","railway":"tram_stop","tram":"yes"}},{"type":"node","id":11729669435,"lat":30.9282009,"lon":103.6157097,"tags":{"name":"中兴","public_transport":"stop_position","railway":"tram_stop","tram":"yes"}},{"type":"node","id":11729669436,"lat":30.9282101,"lon":103.6156721,"tags":{"name":"中兴","public_transport":"stop_position","railway":"tram_stop","tram":"yes"}},{"type":"node","id":11729669438,"lat":30.949446,"lon":103.6191865,"tags":{"name":"文旅城南","public_transport":"stop_position","railway":"tram_stop","tram":"yes"}},{"type":"node","id":11729669439,"lat":30.9494105,"lon":103.619174,"tags":{"name":"文旅城南","public_transport":"stop_position","railway":"tram_stop","tram":"yes"}},{"type":"node","id":11729669488,"lat":30.9560425,"lon":103.6150981,"tags":{"name":"文旅城","public_transport":"stop_position","railway":"tram_stop","tram":"yes"}},{"type":"node","id":11729669489,"lat":30.9560387,"lon":103.6151333,"tags":{"name":"文旅城","public_transport":"stop_position","railway":"tram_stop","tram":"yes"}},{"type":"node","id":11729669503,"lat":30.9612829,"lon":103.6136107,"tags":{"name":"外江大桥","public_transport":"stop_position","railway":"tram_stop","tram":"yes"}},{"type":"node","id":11729669504,"lat":30.9612929,"lon":103.6136404,"tags":{"name":"外江大桥","public_transport":"stop_position","railway":"tram_stop","tram":"yes"}},{"type":"node","id":11729762489,"lat":30.964283,"lon":103.6051955,"tags":{"name":"文胜桥","public_transport":"stop_position","railway":"tram_stop","tram":"yes"}},{"type":"node","id":11729762490,"lat":30.9642563,"lon":103.6051753,"tags":{"name":"文胜桥","public_transport":"stop_position","railway":"tram_stop","tram":"yes"}},{"type":"node","id":11729762500,"lat":30.9701799,"lon":103.6025988,"tags":{"name":"玉堂","public_transport":"stop_position","railway":"tram_stop","tram":"yes"}},{"type":"node","id":11729762501,"lat":30.9701711,"lon":103.6025616,"tags":{"name":"玉堂","public_transport":"stop_position","railway":"tram_stop","tram":"yes"}},{"type":"node","id":11729762506,"lat":30.9769738,"lon":103.6012519,"tags":{"name":"鑫玉大道","public_transport":"stop_position","railway":"tram_stop","tram":"yes"}},{"type":"node","id":11729762507,"lat":30.9769803,"lon":103.6013259,"tags":{"name":"鑫玉大道","public_transport":"stop_position","railway":"tram_stop","tram":"yes"}},{"type":"node","id":11729762528,"lat":30.9841707,"lon":103.6011092,"tags":{"name":"三台","public_transport":"stop_position","railway":"tram_stop","tram":"yes"}},{"type":"node","id":11729762529,"lat":30.9841762,"lon":103.6011454,"tags":{"name":"三台","public_transport":"stop_position","railway":"tram_stop","tram":"yes"}},{"type":"node","id":11729762547,"lat":30.9877402,"lon":103.5989276,"tags":{"name":"石牛","public_transport":"stop_position","railway":"tram_stop","tram":"yes"}},{"type":"node","id":11729762562,"lat":30.9894458,"lon":103.6023189,"tags":{"name":"鲤鱼沱西","public_transport":"stop_position","railway":"tram_stop","tram":"yes"}},{"type":"node","id":11729762563,"lat":30.9894832,"lon":103.6023164,"tags":{"name":"鲤鱼沱西","public_transport":"stop_position","railway":"tram_stop","tram":"yes"}},{"type":"node","id":11729762584,"lat":30.9911658,"lon":103.6119736,"tags":{"name":"鲤鱼沱东","public_transport":"stop_position","railway":"tram_stop","tram":"yes"}},{"type":"node","id":11729762585,"lat":30.9911228,"lon":103.6119839,"tags":{"name":"鲤鱼沱东","public_transport":"stop_position","railway":"tram_stop","tram":"yes"}},{"type":"node","id":11729817794,"lat":30.9912683,"lon":103.6163812,"tags":{"name":"奎光塔","public_transport":"stop_position","railway":"tram_stop","tram":"yes"}},{"type":"node","id":11729817795,"lat":30.9912366,"lon":103.6163765,"tags":{"name":"奎光塔","public_transport":"stop_position","railway":"tram_stop","tram":"yes"}},{"type":"node","id":11729817804,"lat":30.9941967,"lon":103.6173366,"tags":{"name":"八角庙","public_transport":"stop_position","railway":"tram_stop","tram":"yes"}},{"type":"node","id":11729817823,"lat":30.9941868,"lon":103.6173814,"tags":{"name":"八角庙","public_transport":"stop_position","railway":"tram_stop","tram":"yes"}},{"type":"node","id":11729835797,"lat":30.9536583,"lon":103.638005,"tags":{"name":"紫荆城","public_transport":"stop_position","railway":"tram_stop","tram":"yes"}},{"type":"node","id":11729835798,"lat":30.9536373,"lon":103.6379416,"tags":{"name":"紫荆城","public_transport":"stop_position","railway":"tram_stop","tram":"yes"}},{"type":"node","id":13871801272,"lat":30.9590165,"lon":103.6346203,"tags":{"name":"都江堰快铁站","public_transport":"stop_position","railway":"tram_stop","tram":"yes"}},{"type":"node","id":13871801273,"lat":30.9590404,"lon":103.6346651,"tags":{"name":"都江堰快铁站","public_transport":"stop_position","railway":"tram_stop","tram":"yes"}},{"type":"node","id":8261614646,"lat":30.7019529,"lon":103.8269906,"tags":{"name":"市五医院","name:en":"Chengdu Fifth People's Hospital","name:zh":"市五医院","public_transport":"station","railway":"station","ref":"19/03","station":"subway","subway":"yes"}},{"type":"node","id":8261614647,"lat":30.6893466,"lon":103.8419054,"tags":{"name":"凤溪河","name:en":"Fengxihe","name:zh":"凤溪河","public_transport":"station","railway":"station","station":"subway","subway":"yes"}},{"type":"node","id":8261614649,"lat":30.6751951,"lon":103.8534168,"tags":{"name":"温泉大道","name:en":"Wenquan Avenue","name:zh":"温泉大道","public_transport":"station","railway":"station","ref":"19/05","station":"subway","subway":"yes"}},{"type":"node","id":10773578538,"lat":30.6870151,"lon":103.8586226,"tags":{"name":"光华公园","name:en":"Guanghua Park","public_transport":"station","railway":"station","station":"subway","subway":"yes"}},{"type":"node","id":10773578543,"lat":30.6922094,"lon":103.8496842,"tags":{"name":"南熏大道","name:en":"Nanxun Avenue","public_transport":"station","railway":"station","station":"subway","subway":"yes"}},{"type":"node","id":10773578556,"lat":30.6835311,"lon":103.8290802,"tags":{"name":"杨柳河","name:en":"Yangliuhe","public_transport":"station","railway":"station","station":"subway","subway":"yes"}},{"type":"node","id":10773578561,"lat":30.677956,"lon":103.8168308,"tags":{"name":"万盛","name:en":"Wansheng","public_transport":"station","railway":"station","station":"subway","subway":"yes"}}]}