{"elements":[{"type":"node","id":27722252,"lat":55.9323205,"lon":-3.2756438,"tags":{"name":"Saughton","name:gd":"Baile nan Seileach","network":"Edinburgh Trams","operator":"Edinburgh Trams Ltd.","public_transport":"stop_position","railway":"tram_stop","tram":"yes"}},{"type":"node","id":668785129,"lat":55.9474872,"lon":-3.360391,"tags":{"name":"Edinburgh Airport","name:gd":"Port-adhair Dhùn Èideann","network":"Edinburgh Trams","operator":"Edinburgh Trams Ltd.","public_transport":"stop_position","railway":"tram_stop","tram":"yes"}},{"type":"node","id":1882457646,"lat":55.9381498,"lon":-3.2522232,"tags":{"name":"Balgreen","name:gd":"Baile Griain","network":"Edinburgh Trams","operator":"Edinburgh Trams Ltd.","public_transport":"stop_position","railway":"tram_stop","toilets:wheelchair":"no","tram":"yes","wheelchair":"yes"}},{"type":"node","id":1882457672,"lat":55.9518288,"lon":-3.1978246,"tags":{"name":"Princes Street","name:gd":"Sràid a' Phrionnsa","name:zh-Hans":"王子街","network":"Edinburgh Trams","operator":"Edinburgh Trams Ltd.","public_transport":"stop_position","railway":"tram_stop","tram":"yes","wheelchair":"yes"}},{"type":"node","id":1918632400,"lat":55.9313299,"lon":-3.314573,"tags":{"name":"Edinburgh Park Central","name:gd":"Meadhan Pàirc Dhùn Èideann","network":"Edinburgh Trams","operator":"Edinburgh Trams Ltd.","public_transport":"stop_position","railway":"tram_stop","tram":"yes"}},{"type":"node","id":1918633685,"lat":55.9380758,"lon":-3.3184193,"tags":{"name":"Gyle Centre","name:gd":"Ionad Gyle","network":"Edinburgh Trams","operator":"Edinburgh Trams Ltd.","public_transport":"stop_position","railway":"tram_stop","tram":"yes"}},{"type":"node","id":2061557014,"lat":55.9475026,"lon":-3.3602734,"tags":{"name":"Edinburgh Airport","name:gd":"Port-adhair Dhùn Èideann","network":"Edinburgh Trams","operator":"Edinburgh Trams Ltd.","public_transport":"stop_position","railway":"tram_stop","tram":"yes"}},{"type":"node","id":2061557016,"lat":55.9313471,"lon":-3.3144825,"tags":{"name":"Edinburgh Park Central","name:gd":"Meadhan Pàirc Dhùn Èideann","network":"Edinburgh Trams","operator":"Edinburgh Trams Ltd.","public_transport":"stop_position","railway":"tram_stop","tram":"yes"}},{"type":"node","id":2061557018,"lat":55.9380954,"lon":-3.3183886,"tags":{"name":"Gyle Centre","name:gd":"Ionad Gyle","network":"Edinburgh Trams","operator":"Edinburgh Trams Ltd.","public_transport":"stop_position","railway":"tram_stop","tram":"yes"}},{"type":"node","id":2061557062,"lat":55.9322903,"lon":-3.2756281,"tags":{"name":"Saughton","name:gd":"Baile nan Seileach","network":"Edinburgh Trams","operator":"Edinburgh Trams Ltd.","public_transport":"stop_position","railway":"tram_stop","tram":"yes"}},{"type":"node","id":2139154186,"lat":55.940038,"lon":-3.3540876,"tags":{"name":"Ingliston Park & Ride","name:gd":"Baile Inglis","network":"Edinburgh Trams","operator":"Edinburgh Trams Ltd.","public_transport":"stop_position","railway":"tram_stop","tram":"yes"}},{"type":"node","id":2191555181,"lat":55.928819,"lon":-3.293803,"tags":{"name":"Bankhead","name:gd":"Ceann na Bruaiche","network":"Edinburgh Trams","operator":"Edinburgh Trams Ltd.","public_transport":"stop_position","railway":"tram_stop","tram":"yes"}},{"type":"node","id":2191556900,"lat":55.9420131,"lon":-3.2373262,"tags":{"name":"Murrayfield Stadium","name:gd":"Pàirc a' Mhoirich","network":"Edinburgh Trams","operator":"Edinburgh Trams Ltd.","public_transport":"stop_position","railway":"tram_stop","tram":"yes"}},{"type":"node","id":2319609566,"lat":55.9546635,"lon":-3.1924361,"tags":{"name":"St Andrew Square","name:gd":"Ceàrnag an Naoimh Anndras","network":"Edinburgh Trams","operator":"Edinburgh Trams Ltd.","public_transport":"stop_position","railway":"tram_stop","tram":"yes","wheelchair":"yes"}},{"type":"node","id":2525456072,"lat":55.9420314,"lon":-3.237366,"tags":{"name":"Murrayfield Stadium","name:gd":"Pàirc a' Mhoirich","network":"Edinburgh Trams","operator":"Edinburgh Trams Ltd.","public_transport":"stop_position","railway":"tram_stop","tram":"yes"}},{"type":"node","id":2669194227,"lat":55.945761,"lon":-3.2196012,"tags":{"name":"Haymarket","name:gd":"Margadh an Fheòir","network":"Edinburgh Trams","operator":"Edinburgh Trams Ltd.","public_transport":"stop_position","railway":"tram_stop","tram":"yes","wheelchair":"yes"}},{"type":"node","id":2669194228,"lat":55.9458025,"lon":-3.2195982,"tags":{"name":"Haymarket","name:gd":"Margadh an Fheòir","network":"Edinburgh Trams","operator":"Edinburgh Trams Ltd.","public_transport":"stop_position","railway":"tram_stop","tram":"yes","wheelchair":"yes"}},{"type":"node","id":2693088927,"lat":55.9381166,"lon":-3.2521951,"tags":{"name":"Balgreen","name:gd":"Baile Griain","network":"Edinburgh Trams","operator":"Edinburgh Trams Ltd.","public_transport":"stop_position","railway":"tram_stop","toilets:wheelchair":"no","tram":"yes","wheelchair":"yes"}},{"type":"node","id":2693088928,"lat":55.9288538,"lon":-3.2938189,"tags":{"name":"Bankhead","name:gd":"Ceann na Bruaiche","network":"Edinburgh Trams","operator":"Edinburgh Trams Ltd.","public_transport":"stop_position","railway":"tram_stop","tram":"yes"}},{"type":"node","id":2693088932,"lat":55.9272741,"lon":-3.3072968,"tags":{"name":"Edinburgh Park Station","name:gd":"Stèisean Pàirc Dhùn Èideann","network":"Edinburgh Trams","operator":"Edinburgh Trams Ltd.","public_transport":"stop_position","railway":"tram_stop","tram":"yes"}},{"type":"node","id":2693088933,"lat":55.927375,"lon":-3.306686,"tags":{"name":"Edinburgh Park Station","name:gd":"Stèisean Pàirc Dhùn Èideann","network":"Edinburgh Trams","operator":"Edinburgh Trams Ltd.","public_transport":"stop_position","railway":"tram_stop","tram":"yes"}},{"type":"node","id":2693088935,"lat":55.9380086,"lon":-3.3322732,"tags":{"name":"Gogarburn","name:gd":"Allt Gogar","network":"Edinburgh Trams","operator":"Edinburgh Trams Ltd.","public_transport":"stop_position","railway":"tram_stop","tram":"yes"}},{"type":"node","id":2693088940,"lat":55.9380333,"lon":-3.3322942,"tags":{"name":"Gogarburn","name:gd":"Allt Gogar","network":"Edinburgh Trams","operator":"Edinburgh Trams Ltd.","public_transport":"stop_position","railway":"tram_stop","tram":"yes"}},{"type":"node","id":2693088945,"lat":55.9401297,"lon":-3.3538413,"tags":{"name":"Ingliston Park & Ride","name:gd":"Baile Inglis","network":"Edinburgh Trams","operator":"Edinburgh Trams Ltd.","public_transport":"stop_position","railway":"tram_stop","tram":"yes"}},{"type":"node","id":2693088951,"lat":55.9517757,"lon":-3.1977994,"tags":{"name":"Princes Street","name:gd":"Sràid a' Phrionnsa","name:zh-Hans":"王子街","network":"Edinburgh Trams","operator":"Edinburgh Trams Ltd.","public_transport":"stop_position","railway":"tram_stop","tram":"yes","wheelchair":"yes"}},{"type":"node","id":2693088956,"lat":55.9544202,"lon":-3.1921865,"tags":{"name":"St Andrew Square","name:gd":"Ceàrnag an Naoimh Anndras","network":"Edinburgh Trams","operator":"Edinburgh Trams Ltd.","public_transport":"stop_position","railway":"tram_stop","tram":"yes","wheelchair":"yes"}},{"type":"node","id":2892442824,"lat":55.9486613,"lon":-3.2116595,"tags":{"name":"West End","name:gd":"Ceann an Iar","network":"Edinburgh Trams","operator":"Edinburgh Trams Ltd.","public_transport":"stop_position","railway":"tram_stop","tram":"yes","wheelchair":"yes"}},{"type":"node","id":8071098686,"lat":55.9566976,"lon":-3.1871116,"tags":{"name":"Picardy Place","name:gd":"Ceàrn Picardy","network":"Edinburgh Trams","operator":"Edinburgh Trams Ltd.","public_transport":"stop_position","railway":"tram_stop","tram":"yes"}},{"type":"node","id":8071098687,"lat":55.9568526,"lon":-3.1864167,"tags":{"name":"Picardy Place","name:gd":"Ceàrn Picardy","network":"Edinburgh Trams","operator":"Edinburgh Trams Ltd.","public_transport":"stop_position","railway":"tram_stop","tram":"yes"}},{"type":"node","id":8071098688,"lat":55.9652578,"lon":-3.1763088,"tags":{"name":"Balfour Street","name:gd":"Sràid Balfour","network":"Edinburgh Trams","operator":"Edinburgh Trams Ltd.","public_transport":"stop_position","railway":"tram_stop","start_date":"2023-06-07","tram":"yes"}},{"type":"node","id":8071098689,"lat":55.9654974,"lon":-3.1761764,"tags":{"name":"Balfour Street","name:gd":"Sràid Balfour","network":"Edinburgh Trams","operator":"Edinburgh Trams Ltd.","public_transport":"stop_position","railway":"tram_stop","start_date":"2023-06-07","tram":"yes"}},{"type":"node","id":8071098690,"lat":55.9751546,"lon":-3.1668236,"tags":{"name":"The Shore","name:gd":"An Cladach","network":"Edinburgh Trams","operator":"Edinburgh Trams Ltd.","public_transport":"stop_position","railway":"tram_stop","start_date":"2023-06-07","tram":"yes"}},{"type":"node","id":8071098691,"lat":55.9748071,"lon":-3.1669785,"tags":{"name":"The Shore","name:gd":"An Cladach","network":"Edinburgh Trams","operator":"Edinburgh Trams Ltd.","public_transport":"stop_position","railway":"tram_stop","start_date":"2023-06-07","tram":"yes"}},{"type":"node","id":8071098692,"lat":55.9707241,"lon":-3.1711902,"tags":{"name":"Foot of the Walk","name:gd":"Bun a' Cheum","name:sco":"Fit o the Walk","network":"Edinburgh Trams","operator":"Edinburgh Trams Ltd.","public_transport":"stop_position","railway":"tram_stop","start_date":"2023-06-07","tram":"yes"}},{"type":"node","id":8071098693,"lat":55.9710303,"lon":-3.1707806,"tags":{"name":"Foot of the Walk","name:gd":"Bun a' Cheum","network":"Edinburgh Trams","operator":"Edinburgh Trams Ltd.","public_transport":"stop_position","railway":"tram_stop","start_date":"2023-06-07","tram":"yes"}},{"type":"node","id":8071098694,"lat":55.9781769,"lon":-3.1666337,"tags":{"name":"Port of Leith","name:gd":"Port Lìte","network":"Edinburgh Trams","operator":"Edinburgh Trams Ltd.","public_transport":"stop_position","railway":"tram_stop","start_date":"2023-06-07","tram":"yes"}},{"type":"node","id":8071098695,"lat":55.9779896,"lon":-3.1659059,"tags":{"name":"Port of Leith","name:gd":"Port Lìte","network":"Edinburgh Trams","operator":"Edinburgh Trams Ltd.","public_transport":"stop_position","railway":"tram_stop","start_date":"2023-06-07","tram":"yes"}},{"type":"node","id":8071098696,"lat":55.9801628,"lon":-3.1776501,"tags":{"name":"Ocean Terminal","network":"Edinburgh Trams","operator":"Edinburgh Trams Ltd.","public_transport":"stop_position","railway":"tram_stop","start_date":"2023-06-07","tram":"yes"}},{"type":"node","id":8071098697,"lat":55.980215,"lon":-3.1777415,"tags":{"name":"Ocean Terminal","network":"Edinburgh Trams","operator":"Edinburgh Trams Ltd.","public_transport":"stop_position","railway":"tram_stop","start_date":"2023-06-07","tram":"yes"}},{"type":"node","id":8071098716,"lat":55.9799559,"lon":-3.188661,"tags":{"name":"Newhaven","network":"Edinburgh Trams","operator":"Edinburgh Trams Ltd.","public_transport":"stop_position","railway":"tram_stop","start_date":"2023-06-07","tram":"yes"}},{"type":"node","id":8071098861,"lat":55.9605714,"lon":-3.1816313,"tags":{"name":"McDonald Road","name:gd":"Rathad MhicDhòmhnaill","network":"Edinburgh Trams","operator":"Edinburgh Trams Ltd.","public_transport":"stop_position","railway":"tram_stop","tram":"yes"}},{"type":"node","id":8071098862,"lat":55.9608674,"lon":-3.1813969,"tags":{"name":"McDonald Road","name:gd":"Rathad MhicDhòmhnaill","network":"Edinburgh Trams","operator":"Edinburgh Trams Ltd.","public_transport":"stop_position","railway":"tram_stop","tram":"yes"}},{"type":"node","id":8443670817,"lat":55.9486092,"lon":-3.2115938,"tags":{"name":"West End","name:gd":"Ceann an Iar","network":"Edinburgh Trams","operator":"Edinburgh Trams Ltd.","public_transport":"stop_position","railway":"tram_stop","tram":"yes","wheelchair":"yes"}},{"type":"node","id":5353113957,"lat":55.9404561,"lon":-3.3218263,"tags":{"name":"Edinburgh Gateway","name:gd":"Slighe Dhùn Èideann","network":"Edinburgh Trams","note":"there were two stop locations, I can only assume this was a mistake","operator":"Edinburgh Trams Ltd.","public_transport":"stop_position","railway":"tram_stop","start_date":"2016-12-11","tram":"yes"}},{"type":"node","id":8071098701,"lat":55.9799213,"lon":-3.1886731,"tags":{"name":"Newhaven","network":"Edinburgh Trams","operator":"Edinburgh Trams Ltd.","public_transport":"stop_position","railway":"tram_stop","start_date":"2023-06-07","tram":"yes"}},{"type":"node","id":8827902848,"lat":55.9404286,"lon":-3.3218155,"tags":{"name":"Edinburgh Gateway","name:gd":"Slighe Dhùn Èideann","network":"Edinburgh Trams","note":"there were two stop locations, I can only assume this was a mistake","operator":"Edinburgh Trams Ltd.","public_transport":"stop_position","railway":"tram_stop","start_date":"2016-12-11","tram":"yes"}}]}