{"elements":[{"type":"node","id":31794739,"lat":51.5021594,"lon":11.9542173,"tags":{"bus":"yes","local_ref":"A","name":"Burg Giebichenstein","public_transport":"stop_position","railway":"tram_stop","tram":"yes","wheelchair":"no"}},{"type":"node","id":31794750,"lat":51.5016444,"lon":11.9549676,"tags":{"kerb":"lowered","local_ref":"B","name":"Burg Giebichenstein","passenger_information_display":"timetable","public_transport":"stop_position","railway":"tram_stop","tactile_paving":"no","timetable":"yes","tram":"yes","wheelchair":"no"}},{"type":"node","id":31794778,"lat":51.5001717,"lon":11.9582437,"tags":{"local_ref":"B","name":"Triftstraße","operator":"HAVAG","public_transport":"stop_position","railway":"tram_stop","tram":"yes","wheelchair":"limited"}},{"type":"node","id":102471612,"lat":51.4878726,"lon":11.9661832,"tags":{"local_ref":"B","name":"Moritzburgring","passenger_information_display":"yes","public_transport":"stop_position","railway":"tram_stop","tram":"yes","wheelchair":"limited"}},{"type":"node","id":109330314,"lat":51.4870242,"lon":11.9666609,"tags":{"local_ref":"A","name":"Moritzburgring","operator":"HAVAG","passenger_information_display":"yes","public_transport":"stop_position","railway":"tram_stop","tram":"yes","wheelchair":"no"}},{"type":"node","id":109330386,"lat":51.484737,"lon":11.9732124,"tags":{"local_ref":"B","name":"Joliot-Curie-Platz","public_transport":"stop_position","railway":"tram_stop","ref:IFOPT":"de:15002:5221::02","tram":"yes","wheelchair":"no","wheelchair:description":"Rampen müssen vom Fahrzeugführer herausgegeben werden."}},{"type":"node","id":114767976,"lat":51.4824706,"lon":11.9637037,"tags":{"local_ref":"B","name":"Ankerstraße","public_transport":"stop_position","railway":"tram_stop","ref:IFOPT":"de:15002:5228::02","tram":"yes","wheelchair":"no"}},{"type":"node","id":245782857,"lat":51.4880189,"lon":11.9774304,"tags":{"local_ref":"B","name":"Am Steintor","passenger_information_display":"yes","public_transport":"stop_position","railway":"tram_stop","tram":"yes","wheelchair":"yes"}},{"type":"node","id":245782909,"lat":51.4792331,"lon":11.9827444,"tags":{"local_ref":"B","name":"Riebeckplatz","passenger_information_display":"yes","public_transport":"stop_position","railway":"tram_stop","tram":"yes","wheelchair":"yes"}},{"type":"node","id":246053219,"lat":51.478501,"lon":11.9769091,"tags":{"local_ref":"A","name":"Am Leipziger Turm","public_transport":"stop_position","railway":"tram_stop","tram":"yes","wheelchair":"limited"}},{"type":"node","id":246053234,"lat":51.478667,"lon":11.9688831,"tags":{"local_ref":"D","name":"Franckeplatz","passenger_information_display":"yes","public_transport":"stop_position","railway":"tram_stop","tram":"yes","wheelchair":"yes"}},{"type":"node","id":246053290,"lat":51.4825052,"lon":11.9464908,"tags":{"local_ref":"B","name":"Rennbahnkreuz","public_transport":"stop_position","railway":"tram_stop","tram":"yes","wheelchair":"yes","wheelchair:description":"Es gibt abgesenkte Bordsteinkanten. Einsteig zur Bahn durch vorhandene Rampe in der Bahn möglich. Bitte dem Straßenbahnfahrer bescheid geben."}},{"type":"node","id":246053304,"lat":51.4834341,"lon":11.9469292,"tags":{"local_ref":"D","name":"Rennbahnkreuz","passenger_information_display":"yes","public_transport":"stop_position","railway":"tram_stop","tram":"yes","wheelchair":"yes"}},{"type":"node","id":246053331,"lat":51.479785,"lon":11.964428,"tags":{"local_ref":"A","name":"Glauchaer Platz","public_transport":"stop_position","railway":"tram_stop","tram":"yes","wheelchair":"yes"}},{"type":"node","id":246053332,"lat":51.478483,"lon":11.9858055,"tags":{"layer":"-1","local_ref":"B","name":"Hauptbahnhof","public_transport":"stop_position","railway":"tram_stop","tram":"yes","wheelchair":"yes"}},{"type":"node","id":247066389,"lat":51.49593,"lon":11.9662732,"tags":{"bus":"yes","highway":"bus_stop","local_ref":"B","name":"Reileck","passenger_information_display":"yes","public_transport":"stop_position","railway":"tram_stop","tram":"yes","wheelchair":"no"}},{"type":"node","id":247066390,"lat":51.5051958,"lon":11.9512575,"tags":{"local_ref":"A","name":"Talstraße","public_transport":"stop_position","railway":"tram_stop","tram":"yes","wheelchair":"yes"}},{"type":"node","id":247096773,"lat":51.506585,"lon":11.9656241,"tags":{"bus":"yes","highway":"bus_stop","local_ref":"B","name":"Zoo","public_transport":"stop_position","railway":"tram_stop","tram":"yes","wheelchair":"no"}},{"type":"node","id":247096798,"lat":51.4898312,"lon":11.9804676,"tags":{"local_ref":"B","name":"Friesenstraße","public_transport":"stop_position","railway":"tram_stop","tram":"yes","wheelchair":"yes"}},{"type":"node","id":247096803,"lat":51.4897916,"lon":11.9865122,"tags":{"layer":"1","local_ref":"B","name":"S-Bf. Steintorbrücke","public_transport":"stop_position","railway":"tram_stop","tram":"yes","wheelchair":"yes"}},{"type":"node","id":248206253,"lat":51.4906073,"lon":11.976141,"tags":{"local_ref":"A","name":"Lessingstraße","public_transport":"stop_position","railway":"tram_stop","tram":"yes","wheelchair":"no"}},{"type":"node","id":248206254,"lat":51.4912608,"lon":11.9748559,"tags":{"local_ref":"B","name":"Lessingstraße","public_transport":"stop_position","railway":"tram_stop","tram":"yes","wheelchair":"no"}},{"type":"node","id":248206441,"lat":51.4588589,"lon":11.946816,"tags":{"local_ref":"B","name":"Diesterwegstraße","public_transport":"stop_position","railway":"tram_stop","tram":"yes","wheelchair":"yes"}},{"type":"node","id":248206443,"lat":51.4557553,"lon":11.9432653,"tags":{"local_ref":"B","name":"Wiener Straße","public_transport":"stop_position","railway":"tram_stop","tram":"yes","wheelchair":"yes","wheelchair:description":"Zu enge Haltestelle"}},{"type":"node","id":248515830,"lat":51.3341533,"lon":11.9825729,"tags":{"name":"Naumburger Straße","public_transport":"stop_position","railway":"tram_stop","tram":"yes"}},{"type":"node","id":248515861,"lat":51.334595,"lon":11.9916332,"tags":{"local_ref":"B","name":"Kötzschener Weg","public_transport":"stop_position","railway":"tram_stop","tram":"yes","wheelchair":"no"}},{"type":"node","id":248516161,"lat":51.4259545,"lon":11.9851738,"tags":{"local_ref":"B","name":"Florian-Geyer-Platz","public_transport":"stop_position","railway":"tram_stop","tram":"yes","wheelchair":"no"}},{"type":"node","id":248527660,"lat":51.3302292,"lon":11.9764678,"tags":{"name":"Merseburg Süd","public_transport":"stop_position","railway":"tram_stop","tram":"yes"}},{"type":"node","id":249086290,"lat":51.4964085,"lon":11.981135,"tags":{"local_ref":"A","name":"Äußere Hordorfer Straße","public_transport":"stop_position","railway":"tram_stop","tram":"yes","wheelchair":"limited"}},{"type":"node","id":249086313,"lat":51.5008563,"lon":11.9848616,"tags":{"local_ref":"A","name":"S-Bhf. Dessauer Brücke","public_transport":"stop_position","railway":"tram_stop","toilets:wheelchair":"no","tram":"yes","wheelchair":"yes"}},{"type":"node","id":249086323,"lat":51.5067821,"lon":11.9918256,"tags":{"local_ref":"A","name":"Kornblumenweg","public_transport":"stop_position","railway":"tram_stop","tram":"yes","wheelchair":"no"}},{"type":"node","id":249154864,"lat":51.486953,"lon":11.9458435,"tags":{"bus":"no","local_ref":"B","name":"Gimritzer Damm","passenger_information_display":"yes","public_transport":"stop_position","railway":"tram_stop","tram":"yes","wheelchair":"yes"}},{"type":"node","id":249154877,"lat":51.4960234,"lon":11.9388029,"tags":{"local_ref":"B","name":"Weinberg Campus","passenger_information_display":"yes","public_transport":"stop_position","railway":"tram_stop","ref:IFOPT":"de:15002:5164::02","tram":"yes","wheelchair":"yes"}},{"type":"node","id":249393951,"lat":51.456082,"lon":11.9617297,"tags":{"local_ref":"B","name":"Paul-Suhr-Straße","public_transport":"stop_position","railway":"tram_stop","tram":"yes","wheelchair":"yes"}},{"type":"node","id":249393953,"lat":51.4567147,"lon":11.9629372,"tags":{"local_ref":"B","name":"Paul-Suhr-Straße","public_transport":"stop_position","railway":"tram_stop","tram":"yes","wheelchair":"yes"}},{"type":"node","id":249394006,"lat":51.5131203,"lon":11.9587032,"tags":{"local_ref":"A","name":"Pfarrstraße","public_transport":"stop_position","railway":"tram_stop","tram":"yes","wheelchair":"no"}},{"type":"node","id":249394056,"lat":51.449943,"lon":11.9739923,"tags":{"local_ref":"A","name":"Elsa-Brändström-Straße","network":"Mitteldeutscher Verkehrsverbund","network:short":"MDV","network:wikidata":"Q1742463","public_transport":"stop_position","railway":"tram_stop","tram":"yes","wheelchair":"yes"}},{"type":"node","id":249394129,"lat":51.5107397,"lon":11.9614195,"tags":{"local_ref":"B","name":"Seebener Straße","public_transport":"stop_position","railway":"tram_stop","toilets:wheelchair":"no","tram":"yes","wheelchair":"no"}},{"type":"node","id":249394218,"lat":51.4528473,"lon":11.9612751,"tags":{"local_ref":"A","name":"Moskauer Straße","operator":"SWH.HAVAG","public_transport":"stop_position","railway":"tram_stop","tram":"yes","wheelchair":"yes"}},{"type":"node","id":249394382,"lat":51.4490156,"lon":11.9592544,"tags":{"local_ref":"C","name":"Südstadt, Veszpremer Straße","operator":"HAVAG","passenger_information_display":"yes","public_transport":"stop_position","railway":"tram_stop","tram":"yes","wheelchair":"yes"}},{"type":"node","id":249394383,"lat":51.449791,"lon":11.9608089,"tags":{"local_ref":"H","name":"Südstadt, Paul-Suhr-Straße","operator":"SWH.HAVAG","passenger_information_display":"yes","public_transport":"stop_position","railway":"tram_stop","tram":"yes","wheelchair":"yes"}},{"type":"node","id":249394394,"lat":51.4574431,"lon":11.971979,"tags":{"local_ref":"A","name":"Vogelweide","public_transport":"stop_position","railway":"tram_stop","tram":"yes","wheelchair":"yes"}},{"type":"node","id":249394473,"lat":51.5192191,"lon":11.9579936,"tags":{"local_ref":"B","name":"Trotha","public_transport":"stop_position","railway":"tram_stop","tram":"yes","wheelchair":"limited"}},{"type":"node","id":249405282,"lat":51.4576216,"lon":11.9838442,"tags":{"local_ref":"A","name":"Damaschkestraße","network":"Mitteldeutscher Verkehrsverbund","operator":"Hallesche Verkehrs-AG","public_transport":"stop_position","railway":"tram_stop","tactile_paving":"no","tram":"yes","wheelchair":"limited"}},{"type":"node","id":249405291,"lat":51.4245098,"lon":11.9864663,"tags":{"local_ref":"B","name":"Ammendorf","public_transport":"stop_position","railway":"tram_stop","tram":"yes","wheelchair":"yes"}},{"type":"node","id":249405401,"lat":51.4350357,"lon":11.9841344,"tags":{"local_ref":"A","name":"Am Sommerbad","public_transport":"stop_position","railway":"tram_stop","tram":"yes","wheelchair":"yes"}},{"type":"node","id":249405407,"lat":51.4380758,"lon":11.9840473,"tags":{"local_ref":"B","name":"Betriebshof Rosengarten","public_transport":"stop_position","railway":"tram_stop","tram":"yes","wheelchair":"no"}},{"type":"node","id":249405408,"lat":51.4399904,"lon":11.9840625,"tags":{"local_ref":"A","name":"Betriebshof Rosengarten","public_transport":"stop_position","railway":"tram_stop","tram":"yes","wheelchair":"no"}},{"type":"node","id":249405430,"lat":51.4511428,"lon":11.9838885,"tags":{"local_ref":"B","name":"Theodor-Neubauer-Straße","network":"Mitteldeutscher Verkehrsverbund","operator":"Hallesche Verkehrs-AG","public_transport":"stop_position","railway":"tram_stop","tactile_paving":"yes","tram":"yes","wheelchair":"no"}},{"type":"node","id":249405434,"lat":51.456072,"lon":11.9838251,"tags":{"local_ref":"C","name":"Damaschkestraße","network":"Mitteldeutscher Verkehrsverbund","operator":"Hallesche Verkehrs-AG","public_transport":"stop_position","railway":"tram_stop","tactile_paving":"no","tram":"yes","wheelchair":"limited"}},{"type":"node","id":249405440,"lat":51.4567525,"lon":11.9780672,"tags":{"local_ref":"B","name":"Am Grünen Feld","public_transport":"stop_position","railway":"tram_stop","tram":"yes","wheelchair":"yes"}},{"type":"node","id":249405447,"lat":51.456769,"lon":11.9732564,"tags":{"local_ref":"B","name":"Vogelweide","public_transport":"stop_position","railway":"tram_stop","tram":"yes","wheelchair":"yes"}},{"type":"node","id":249431670,"lat":51.5075842,"lon":11.9276661,"tags":{"local_ref":"B","name":"Kröllwitz","public_transport":"stop_position","railway":"tram_stop","tram":"yes","wheelchair":"yes"}},{"type":"node","id":249431710,"lat":51.5040856,"lon":11.9288951,"tags":{"local_ref":"B","name":"Spechtweg","public_transport":"stop_position","railway":"tram_stop","tram":"yes","wheelchair":"yes"}},{"type":"node","id":249431731,"lat":51.5001417,"lon":11.9328782,"tags":{"local_ref":"C","name":"Heide-Universitätsklinikum","passenger_information_display":"yes","public_transport":"stop_position","railway":"tram_stop","tram":"yes","wheelchair":"yes"}},{"type":"node","id":249431998,"lat":51.4813006,"lon":11.9400658,"tags":{"local_ref":"B","name":"Hyazinthenstraße","public_transport":"stop_position","railway":"tram_stop","tram":"yes","wheelchair":"yes","wheelchair:description":"Es gibt abgesenkte Bordsteinkanten. Einsteig zur Bahn durch vorhandene Rampe in der Bahn möglich. Bitte dem Straßenbahnfahrer bescheid geben."}},{"type":"node","id":249432290,"lat":51.4794785,"lon":11.891546,"tags":{"local_ref":"B","name":"Soltauer Straße","public_transport":"stop_position","railway":"tram_stop","tram":"yes","wheelchair":"yes"}},{"type":"node","id":249432376,"lat":51.4790595,"lon":11.9039389,"tags":{"local_ref":"B","name":"An der Eselsmühle","public_transport":"stop_position","railway":"tram_stop","tram":"yes","wheelchair":"yes"}},{"type":"node","id":249432390,"lat":51.4789712,"lon":11.9145261,"tags":{"bus":"yes","highway":"bus_stop","local_ref":"B","name":"Schwimmhalle","public_transport":"stop_position","railway":"tram_stop","tram":"yes","wheelchair":"yes"}},{"type":"node","id":249432435,"lat":51.4799387,"lon":11.9275888,"tags":{"local_ref":"B","name":"Zentrum Neustadt","public_transport":"stop_position","railway":"tram_stop","tram":"yes","wheelchair":"no"}},{"type":"node","id":249432459,"lat":51.4808083,"lon":11.9340255,"tags":{"local_ref":"B","name":"An der Feuerwache","public_transport":"stop_position","railway":"tram_stop","tram":"yes","wheelchair":"yes"}},{"type":"node","id":249432512,"lat":51.4441891,"lon":11.9660861,"tags":{"layer":"1","local_ref":"A","name":"S-Bahnhof Silberhöhe","operator":"SWH.HAVAG","public_transport":"stop_position","railway":"tram_stop","tram":"yes","wheelchair":"yes"}},{"type":"node","id":249432514,"lat":51.4419024,"lon":11.9657385,"tags":{"local_ref":"A","name":"Gustav-Staude-Straße","name:etymology:wikidata":"Q1556419","operator":"SWH.HAVAG","public_transport":"stop_position","railway":"tram_stop","tram":"yes","wheelchair":"limited"}},{"type":"node","id":249432530,"lat":51.4337933,"lon":11.9639911,"tags":{"local_ref":"A","name":"Brühlstraße","operator":"SWH.HAVAG","public_transport":"stop_position","railway":"tram_stop","tram":"yes","wheelchair":"yes"}},{"type":"node","id":249432568,"lat":51.4327731,"lon":11.9670538,"tags":{"local_ref":"C","name":"Beesen","operator":"SWH.HAVAG","passenger_information_display":"yes","public_transport":"stop_position","railway":"tram_stop","tram":"yes","wheelchair":"yes"}},{"type":"node","id":249432627,"lat":51.4374972,"lon":11.9659771,"tags":{"local_ref":"A","name":"Anhalter Platz","operator":"SWH.HAVAG","public_transport":"stop_position","railway":"tram_stop","tram":"yes","wheelchair":"yes"}},{"type":"node","id":249432665,"lat":51.4453263,"lon":11.9607884,"tags":{"local_ref":"A","name":"Freyburger Straße","operator":"SWH.HAVAG","public_transport":"stop_position","railway":"tram_stop","tram":"yes","wheelchair":"yes"}},{"type":"node","id":249432759,"lat":51.4847658,"lon":11.9945421,"tags":{"local_ref":"A","name":"Betriebshof Freiimfelder Straße","public_transport":"stop_position","railway":"tram_stop","shelter":"yes","tram":"yes","wheelchair":"no"}},{"type":"node","id":249801503,"lat":51.4935243,"lon":11.9700746,"tags":{"bus":"yes","highway":"bus_stop","local_ref":"B","name":"Willy-Lohmann-Straße","public_transport":"stop_position","railway":"tram_stop","tram":"yes","wheelchair":"no"}},{"type":"node","id":249801504,"lat":51.4928118,"lon":11.9715272,"tags":{"local_ref":"A","name":"Willy-Lohmann-Straße","passenger_information_display":"yes","public_transport":"stop_position","railway":"tram_stop","tram":"yes","wheelchair":"no"}},{"type":"node","id":249801506,"lat":51.4848722,"lon":11.9803365,"tags":{"local_ref":"B","name":"Magdeburger Straße","public_transport":"stop_position","railway":"tram_stop","tram":"yes","wheelchair":"yes"}},{"type":"node","id":249801507,"lat":51.4775421,"lon":11.9854592,"tags":{"local_ref":"D","name":"Hauptbahnhof","passenger_information_display":"yes","public_transport":"stop_position","railway":"tram_stop","tram":"yes","wheelchair":"yes"}},{"type":"node","id":254034302,"lat":51.3128127,"lon":12.0364475,"tags":{"name":"Daspig","public_transport":"stop_position","railway":"tram_stop","tram":"yes"}},{"type":"node","id":254034303,"lat":51.318546,"lon":12.0320625,"tags":{"name":"Krähenberg","public_transport":"stop_position","railway":"tram_stop","tram":"yes"}},{"type":"node","id":254034304,"lat":51.3235791,"lon":12.0247122,"tags":{"name":"Sachsenplatz","public_transport":"stop_position","railway":"tram_stop","tram":"yes"}},{"type":"node","id":254034306,"lat":51.3267157,"lon":12.0202516,"tags":{"name":"Pfalzplatz","public_transport":"stop_position","railway":"tram_stop","tram":"yes"}},{"type":"node","id":254055423,"lat":51.2989699,"lon":12.0609631,"tags":{"name":"Kurpark","public_transport":"stop_position","railway":"tram_stop","tram":"yes"}},{"type":"node","id":254055428,"lat":51.2961929,"lon":12.0554888,"tags":{"name":"Kirchfährendorf","public_transport":"stop_position","railway":"tram_stop","tram":"yes"}},{"type":"node","id":254055429,"lat":51.3252705,"lon":12.0122831,"tags":{"name":"Am Haupttor","public_transport":"stop_position","railway":"tram_stop","tram":"yes"}},{"type":"node","id":254055430,"lat":51.3314363,"lon":12.0067712,"tags":{"name":"Industrietor","public_transport":"stop_position","railway":"tram_stop","tram":"yes"}},{"type":"node","id":254347158,"lat":51.3377721,"lon":11.9950045,"tags":{"local_ref":"C","name":"Leunaweg","public_transport":"stop_position","railway":"tram_stop","tram":"yes"}},{"type":"node","id":254347164,"lat":51.3375316,"lon":11.9949801,"tags":{"local_ref":"E","name":"Leunaweg","public_transport":"stop_position","railway":"tram_stop","tram":"yes"}},{"type":"node","id":256629268,"lat":51.4601143,"lon":11.983805,"tags":{"local_ref":"B","name":"BG Klinikum Bergmannstrost Halle","network":"Mitteldeutscher Verkehrsverbund","network:short":"MDV","network:wikidata":"Q1742463","operator":"Hallesche Verkehrs-AG","public_transport":"stop_position","railway":"tram_stop","ref:IFOPT":"de:15002:3943::02","tactile_paving":"yes","tram":"yes","wheelchair":"limited"}},{"type":"node","id":256629270,"lat":51.4631044,"lon":11.9837308,"tags":{"local_ref":"B","name":"Huttenstraße","network":"Mitteldeutscher Verkehrsverbund","operator":"Hallesche Verkehrs-AG","public_transport":"stop_position","railway":"tram_stop","tactile_paving":"yes","tram":"yes","wheelchair":"no"}},{"type":"node","id":256629273,"lat":51.4661528,"lon":11.9836883,"tags":{"description":"2017 Achtung: Bauarbeiten auf Linie 2. Linie 2 verkehrt nur zwischen Soltauer Straße und Veszpremer Straße, Schienenersatz mit BUS ist eingerichtet. Linie 1 verkehrt nach Beesen.","local_ref":"B","name":"Lutherstraße","public_transport":"stop_position","railway":"tram_stop","tram":"yes","wheelchair":"no"}},{"type":"node","id":256629276,"lat":51.4720013,"lon":11.9836445,"tags":{"local_ref":"A","name":"Pfännerhöhe","network":"MDV (Mitteldeutscher Verkehrsverbund)","public_transport":"stop_position","railway":"tram_stop","tactile_paving":"yes","tram":"yes","wheelchair":"no"}},{"type":"node","id":256629279,"lat":51.4931835,"lon":11.981802,"tags":{"local_ref":"A","name":"Am Wasserturm","public_transport":"stop_position","railway":"tram_stop","tram":"yes","wheelchair":"limited"}},{"type":"node","id":256702171,"lat":51.5075121,"lon":11.9279366,"tags":{"local_ref":"D","name":"Kröllwitz","public_transport":"stop_position","railway":"tram_stop","tram":"yes","wheelchair":"yes"}},{"type":"node","id":259155162,"lat":51.3005176,"lon":12.0650748,"tags":{"name":"Platz der Freiheit","public_transport":"stop_position","railway":"tram_stop","toilets:wheelchair":"no","tram":"yes","wheelchair":"yes"}},{"type":"node","id":259155205,"lat":51.3029034,"lon":12.0418271,"tags":{"name":"Leuna-Kröllwitz","public_transport":"stop_position","railway":"tram_stop","tram":"yes"}},{"type":"node","id":267258716,"lat":51.4695517,"lon":11.9836702,"tags":{"local_ref":"B","name":"Heinrich-Schütz-Straße","passenger_information_display":"yes","public_transport":"stop_position","railway":"tram_stop","tram":"yes","wheelchair":"yes"}},{"type":"node","id":268864572,"lat":51.5077015,"lon":11.9376526,"tags":{"local_ref":"B","name":"Schwuchtstraße","public_transport":"stop_position","railway":"tram_stop","tram":"yes","wheelchair":"yes"}},{"type":"node","id":268876362,"lat":51.5023896,"lon":11.9556177,"tags":{"bus":"yes","kerb":"lowered","local_ref":"C","name":"Burg Giebichenstein","passenger_information_display":"timetable","public_transport":"stop_position","railway":"tram_stop","tactile_paving":"no","tram":"yes","wheelchair":"no"}},{"type":"node","id":268928339,"lat":51.5043087,"lon":11.9668079,"tags":{"bench":"yes","bin":"yes","bus":"yes","highway":"bus_stop","local_ref":"A","name":"Kurallee","network":"Mitteldeutscher Verkehrsverbund","network:short":"MDV","network:wikidata":"Q1742463","network:wikipedia":"de:Mitteldeutscher Verkehrsverbund","operator":"HAVAG","public_transport":"stop_position","shelter":"yes","tram":"yes","wheelchair":"no"}},{"type":"node","id":268929898,"lat":51.4995116,"lon":11.96651,"tags":{"local_ref":"A","name":"Hegelstraße","passenger_information_display":"yes","public_transport":"stop_position","railway":"tram_stop","tram":"yes","wheelchair":"yes"}},{"type":"node","id":268929899,"lat":51.495905,"lon":11.9654577,"tags":{"local_ref":"C","name":"Reileck","public_transport":"stop_position","railway":"tram_stop","tram":"yes","wheelchair":"yes"}},{"type":"node","id":268932286,"lat":51.5052675,"lon":11.9597512,"tags":{"local_ref":"A","name":"Emil-Eichhorn-Straße","public_transport":"stop_position","railway":"tram_stop","tram":"yes","wheelchair":"no"}},{"type":"node","id":268937644,"lat":51.497315,"lon":11.9558705,"tags":{"local_ref":"A","name":"Volkspark","public_transport":"stop_position","railway":"tram_stop","tram":"yes","wheelchair":"no"}},{"type":"node","id":268938690,"lat":51.4940281,"lon":11.9572548,"tags":{"local_ref":"A","name":"Diakoniewerk Halle","public_transport":"stop_position","railway":"tram_stop","tram":"yes","wheelchair":"no"}},{"type":"node","id":268938692,"lat":51.4933079,"lon":11.9582505,"tags":{"local_ref":"B","name":"Diakoniewerk Halle","network":"Mitteldeutscher Verkehrsverbund","network:short":"MDV","network:wikidata":"Q1742463","operator":"HAVAG","public_transport":"stop_position","railway":"tram_stop","tram":"yes","wheelchair":"no"}},{"type":"node","id":268938694,"lat":51.4937324,"lon":11.9653707,"tags":{"local_ref":"A","name":"Mühlweg","public_transport":"stop_position","railway":"tram_stop","tram":"yes","wheelchair":"no"}},{"type":"node","id":268940200,"lat":51.4829156,"lon":11.9687255,"tags":{"addr:municipality":"Halle (Saale)","addr:postcode":"06108","bus":"yes","local_ref":"D","name":"Marktplatz","public_transport":"stop_position","railway":"tram_stop","ref":"D","tram":"yes","wheelchair":"yes"}},{"type":"node","id":268940201,"lat":51.4828009,"lon":11.9697576,"tags":{"bus":"yes","local_ref":"A","name":"Marktplatz","operator":"Hallesche Verkehrs-AG","passenger_information_display":"yes","public_transport":"stop_position","railway":"tram_stop","ref":"A","tram":"yes","wheelchair":"yes"}},{"type":"node","id":268940202,"lat":51.4823311,"lon":11.9664313,"tags":{"local_ref":"B","name":"Hallmarkt","public_transport":"stop_position","railway":"tram_stop","tram":"yes","wheelchair":"yes"}},{"type":"node","id":268941204,"lat":51.4984611,"lon":11.9352829,"tags":{"local_ref":"B","name":"Straßburger Weg","public_transport":"stop_position","railway":"tram_stop","tram":"yes","wheelchair":"yes"}},{"type":"node","id":268942309,"lat":51.4793769,"lon":11.970555,"tags":{"local_ref":"A","name":"Franckeplatz","passenger_information_display":"yes","public_transport":"stop_position","railway":"tram_stop","tram":"yes","wheelchair":"yes"}},{"type":"node","id":268943027,"lat":51.4567405,"lon":11.9708385,"tags":{"local_ref":"D","name":"Vogelweide","public_transport":"stop_position","railway":"tram_stop","tram":"yes","wheelchair":"yes"}},{"type":"node","id":268943028,"lat":51.4561964,"lon":11.9722521,"tags":{"local_ref":"C","name":"Vogelweide","public_transport":"stop_position","railway":"tram_stop","tram":"yes","wheelchair":"yes"}},{"type":"node","id":268946311,"lat":51.4522616,"lon":11.9428901,"tags":{"local_ref":"B","name":"Wörmlitz","public_transport":"stop_position","railway":"tram_stop","tram":"yes","wheelchair":"yes"}},{"type":"node","id":268946330,"lat":51.4497024,"lon":11.9502334,"tags":{"local_ref":"A","name":"S-Bahnhof Südstadt","public_transport":"stop_position","railway":"tram_stop","tram":"yes","wheelchair":"yes"}},{"type":"node","id":268947665,"lat":51.4618288,"lon":11.9501883,"tags":{"local_ref":"B","name":"Passendorfer Weg","public_transport":"stop_position","railway":"tram_stop","tram":"yes","wheelchair":"yes"}},{"type":"node","id":269548246,"lat":51.5087425,"lon":11.9618394,"tags":{"local_ref":"B","name":"Am Klausberg","public_transport":"stop_position","railway":"tram_stop","ref:IFOPT":"de:15002:4990::02","tram":"yes","wheelchair":"no"}},{"type":"node","id":269775583,"lat":51.4567883,"lon":11.9828757,"tags":{"local_ref":"B","name":"Damaschkestraße","public_transport":"stop_position","railway":"tram_stop","tram":"yes","wheelchair":"yes"}},{"type":"node","id":271384331,"lat":51.4785089,"lon":11.982118,"tags":{"local_ref":"C","name":"Riebeckplatz","name:etymology:wikidata":"Q1036681","passenger_information_display":"yes","public_transport":"stop_position","railway":"tram_stop","tram":"yes","wheelchair":"yes"}},{"type":"node","id":272083444,"lat":51.5072375,"lon":11.9450347,"tags":{"local_ref":"B","name":"Louise-Otto-Peters-Straße","public_transport":"stop_position","railway":"tram_stop","tram":"yes","wheelchair":"yes"}},{"type":"node","id":272083445,"lat":51.5062651,"lon":11.9467892,"tags":{"local_ref":"A","name":"Louise-Otto-Peters-Straße","public_transport":"stop_position","railway":"tram_stop","tram":"yes","wheelchair":"yes"}},{"type":"node","id":273184470,"lat":51.5091787,"lon":11.9946031,"tags":{"local_ref":"A","name":"Frohe Zukunft","note":"Endhaltestelle","operator":"SWH.HAVAG","public_transport":"stop_position","railway":"tram_stop","toilets:wheelchair":"no","tram":"yes","wheelchair":"no"}},{"type":"node","id":273184472,"lat":51.5087623,"lon":11.9948323,"tags":{"local_ref":"B","name":"Frohe Zukunft","note":"Ausstieg","public_transport":"stop_position","railway":"tram_stop","tram":"yes","wheelchair":"yes"}},{"type":"node","id":273184476,"lat":51.5035323,"lon":11.9879488,"tags":{"local_ref":"A","name":"Gertraudenfriedhof","operator":"Hallesche Verkehrs-AG","public_transport":"stop_position","railway":"tram_stop","tram":"yes","wheelchair":"yes"}},{"type":"node","id":273641069,"lat":51.3321048,"lon":12.0017408,"tags":{"name":"Leunatorstraße","public_transport":"stop_position","railway":"tram_stop","tram":"yes"}},{"type":"node","id":273641137,"lat":51.3557138,"lon":11.9941904,"tags":{"name":"Merseburg/Zentrum","public_transport":"stop_position","railway":"tram_stop","ref":"A","tram":"yes","wheelchair":"yes"}},{"type":"node","id":273641249,"lat":51.3822364,"lon":11.9871477,"tags":{"name":"Hohendorfer Marke","public_transport":"stop_position","railway":"tram_stop","tram":"yes"}},{"type":"node","id":273641347,"lat":51.4126048,"lon":11.9823476,"tags":{"local_ref":"A","name":"Kollenbeyer Weg","public_transport":"stop_position","railway":"tram_stop","tram":"yes"}},{"type":"node","id":274119634,"lat":51.4881719,"lon":11.994245,"tags":{"bus":"yes","highway":"bus_stop","local_ref":"B","name":"Berliner Brücke","operator":"Hallesche Verkehrs-AG","public_transport":"stop_position","railway":"tram_stop","tram":"yes","wheelchair":"yes"}},{"type":"node","id":276252494,"lat":51.4725874,"lon":11.9836025,"tags":{"local_ref":"B","name":"Pfännerhöhe","network":"MDV (Mitteldeutscher Verkehrsverbund)","passenger_information_display":"yes","public_transport":"stop_position","railway":"tram_stop","shelter":"yes","tactile_paving":"yes","tram":"yes","wheelchair":"yes"}},{"type":"node","id":290819723,"lat":51.4789786,"lon":11.920079,"tags":{"layer":"1","local_ref":"B","name":"S-Bf. Neustadt","public_transport":"stop_position","railway":"tram_stop","tram":"yes","wheelchair":"yes"}},{"type":"node","id":312937948,"lat":51.3977433,"lon":11.9767282,"tags":{"local_ref":"A","name":"Schkopau/Bunawerke","public_transport":"stop_position","railway":"tram_stop","tram":"yes"}},{"type":"node","id":312937949,"lat":51.4010385,"lon":11.9745443,"tags":{"local_ref":"A","name":"Korbethaer Straße","operator":"Havag","public_transport":"stop_position","railway":"tram_stop","tram":"yes"}},{"type":"node","id":316754143,"lat":51.4769786,"lon":11.9026668,"tags":{"local_ref":"A","name":"Göttinger Bogen","public_transport":"stop_position","railway":"tram_stop","tram":"yes","wheelchair":"yes"}},{"type":"node","id":316754189,"lat":51.4794683,"lon":11.8945997,"tags":{"local_ref":"B","name":"Mindener Straße","public_transport":"stop_position","railway":"tram_stop","tram":"yes","wheelchair":"limited"}},{"type":"node","id":316754190,"lat":51.4800658,"lon":11.8983835,"tags":{"local_ref":"B","name":"Braunschweiger Bogen","public_transport":"stop_position","railway":"tram_stop","tram":"yes","wheelchair":"yes"}},{"type":"node","id":341035551,"lat":51.4884459,"lon":11.9784794,"tags":{"local_ref":"C","name":"Am Steintor","passenger_information_display":"yes","public_transport":"stop_position","railway":"tram_stop","toilets:wheelchair":"no","tram":"yes","wheelchair":"no"}},{"type":"node","id":647023578,"lat":51.4790234,"lon":11.9079883,"tags":{"local_ref":"B","name":"Mark-Twain-Straße","public_transport":"stop_position","railway":"tram_stop","tram":"yes","wheelchair":"yes"}},{"type":"node","id":1387329923,"lat":51.4789421,"lon":11.9959005,"tags":{"local_ref":"B","name":"Freiimfelder Straße","public_transport":"stop_position","railway":"tram_stop","tram":"yes","wheelchair":"yes"}},{"type":"node","id":1388444683,"lat":51.4973981,"lon":11.9647454,"tags":{"bus":"yes","local_ref":"A","name":"Adolfstraße","public_transport":"stop_position","railway":"tram_stop","tram":"yes","wheelchair":"no"}},{"type":"node","id":1534549114,"lat":51.4783547,"lon":12.0111233,"tags":{"local_ref":"B","name":"Fiete-Schulze-Straße","public_transport":"stop_position","railway":"tram_stop","tram":"yes","wheelchair":"yes"}},{"type":"node","id":1634586925,"lat":51.3735767,"lon":11.994985,"tags":{"name":"Am Stadtpark","public_transport":"stop_position","railway":"tram_stop","tram":"yes"}},{"type":"node","id":1731945280,"lat":51.4531593,"lon":11.9728941,"tags":{"local_ref":"B","name":"Am Breiten Pfuhl","public_transport":"stop_position","railway":"tram_stop","tram":"yes","wheelchair":"yes"}},{"type":"node","id":1738419795,"lat":51.478587,"lon":12.025275,"tags":{"local_ref":"A","name":"Bitterfelder Straße","public_transport":"stop_position","railway":"tram_stop","tram":"yes","wheelchair":"yes"}},{"type":"node","id":1738419808,"lat":51.478868,"lon":12.0311981,"tags":{"local_ref":"A","name":"Käthe-Kollwitz-Straße","public_transport":"stop_position","railway":"tram_stop","tram":"yes","wheelchair":"yes"}},{"type":"node","id":1821375742,"lat":51.4667968,"lon":11.9558602,"tags":{"local_ref":"B","name":"Böllberg","public_transport":"stop_position","railway":"tram_stop","tram":"yes","wheelchair":"yes"}},{"type":"node","id":1835071447,"lat":51.4785468,"lon":12.0193414,"tags":{"local_ref":"B","name":"Alfred-Schneider-Straße","public_transport":"stop_position","railway":"tram_stop","tram":"yes","wheelchair":"yes"}},{"type":"node","id":1835071448,"lat":51.4793539,"lon":12.0348417,"tags":{"addr:city":"Halle (Saale)","addr:country":"DE","addr:postcode":"06116","addr:street":"Delitzscher Straße","addr:suburb":"Büschdorf","local_ref":"A","name":"Büschdorf","public_transport":"stop_position","railway":"tram_stop","tram":"yes","wheelchair":"yes"}},{"type":"node","id":1838967224,"lat":51.4784861,"lon":12.0050695,"tags":{"local_ref":"B","name":"Grenzstraße","public_transport":"stop_position","railway":"tram_stop","tram":"yes","wheelchair":"yes"}},{"type":"node","id":1886819022,"lat":51.478558,"lon":12.0186448,"tags":{"local_ref":"A","name":"Alfred-Schneider-Straße","public_transport":"stop_position","railway":"tram_stop","tram":"yes","wheelchair":"yes"}},{"type":"node","id":1886819023,"lat":51.4783637,"lon":12.0104123,"tags":{"local_ref":"A","name":"Fiete-Schulze-Straße","public_transport":"stop_position","railway":"tram_stop","tram":"yes"}},{"type":"node","id":1886819024,"lat":51.4786197,"lon":12.0031765,"tags":{"local_ref":"A","name":"Grenzstraße","public_transport":"stop_position","railway":"tram_stop","tram":"yes","wheelchair":"yes"}},{"type":"node","id":1889971153,"lat":51.4844258,"lon":11.9946105,"tags":{"local_ref":"B","name":"Betriebshof Freiimfelder Straße","public_transport":"stop_position","railway":"tram_stop","tram":"yes","wheelchair":"no"}},{"type":"node","id":1889971155,"lat":51.4789954,"lon":11.9935377,"tags":{"local_ref":"A","name":"Freiimfelder Straße","public_transport":"stop_position","railway":"tram_stop","tram":"yes","wheelchair":"yes"}},{"type":"node","id":1889971156,"lat":51.4785135,"lon":11.9857852,"tags":{"layer":"-1","local_ref":"A","name":"Hauptbahnhof","public_transport":"stop_position","railway":"tram_stop","tram":"yes","wheelchair":"yes"}},{"type":"node","id":1890046350,"lat":51.4881701,"lon":11.9943101,"tags":{"local_ref":"A","name":"Berliner Brücke","public_transport":"stop_position","railway":"tram_stop","tram":"yes","wheelchair":"yes"}},{"type":"node","id":1890046357,"lat":51.4898626,"lon":11.9801074,"tags":{"local_ref":"A","name":"Friesenstraße","public_transport":"stop_position","railway":"tram_stop","tram":"yes","wheelchair":"yes"}},{"type":"node","id":1890046438,"lat":51.4898214,"lon":11.9865169,"tags":{"layer":"1","local_ref":"A","name":"S-Bf. Steintorbrücke","public_transport":"stop_position","railway":"tram_stop","tram":"yes","wheelchair":"yes"}},{"type":"node","id":1890549150,"lat":51.4373904,"lon":11.9660765,"tags":{"local_ref":"B","name":"Anhalter Platz","operator":"SWH.HAVAG","public_transport":"stop_position","railway":"tram_stop","tram":"yes","wheelchair":"yes"}},{"type":"node","id":1890549152,"lat":51.4324373,"lon":11.9666529,"tags":{"local_ref":"D","name":"Beesen","operator":"SWH.HAVAG","public_transport":"stop_position","railway":"tram_stop","tram":"yes","wheelchair":"yes"}},{"type":"node","id":1890549173,"lat":51.4336588,"lon":11.9637826,"tags":{"local_ref":"B","name":"Brühlstraße","operator":"SWH.HAVAG","public_transport":"stop_position","railway":"tram_stop","tram":"yes","wheelchair":"yes"}},{"type":"node","id":1890549174,"lat":51.445274,"lon":11.9610898,"tags":{"local_ref":"b","name":"Freyburger Straße","operator":"SWH.HAVAG","public_transport":"stop_position","railway":"tram_stop","tram":"yes","wheelchair":"yes"}},{"type":"node","id":1890549175,"lat":51.4417226,"lon":11.9656568,"tags":{"local_ref":"B","name":"Gustav-Staude-Straße","name:etymology:wikidata":"Q1556419","operator":"SWH.HAVAG","public_transport":"stop_position","railway":"tram_stop","tram":"yes","wheelchair":"limited"}},{"type":"node","id":1890549545,"lat":51.4439276,"lon":11.965994,"tags":{"local_ref":"B","name":"S-Bahnhof Silberhöhe","operator":"SWH.HAVAG","public_transport":"stop_position","railway":"tram_stop","tram":"yes","wheelchair":"limited"}},{"type":"node","id":1891227710,"lat":51.4496316,"lon":11.9506436,"tags":{"local_ref":"B","name":"S-Bahnhof Südstadt","public_transport":"stop_position","railway":"tram_stop","tram":"yes","wheelchair":"yes"}},{"type":"node","id":1891227711,"lat":51.4489082,"lon":11.9597736,"tags":{"local_ref":"A","name":"Südstadt, Veszpremer Straße","operator":"HAVAG","passenger_information_display":"yes","public_transport":"stop_position","railway":"tram_stop","tram":"yes","wheelchair":"yes"}},{"type":"node","id":1891545134,"lat":51.4932705,"lon":11.9818274,"tags":{"local_ref":"B","name":"Am Wasserturm","public_transport":"stop_position","railway":"tram_stop","tram":"yes","wheelchair":"limited"}},{"type":"node","id":1891545138,"lat":51.504523,"lon":11.9892569,"tags":{"local_ref":"B","name":"Gertraudenfriedhof","public_transport":"stop_position","railway":"tram_stop","tram":"yes","wheelchair":"yes"}},{"type":"node","id":1891545141,"lat":51.5065142,"lon":11.9915626,"tags":{"local_ref":"B","name":"Kornblumenweg","public_transport":"stop_position","railway":"tram_stop","tram":"yes","wheelchair":"no"}},{"type":"node","id":1891545270,"lat":51.5007696,"lon":11.9848088,"tags":{"local_ref":"B","name":"S-Bhf. Dessauer Brücke","public_transport":"stop_position","railway":"tram_stop","tram":"yes","wheelchair":"yes"}},{"type":"node","id":1891545275,"lat":51.4964817,"lon":11.9811626,"tags":{"local_ref":"B","name":"Äußere Hordorfer Straße","public_transport":"stop_position","railway":"tram_stop","tram":"yes","wheelchair":"limited"}},{"type":"node","id":1896533549,"lat":51.4844534,"lon":11.9805713,"tags":{"local_ref":"A","name":"Magdeburger Straße","public_transport":"stop_position","railway":"tram_stop","tram":"yes","wheelchair":"no"}},{"type":"node","id":1896533665,"lat":51.4792349,"lon":11.9827933,"tags":{"local_ref":"A","name":"Riebeckplatz","passenger_information_display":"yes","public_transport":"stop_position","railway":"tram_stop","tram":"yes","wheelchair":"yes"}},{"type":"node","id":1898213131,"lat":51.4800219,"lon":11.9948344,"tags":{"local_ref":"C","name":"Freiimfelder Straße","public_transport":"stop_position","railway":"tram_stop","tram":"yes","wheelchair":"no"}},{"type":"node","id":1899098539,"lat":51.453292,"lon":11.9729116,"tags":{"local_ref":"A","name":"Am Breiten Pfuhl","public_transport":"stop_position","railway":"tram_stop","tram":"yes","wheelchair":"yes"}},{"type":"node","id":1899098540,"lat":51.4502583,"lon":11.9734839,"tags":{"local_ref":"B","name":"Elsa-Brändström-Straße","public_transport":"stop_position","railway":"tram_stop","tram":"yes","wheelchair":"yes"}},{"type":"node","id":1899098541,"lat":51.4527096,"lon":11.9611956,"tags":{"local_ref":"B","name":"Moskauer Straße","operator":"SWH.HAVAG","public_transport":"stop_position","railway":"tram_stop","tram":"yes","wheelchair":"yes"}},{"type":"node","id":1899098805,"lat":51.4495191,"lon":11.9607076,"tags":{"local_ref":"G","name":"Südstadt, Paul-Suhr-Straße","operator":"SWH.HAVAG","passenger_information_display":"yes","public_transport":"stop_position","railway":"tram_stop","tram":"yes","wheelchair":"yes"}},{"type":"node","id":1901261249,"lat":51.4567883,"lon":11.9778253,"tags":{"local_ref":"A","name":"Am Grünen Feld","public_transport":"stop_position","railway":"tram_stop","tram":"yes","wheelchair":"yes"}},{"type":"node","id":1904247360,"lat":51.4389958,"lon":11.985081,"tags":{"local_ref":"C","name":"Betriebshof Rosengarten","note":"Nur Ausstieg!","public_transport":"stop_position","railway":"tram_stop","tram":"yes","wheelchair":"yes"}},{"type":"node","id":1904781836,"lat":51.4340083,"lon":11.9841119,"tags":{"local_ref":"B","name":"Am Sommerbad","public_transport":"stop_position","railway":"tram_stop","tram":"yes","wheelchair":"yes"}},{"type":"node","id":1904781837,"lat":51.4240734,"lon":11.9862379,"tags":{"name":"Ammendorf","public_transport":"stop_position","railway":"tram_stop","tram":"yes","wheelchair":"yes"}},{"type":"node","id":1904781839,"lat":51.4245607,"lon":11.9864779,"tags":{"local_ref":"C","name":"Ammendorf","public_transport":"stop_position","railway":"tram_stop","tram":"yes","wheelchair":"yes"}},{"type":"node","id":1904781840,"lat":51.4262563,"lon":11.9849028,"tags":{"local_ref":"A","name":"Florian-Geyer-Platz","public_transport":"stop_position","railway":"tram_stop","tram":"yes","wheelchair":"no"}},{"type":"node","id":1904781843,"lat":51.4309931,"lon":11.9841944,"tags":{"local_ref":"A","name":"Kurt-Wüsteneck-Straße","public_transport":"stop_position","railway":"tram_stop","tram":"yes","wheelchair":"no"}},{"type":"node","id":1904836772,"lat":51.477567,"lon":11.9855078,"tags":{"local_ref":"C","name":"Hauptbahnhof","passenger_information_display":"yes","public_transport":"stop_position","railway":"tram_stop","tram":"yes","wheelchair":"yes"}},{"type":"node","id":1905781352,"lat":51.4634025,"lon":11.9837623,"tags":{"local_ref":"A","name":"Huttenstraße","public_transport":"stop_position","railway":"tram_stop","tram":"yes","wheelchair":"yes"}},{"type":"node","id":1905781360,"lat":51.4661617,"lon":11.9835454,"tags":{"bench":"yes","bin":"yes","bus":"yes","highway":"bus_stop","lit":"yes","local_ref":"B","name":"Lutherstraße","public_transport":"platform","shelter":"yes","tactile_paving":"no","tram":"yes","wheelchair":"no"}},{"type":"node","id":1905781364,"lat":51.4663773,"lon":11.9837215,"tags":{"local_ref":"A","name":"Lutherstraße","public_transport":"stop_position","railway":"tram_stop","tram":"yes","wheelchair":"no"}},{"type":"node","id":1905781369,"lat":51.4663787,"lon":11.9838827,"tags":{"bench":"yes","bin":"yes","check_date:bench":"2025-11-09","lit":"yes","local_ref":"A","name":"Lutherstraße","public_transport":"platform","shelter":"yes","tactile_paving":"no","tram":"yes","wheelchair":"no"}},{"type":"node","id":1905781371,"lat":51.4719996,"lon":11.9838209,"tags":{"bench":"yes","bin":"yes","lit":"yes","local_ref":"A","name":"Pfännerhöhe","public_transport":"platform","shelter":"yes","tactile_paving":"yes","tram":"yes","wheelchair":"yes"}},{"type":"node","id":1905781372,"lat":51.4725832,"lon":11.9834611,"tags":{"bench":"yes","bin":"yes","description":"2017 Achtung Bauarbeiten! Haltestelle der Gegenrichtung nutzen. Einstieg auf den Gleisen. Auf Linie 2. Linie 2 verkehrt nur zwischen Soltauer Straße und Veszpremer Straße, Schienenersatz mit BUS ist eingerichtet. Linie 1 verkehrt nach Beesen.","lit":"yes","local_ref":"B","name":"Pfännerhöhe","public_transport":"platform","shelter":"yes","tactile_paving":"yes","tram":"yes","wheelchair":"limited"}},{"type":"node","id":1905845562,"lat":51.4796627,"lon":11.9647899,"tags":{"local_ref":"B","name":"Glauchaer Platz","public_transport":"stop_position","railway":"tram_stop","tram":"yes","wheelchair":"yes"}},{"type":"node","id":1906560103,"lat":51.4783639,"lon":11.9771259,"tags":{"local_ref":"B","name":"Am Leipziger Turm","public_transport":"stop_position","railway":"tram_stop","tram":"yes","wheelchair":"yes"}},{"type":"node","id":1906560104,"lat":51.4785984,"lon":11.96926,"tags":{"local_ref":"C","name":"Franckeplatz","passenger_information_display":"yes","public_transport":"stop_position","railway":"tram_stop","tram":"yes","wheelchair":"yes"}},{"type":"node","id":1907918862,"lat":51.4785729,"lon":11.9824344,"tags":{"local_ref":"D","name":"Riebeckplatz","name:etymology:wikidata":"Q1036681","passenger_information_display":"yes","public_transport":"stop_position","railway":"tram_stop","tram":"yes","wheelchair":"yes"}},{"type":"node","id":1907960113,"lat":51.4524923,"lon":11.9428653,"tags":{"local_ref":"A","name":"Wörmlitz","public_transport":"stop_position","railway":"tram_stop","tram":"yes","wheelchair":"yes"}},{"type":"node","id":1908128847,"lat":51.4590149,"lon":11.9470719,"tags":{"local_ref":"A","name":"Diesterwegstraße","public_transport":"stop_position","railway":"tram_stop","tram":"yes","wheelchair":"yes"}},{"type":"node","id":1908128975,"lat":51.455853,"lon":11.9434344,"tags":{"local_ref":"A","name":"Wiener Straße","public_transport":"stop_position","railway":"tram_stop","tram":"yes","wheelchair":"yes"}},{"type":"node","id":1908225784,"lat":51.2989078,"lon":12.0609022,"tags":{"name":"Kurpark","public_transport":"stop_position","railway":"tram_stop","tram":"yes"}},{"type":"node","id":1908225794,"lat":51.2962987,"lon":12.0557884,"tags":{"name":"Kirchfährendorf","public_transport":"stop_position","railway":"tram_stop","tram":"yes"}},{"type":"node","id":1908225804,"lat":51.3031951,"lon":12.0415624,"tags":{"name":"Leuna-Kröllwitz","public_transport":"stop_position","railway":"tram_stop","tram":"yes"}},{"type":"node","id":1910491507,"lat":51.4669344,"lon":11.9560376,"tags":{"local_ref":"A","name":"Böllberg","public_transport":"stop_position","railway":"tram_stop","tram":"yes","wheelchair":"yes"}},{"type":"node","id":1910491508,"lat":51.4620301,"lon":11.9505044,"tags":{"local_ref":"A","name":"Passendorfer Weg","public_transport":"stop_position","railway":"tram_stop","tram":"yes","wheelchair":"yes"}},{"type":"node","id":1910585492,"lat":51.4660276,"lon":11.9699887,"tags":{"bench":"yes","bin":"yes","local_ref":"B","name":"Kantstraße","passenger_information_display":"yes","public_transport":"stop_position","railway":"tram_stop","shelter":"yes","tram":"yes","wheelchair":"yes"}},{"type":"node","id":1910585499,"lat":51.466981,"lon":11.9698726,"tags":{"bench":"yes","bin":"yes","local_ref":"A","name":"Kantstraße","passenger_information_display":"yes","public_transport":"stop_position","railway":"tram_stop","shelter":"yes","tram":"yes","wheelchair":"yes"}},{"type":"node","id":1910585500,"lat":51.470242,"lon":11.968938,"tags":{"local_ref":"B","name":"Melanchthonstraße","public_transport":"stop_position","railway":"tram_stop","tram":"yes","wheelchair":"yes"}},{"type":"node","id":1910585515,"lat":51.4704245,"lon":11.9688488,"tags":{"local_ref":"A","name":"Melanchthonstraße","passenger_information_display":"yes","public_transport":"stop_position","railway":"tram_stop","tram":"yes","wheelchair":"yes"}},{"type":"node","id":1910585574,"lat":51.4630954,"lon":11.9706534,"tags":{"local_ref":"B","name":"Robert-Koch-Straße","passenger_information_display":"yes","public_transport":"stop_position","railway":"tram_stop","tram":"yes","wheelchair":"yes"}},{"type":"node","id":1910585577,"lat":51.4635807,"lon":11.9705935,"tags":{"local_ref":"A","name":"Robert-Koch-Straße","passenger_information_display":"yes","public_transport":"stop_position","railway":"tram_stop","tram":"yes","wheelchair":"yes"}},{"type":"node","id":1910619576,"lat":51.4744929,"lon":11.9700204,"tags":{"local_ref":"A","name":"Rannischer Platz","passenger_information_display":"yes","public_transport":"stop_position","railway":"tram_stop","tram":"yes","wheelchair":"yes"}},{"type":"node","id":1910619583,"lat":51.4747225,"lon":11.9701037,"tags":{"local_ref":"B","name":"Rannischer Platz","passenger_information_display":"yes","public_transport":"stop_position","railway":"tram_stop","tram":"yes","wheelchair":"yes"}},{"type":"node","id":1911080210,"lat":51.3183196,"lon":12.0321467,"tags":{"name":"Krähenberg","public_transport":"stop_position","railway":"tram_stop","tram":"yes"}},{"type":"node","id":1911080211,"lat":51.3263296,"lon":12.0220165,"tags":{"name":"Pfalzplatz","public_transport":"stop_position","railway":"tram_stop","tram":"yes"}},{"type":"node","id":1911080255,"lat":51.3233841,"lon":12.0251033,"tags":{"name":"Sachsenplatz","public_transport":"stop_position","railway":"tram_stop","tram":"yes"}},{"type":"node","id":1911265486,"lat":51.3125298,"lon":12.0365493,"tags":{"name":"Daspig","public_transport":"stop_position","railway":"tram_stop","tram":"yes"}},{"type":"node","id":1911325573,"lat":51.3249111,"lon":12.0123809,"tags":{"name":"Am Haupttor","public_transport":"stop_position","railway":"tram_stop","tram":"yes"}},{"type":"node","id":1911325583,"lat":51.3313572,"lon":12.0074005,"tags":{"name":"Industrietor","public_transport":"stop_position","railway":"tram_stop","tram":"yes"}},{"type":"node","id":1911325586,"lat":51.331983,"lon":12.0020668,"tags":{"name":"Leunatorstraße","public_transport":"stop_position","railway":"tram_stop","tram":"yes"}},{"type":"node","id":1911325590,"lat":51.337657,"lon":11.995327,"tags":{"local_ref":"B","name":"Leunaweg","public_transport":"stop_position","railway":"tram_stop","tram":"yes"}},{"type":"node","id":1911370402,"lat":51.4768524,"lon":11.9701858,"tags":{"local_ref":"B","name":"Steinweg","passenger_information_display":"yes","public_transport":"stop_position","railway":"tram_stop","tram":"yes","wheelchair":"yes"}},{"type":"node","id":1911370404,"lat":51.4769715,"lon":11.9702175,"tags":{"local_ref":"A","name":"Steinweg","passenger_information_display":"yes","public_transport":"stop_position","railway":"tram_stop","tram":"yes","wheelchair":"limited"}},{"type":"node","id":1911384378,"lat":51.4737356,"lon":11.961517,"tags":{"local_ref":"A","name":"Kurt-Tucholsky-Straße","public_transport":"stop_position","railway":"tram_stop","toilets:wheelchair":"no","tram":"yes","wheelchair":"yes"}},{"type":"node","id":1911384379,"lat":51.4737628,"lon":11.961749,"tags":{"local_ref":"B","name":"Kurt-Tucholsky-Straße","public_transport":"stop_position","railway":"tram_stop","toilets:wheelchair":"no","tram":"yes","wheelchair":"yes"}},{"type":"node","id":1911384380,"lat":51.4703477,"lon":11.9588324,"tags":{"local_ref":"A","name":"Ludwigstraße","public_transport":"stop_position","railway":"tram_stop","tram":"yes","wheelchair":"yes"}},{"type":"node","id":1911384381,"lat":51.4702273,"lon":11.9587317,"tags":{"local_ref":"B","name":"Ludwigstraße","public_transport":"stop_position","railway":"tram_stop","tram":"yes","wheelchair":"yes"}},{"type":"node","id":1912880296,"lat":51.3554337,"lon":11.9938937,"tags":{"name":"Merseburg/Zentrum","public_transport":"stop_position","railway":"tram_stop","ref":"B","tram":"yes","wheelchair":"yes"}},{"type":"node","id":1913975845,"lat":51.3915962,"lon":11.9842777,"tags":{"name":"Schkopau, Am Schloß","network":"Mitteldeutscher Verkehrsverbund","operator":"Hallesche Verkehrs-AG","public_transport":"stop_position","railway":"tram_stop","tactile_paving":"no","tram":"yes"}},{"type":"node","id":1913975846,"lat":51.3923003,"lon":11.9835144,"tags":{"name":"Schkopau, Am Schloß","network":"Mitteldeutscher Verkehrsverbund","operator":"Hallesche Verkehrs-AG","public_transport":"stop_position","railway":"tram_stop","tactile_paving":"no","tram":"yes"}},{"type":"node","id":1913975863,"lat":51.3974056,"lon":11.9769742,"tags":{"local_ref":"B","name":"Schkopau/Bunawerke","public_transport":"stop_position","railway":"tram_stop","tram":"yes"}},{"type":"node","id":1913975867,"lat":51.3819807,"lon":11.9871529,"tags":{"name":"Hohendorfer Marke","public_transport":"stop_position","railway":"tram_stop","tram":"yes"}},{"type":"node","id":1913975869,"lat":51.4125445,"lon":11.9822782,"tags":{"local_ref":"B","name":"Kollenbeyer Weg","public_transport":"stop_position","railway":"tram_stop","tram":"yes"}},{"type":"node","id":1913975871,"lat":51.4009222,"lon":11.974476,"tags":{"local_ref":"B","name":"Korbethaer Straße","public_transport":"stop_position","railway":"tram_stop","tram":"yes"}},{"type":"node","id":1913975872,"lat":51.3870672,"lon":11.985856,"tags":{"name":"Ludwig-Uhland-Straße","public_transport":"stop_position","railway":"tram_stop","tram":"yes"}},{"type":"node","id":1913975874,"lat":51.3869889,"lon":11.9859292,"tags":{"name":"Ludwig-Uhland-Straße","public_transport":"stop_position","railway":"tram_stop","tram":"yes"}},{"type":"node","id":1914054537,"lat":51.4801289,"lon":11.8988342,"tags":{"local_ref":"A","name":"Braunschweiger Bogen","public_transport":"stop_position","railway":"tram_stop","tram":"yes","wheelchair":"yes"}},{"type":"node","id":1914054538,"lat":51.4794933,"lon":11.8950058,"tags":{"local_ref":"A","name":"Mindener Straße","public_transport":"stop_position","railway":"tram_stop","tram":"yes","wheelchair":"limited"}},{"type":"node","id":1914134392,"lat":51.479024,"lon":11.9041066,"tags":{"local_ref":"A","name":"An der Eselsmühle","public_transport":"stop_position","railway":"tram_stop","tram":"yes","wheelchair":"yes"}},{"type":"node","id":1914134394,"lat":51.4769737,"lon":11.9027626,"tags":{"local_ref":"B","name":"Göttinger Bogen","public_transport":"stop_position","railway":"tram_stop","tram":"yes","wheelchair":"yes"}},{"type":"node","id":1914134395,"lat":51.4789903,"lon":11.9081653,"tags":{"local_ref":"A","name":"Mark-Twain-Straße","name:etymology:wikidata":"Q7245","public_transport":"stop_position","railway":"tram_stop","tram":"yes","wheelchair":"yes"}},{"type":"node","id":1914152017,"lat":51.4789895,"lon":11.9206626,"tags":{"layer":"1","local_ref":"A","name":"S-Bf. Neustadt","public_transport":"stop_position","railway":"tram_stop","tram":"yes","wheelchair":"limited"}},{"type":"node","id":1914152019,"lat":51.4789305,"lon":11.9150566,"tags":{"bus":"yes","highway":"bus_stop","local_ref":"A","name":"Schwimmhalle","public_transport":"stop_position","railway":"tram_stop","tram":"yes","wheelchair":"yes"}},{"type":"node","id":1915075180,"lat":51.4808244,"lon":11.9344067,"tags":{"local_ref":"A","name":"An der Feuerwache","public_transport":"stop_position","railway":"tram_stop","tram":"yes","wheelchair":"yes","wheelchair:description":"Es gibt abgesenkte Bordsteinkanten. Einsteig zur Bahn durch vorhandene Rampe in der Bahn möglich. Bitte dem Straßenbahnfahrer bescheid geben."}},{"type":"node","id":1915075181,"lat":51.4812908,"lon":11.9404116,"tags":{"local_ref":"A","name":"Hyazinthenstraße","public_transport":"stop_position","railway":"tram_stop","tram":"yes","wheelchair":"yes","wheelchair:description":"Es gibt abgesenkte Bordsteinkanten. Einsteig zur Bahn durch vorhandene Rampe in der Bahn möglich. Bitte dem Straßenbahnfahrer bescheid geben."}},{"type":"node","id":1915075275,"lat":51.4799411,"lon":11.9279227,"tags":{"bus":"yes","local_ref":"A","name":"Zentrum Neustadt","public_transport":"stop_position","railway":"tram_stop","tram":"yes","wheelchair":"yes"}},{"type":"node","id":1915092044,"lat":51.4824584,"lon":11.946676,"tags":{"local_ref":"A","name":"Rennbahnkreuz","public_transport":"stop_position","railway":"tram_stop","tram":"yes","wheelchair":"yes","wheelchair:description":"Es gibt abgesenkte Bordsteinkanten. Einsteig zur Bahn durch vorhandene Rampe in der Bahn möglich. Bitte dem Straßenbahnfahrer bescheid geben."}},{"type":"node","id":1915092045,"lat":51.4832493,"lon":11.9468904,"tags":{"local_ref":"C","name":"Rennbahnkreuz","passenger_information_display":"yes","public_transport":"stop_position","railway":"tram_stop","tram":"yes","wheelchair":"yes"}},{"type":"node","id":1915619784,"lat":51.4815371,"lon":11.957426,"tags":{"local_ref":"A","name":"Saline","public_transport":"stop_position","railway":"tram_stop","toilets:wheelchair":"no","tram":"yes","wheelchair":"no","wheelchair:description":"Es gibt abgesenkte Bordsteinkanten. Einsteig zur Bahn durch vorhandene Rampe in der Bahn möglich. Bitte dem Straßenbahnfahrer Bescheid geben. An dieser Haltestelle ist der Einstieg von der Straße zu hoch und zu steil für die Rampe."}},{"type":"node","id":1915619785,"lat":51.481581,"lon":11.9568441,"tags":{"local_ref":"B","name":"Saline","public_transport":"stop_position","railway":"tram_stop","toilets:wheelchair":"no","tram":"yes","wheelchair":"no","wheelchair:description":"Es gibt abgesenkte Bordsteinkanten. Einsteig zur Bahn durch vorhandene Rampe in der Bahn möglich, bitte dem Straßenbahnfahrer Bescheid geben. An dieser Haltestelle Einstieg von der Straße: zu großer Höhenunterschied und zu steil für die Rampe."}},{"type":"node","id":1916701658,"lat":51.4862691,"lon":11.9460563,"tags":{"local_ref":"A","name":"Gimritzer Damm","passenger_information_display":"yes","public_transport":"stop_position","railway":"tram_stop","tram":"yes","wheelchair":"yes"}},{"type":"node","id":1917160021,"lat":51.5000957,"lon":11.932888,"tags":{"local_ref":"B","name":"Heide-Universitätsklinikum","passenger_information_display":"yes","public_transport":"stop_position","railway":"tram_stop","tram":"yes","wheelchair":"yes"}},{"type":"node","id":1917160387,"lat":51.4983114,"lon":11.9354453,"tags":{"local_ref":"A","name":"Straßburger Weg","public_transport":"stop_position","railway":"tram_stop","tram":"yes","wheelchair":"yes"}},{"type":"node","id":1917160395,"lat":51.4957253,"lon":11.9391947,"tags":{"local_ref":"A","name":"Weinberg Campus","passenger_information_display":"yes","public_transport":"stop_position","railway":"tram_stop","ref:IFOPT":"de:15002:5164::01","tram":"yes","wheelchair":"yes"}},{"type":"node","id":1917221184,"lat":51.5075583,"lon":11.9279349,"tags":{"local_ref":"C","name":"Kröllwitz","public_transport":"stop_position","railway":"tram_stop","tram":"yes","wheelchair":"yes"}},{"type":"node","id":1917221403,"lat":51.5039039,"lon":11.9290099,"tags":{"local_ref":"A","name":"Spechtweg","public_transport":"stop_position","railway":"tram_stop","tram":"yes","wheelchair":"yes"}},{"type":"node","id":1918311639,"lat":51.4821965,"lon":11.9632122,"tags":{"local_ref":"A","name":"Ankerstraße","public_transport":"stop_position","railway":"tram_stop","ref:IFOPT":"de:15002:5228::01","tram":"yes","wheelchair":"no"}},{"type":"node","id":1918311651,"lat":51.4823563,"lon":11.9666683,"tags":{"local_ref":"A","name":"Hallmarkt","public_transport":"stop_position","railway":"tram_stop","tram":"yes","wheelchair":"yes"}},{"type":"node","id":1918453023,"lat":51.4789073,"lon":11.9704592,"tags":{"local_ref":"B","name":"Franckeplatz","passenger_information_display":"yes","public_transport":"stop_position","railway":"tram_stop","tram":"yes","wheelchair":"yes"}},{"type":"node","id":1918453026,"lat":51.4826238,"lon":11.96984,"tags":{"addr:municipality":"Halle (Saale)","addr:postcode":"06108","local_ref":"B","name":"Marktplatz","public_transport":"stop_position","railway":"tram_stop","ref":"B","tram":"yes","wheelchair":"yes"}},{"type":"node","id":1918453027,"lat":51.4829399,"lon":11.968959,"tags":{"addr:municipality":"Halle (Saale)","addr:postcode":"06108","local_ref":"C","name":"Marktplatz","operator":"Hallesche Verkehrs-AG","passenger_information_display":"yes","public_transport":"stop_position","railway":"tram_stop","ref":"C","tram":"yes","wheelchair":"yes"}},{"type":"node","id":1918670681,"lat":51.3736449,"lon":11.9949513,"tags":{"name":"Am Stadtpark","public_transport":"stop_position","railway":"tram_stop","tram":"yes"}},{"type":"node","id":1918670682,"lat":51.3769448,"lon":11.9895198,"tags":{"name":"Stadtstadion","public_transport":"stop_position","railway":"tram_stop","tram":"yes"}},{"type":"node","id":1918670683,"lat":51.3769234,"lon":11.9892033,"tags":{"name":"Stadtstadion","public_transport":"stop_position","railway":"tram_stop","tram":"yes"}},{"type":"node","id":1918670686,"lat":51.3604163,"lon":11.9944193,"tags":{"name":"Lindenstraße","public_transport":"stop_position","railway":"tram_stop","tram":"yes","wheelchair":"yes"}},{"type":"node","id":1918670742,"lat":51.3616185,"lon":11.9944434,"tags":{"name":"Lindenstraße","public_transport":"stop_position","railway":"tram_stop","tram":"yes","wheelchair":"yes"}},{"type":"node","id":1919990554,"lat":51.488047,"lon":11.9774067,"tags":{"local_ref":"A","name":"Am Steintor","passenger_information_display":"yes","public_transport":"stop_position","railway":"tram_stop","tram":"yes","wheelchair":"yes"}},{"type":"node","id":1919990719,"lat":51.4847304,"lon":11.973119,"tags":{"local_ref":"A","name":"Joliot-Curie-Platz","public_transport":"stop_position","railway":"tram_stop","ref":"de:15002:5221::01","tram":"yes","wheelchair":"yes"}},{"type":"node","id":1919990830,"lat":51.4884514,"lon":11.9785205,"tags":{"local_ref":"D","name":"Am Steintor","passenger_information_display":"yes","public_transport":"stop_position","railway":"tram_stop","toilets:wheelchair":"no","tram":"yes","wheelchair":"no"}},{"type":"node","id":1922037553,"lat":51.4965173,"lon":11.9662933,"tags":{"bus":"yes","highway":"bus_stop","local_ref":"A","name":"Reileck","public_transport":"stop_position","railway":"tram_stop","tram":"yes","wheelchair":"no"}},{"type":"node","id":1922338658,"lat":51.4984276,"lon":11.9628551,"tags":{"local_ref":"B","name":"Landesmuseum für Vorgeschichte","name:de":"Landesmuseum für Vorgeschichte","public_transport":"stop_position","railway":"tram_stop","tram":"yes","wheelchair":"no"}},{"type":"node","id":1922346383,"lat":51.4982981,"lon":11.9628124,"tags":{"bench":"yes","bin":"yes","departures_board":"timetable","lit":"yes","local_ref":"A","name":"Landesmuseum für Vorgeschichte","public_transport":"platform","ref:IFOPT":"de:15002:5003::01","shelter":"no","tactile_paving":"no","tram":"yes","vending":"newspapers","wheelchair":"no"}},{"type":"node","id":1922457261,"lat":51.5076777,"lon":11.9379848,"tags":{"local_ref":"A","name":"Schwuchtstraße","public_transport":"stop_position","railway":"tram_stop","tram":"yes","wheelchair":"yes"}},{"type":"node","id":1922457284,"lat":51.5053818,"lon":11.9508322,"tags":{"local_ref":"B","name":"Talstraße","public_transport":"stop_position","railway":"tram_stop","tram":"yes","wheelchair":"yes"}},{"type":"node","id":1922559928,"lat":51.5020919,"lon":11.9541975,"tags":{"bench":"yes","bin":"yes","lit":"yes","local_ref":"A","name":"Burg Giebichenstein","public_transport":"platform","shelter":"no","tactile_paving":"no","tram":"yes"}},{"type":"node","id":1922559929,"lat":51.5024049,"lon":11.9555845,"tags":{"bench":"no","bin":"yes","lit":"yes","local_ref":"C","name":"Burg Giebichenstein","public_transport":"platform","ref:IFOPT":"de:15002:5067::03","shelter":"no","tactile_paving":"no","tram":"yes","wheelchair":"no"}},{"type":"node","id":1922560143,"lat":51.5000694,"lon":11.9584743,"tags":{"bench":"yes","bin":"yes","lit":"yes","local_ref":"A","name":"Triftstraße","public_transport":"platform","ref:IFOPT":"de:15002:5020::01","shelter":"no","tactile_paving":"no","tram":"yes","wheelchair":"no"}},{"type":"node","id":1922560144,"lat":51.5000969,"lon":11.9584901,"tags":{"bus":"yes","local_ref":"A","name":"Triftstraße","operator":"HAVAG","public_transport":"stop_position","railway":"tram_stop","tram":"yes","wheelchair":"limited"}},{"type":"node","id":1923305623,"lat":51.4975197,"lon":11.955842,"tags":{"local_ref":"B","name":"Volkspark","public_transport":"stop_position","railway":"tram_stop","tram":"yes","wheelchair":"no"}},{"type":"node","id":1923880217,"lat":51.4909231,"lon":11.9658978,"tags":{"local_ref":"B","name":"Hermannstraße","passenger_information_display":"yes","public_transport":"stop_position","railway":"tram_stop","tram":"yes","wheelchair":"limited"}},{"type":"node","id":1923880218,"lat":51.4850158,"lon":11.9688092,"tags":{"local_ref":"B","name":"Neues Theater","passenger_information_display":"yes","public_transport":"stop_position","railway":"tram_stop","tram":"yes","wheelchair":"yes"}},{"type":"node","id":1923880234,"lat":51.4845343,"lon":11.9693562,"tags":{"local_ref":"A","name":"Neues Theater","passenger_information_display":"yes","public_transport":"stop_position","railway":"tram_stop","tram":"yes","wheelchair":"yes"}},{"type":"node","id":1924170429,"lat":51.5087384,"lon":11.9618934,"tags":{"bench":"no","bin":"yes","departures_board":"timetable","lit":"yes","local_ref":"B","name":"Am Klausberg","operator":"Hallesche Verkehrs-AG","public_transport":"platform","ref:IFOPT":"de:15002:4990::02","shelter":"no","tactile_paving":"no","tram":"yes","wheelchair":"no"}},{"type":"node","id":1924170430,"lat":51.5087462,"lon":11.9617672,"tags":{"local_ref":"A","name":"Am Klausberg","public_transport":"stop_position","railway":"tram_stop","ref:IFOPT":"de:15002:4990::01","tram":"yes","wheelchair":"no"}},{"type":"node","id":1924170431,"lat":51.5087479,"lon":11.9617102,"tags":{"bench":"yes","bin":"yes","departures_board":"timetable","lit":"yes","local_ref":"A","name":"Am Klausberg","operator":"Hallesche Verkehrs-AG","public_transport":"platform","ref:IFOPT":"de:15002:4990::01","shelter":"no","tactile_paving":"no","tram":"yes","wheelchair":"no"}},{"type":"node","id":1924170432,"lat":51.5131985,"lon":11.9586942,"tags":{"local_ref":"B","name":"Pfarrstraße","public_transport":"stop_position","railway":"tram_stop","tram":"yes","wheelchair":"no"}},{"type":"node","id":1924170762,"lat":51.5105914,"lon":11.961503,"tags":{"local_ref":"A","name":"Seebener Straße","public_transport":"stop_position","railway":"tram_stop","toilets:wheelchair":"no","tram":"yes","wheelchair":"no"}},{"type":"node","id":1924170763,"lat":51.5106185,"lon":11.9613301,"tags":{"bench":"yes","bin":"yes","bus":"yes","check_date:bench":"2025-02-21","highway":"bus_stop","lit":"yes","local_ref":"C","name":"Seebener Straße","network":"Mitteldeutscher Verkehrsverbund","operator":"Hallesche Verkehrs-AG","public_transport":"platform","shelter":"no","tactile_paving":"no","toilets:wheelchair":"no","wheelchair":"no"}},{"type":"node","id":1924170776,"lat":51.5192199,"lon":11.9579265,"tags":{"local_ref":"A","name":"Trotha","public_transport":"stop_position","railway":"tram_stop","tram":"yes","wheelchair":"limited"}},{"type":"node","id":1924170787,"lat":51.5192248,"lon":11.9580743,"tags":{"local_ref":"C","name":"Trotha","public_transport":"stop_position","railway":"tram_stop","tram":"yes","wheelchair":"limited"}},{"type":"node","id":1924232860,"lat":51.4995663,"lon":11.9665622,"tags":{"local_ref":"B","name":"Hegelstraße","public_transport":"stop_position","railway":"tram_stop","tram":"yes","wheelchair":"yes"}},{"type":"node","id":1924232868,"lat":51.5036784,"lon":11.9668271,"tags":{"bench":"yes","bus":"yes","highway":"bus_stop","local_ref":"B","name":"Kurallee","public_transport":"stop_position","railway":"tram_stop","tram":"yes","wheelchair":"no"}},{"type":"node","id":1924233146,"lat":51.5065814,"lon":11.9655598,"tags":{"local_ref":"A","name":"Zoo","public_transport":"stop_position","railway":"tram_stop","tram":"yes","wheelchair":"no"}},{"type":"node","id":1927108757,"lat":51.5052493,"lon":11.9598336,"tags":{"bench":"yes","bin":"yes","lit":"yes","local_ref":"B","name":"Emil-Eichhorn-Straße","operator":"Hallesche Verkehrs-AG","public_transport":"platform","shelter":"no","tactile_paving":"no","tram":"yes","wheelchair":"no"}},{"type":"node","id":1927108758,"lat":51.5052531,"lon":11.9598076,"tags":{"local_ref":"B","name":"Emil-Eichhorn-Straße","public_transport":"stop_position","railway":"tram_stop","tram":"yes","wheelchair":"no"}},{"type":"node","id":1927108759,"lat":51.50528,"lon":11.9597193,"tags":{"bench":"yes","bin":"yes","check_date":"2024-10-20","check_date:shelter":"2024-10-20","lit":"yes","local_ref":"A","mapillary":"292252629241560","name":"Emil-Eichhorn-Straße","operator":"Hallesche Verkehrs-AG","pole":"yes","public_transport":"platform","ref:IFOPT":"de:15002:5188::01","shelter":"no","tactile_paving":"no","tram":"yes","wheelchair":"no"}},{"type":"node","id":1927197249,"lat":51.4933522,"lon":11.9582231,"tags":{"bench":"yes","bin":"yes","lit":"yes","local_ref":"B","name":"Diakoniewerk Halle","operator":"Hallesche Verkehrs-AG","public_transport":"platform","ref:IFOPT":"de:15002:5086::02","shelter":"no","tactile_paving":"no","tram":"yes","wheelchair":"no"}},{"type":"node","id":1927197250,"lat":51.4940145,"lon":11.957181,"tags":{"bench":"yes","bin":"yes","lit":"yes","local_ref":"A","name":"Diakoniewerk Halle","operator":"Hallesche Verkehrs-AG","public_transport":"platform","ref:IFOPT":"de:15002:5086::01","shelter":"yes","tactile_paving":"no","tram":"yes","wheelchair":"no"}},{"type":"node","id":1927197251,"lat":51.4936851,"lon":11.9653772,"tags":{"bench":"yes","bin":"yes","kerb":"raised","kerb:approach_aid":"no","lit":"yes","local_ref":"A","name":"Mühlweg","operator":"Hallesche Verkehrs-AG","passenger_information_display":"no","public_transport":"platform","ref:IFOPT":"de:15002:5007::01","shelter":"no","tactile_paving":"no","tram":"yes","wheelchair":"no"}},{"type":"node","id":1927197252,"lat":51.4937322,"lon":11.9647939,"tags":{"local_ref":"B","name":"Mühlweg","public_transport":"stop_position","railway":"tram_stop","tram":"yes","wheelchair":"no"}},{"type":"node","id":1927197253,"lat":51.4937474,"lon":11.9647817,"tags":{"bench":"yes","bin":"yes","departures_board":"timetable","kerb":"raised","kerb:approach_aid":"no","lit":"no","local_ref":"B","name":"Mühlweg","operator":"Hallesche Verkehrs-AG","passenger_information_display":"no","public_transport":"platform","ref:IFOPT":"de:15002:5007::02","shelter":"no","tactile_paving":"no","tram":"yes","wheelchair":"no"}},{"type":"node","id":1927197255,"lat":51.4972946,"lon":11.9557613,"tags":{"bench":"yes","bin":"yes","kerb":"raised","kerb:approach_aid":"no","lit":"yes","local_ref":"A","name":"Volkspark","operator":"Hallesche Verkehrs-AG","passenger_information_display":"no","public_transport":"platform","ref:IFOPT":"de:15002:5186::01","shelter":"yes","tactile_paving":"no","tram":"yes","wheelchair":"no"}},{"type":"node","id":1927197256,"lat":51.4975008,"lon":11.9558971,"tags":{"bench":"no","bin":"yes","kerb":"raised","kerb:approach_aid":"no","lit":"yes","local_ref":"B","mapillary":"936726540205128","name":"Volkspark","operator":"Hallesche Verkehrs-AG","passenger_information_display":"no","pole":"yes","public_transport":"platform","ref:IFOPT":"de:15002:5186::02","shelter":"no","survey:date":"2018-08-19","tactile_paving":"no","tram":"yes","wheelchair":"no"}},{"type":"node","id":2024716163,"lat":51.3695661,"lon":11.9944424,"tags":{"name":"Slawenweg","public_transport":"stop_position","railway":"tram_stop","tram":"yes"}},{"type":"node","id":2024716170,"lat":51.3697654,"lon":11.9944212,"tags":{"name":"Slawenweg","public_transport":"stop_position","railway":"tram_stop","tram":"yes"}},{"type":"node","id":2126183278,"lat":51.3449771,"lon":11.9950116,"tags":{"name":"Merseburg, Haeckelstraße","network":"Mitteldeutscher Verkehrsverbund","operator":"Hallesche Verkehrs-AG","public_transport":"stop_position","railway":"tram_stop","tactile_paving":"no","tram":"yes"}},{"type":"node","id":2126183279,"lat":51.3450019,"lon":11.9950519,"tags":{"name":"Merseburg, Haeckelstraße","network":"Mitteldeutscher Verkehrsverbund","operator":"Hallesche Verkehrs-AG","public_transport":"stop_position","railway":"tram_stop","tactile_paving":"no","tram":"yes"}},{"type":"node","id":2133719723,"lat":51.483836,"lon":11.9701807,"tags":{"local_ref":"A","name":"Kleinschmieden","on_demand":"yes","public_transport":"stop_position","railway":"tram_stop","tram":"yes","wheelchair":"yes"}},{"type":"node","id":2285777494,"lat":51.3041502,"lon":12.0699473,"tags":{"gtfs:stop_id":"000005043","name":"Bad Dürrenberg, Bahnhof","network":"Mitteldeutscher Verkehrsverbund","network:short":"MDV","network:wikidata":"Q1742463","public_transport":"stop_position","railway":"tram_stop","tram":"yes"}},{"type":"node","id":2505189654,"lat":51.3650693,"lon":11.9943657,"tags":{"name":"Carl-von-Basedow-Klinikum","public_transport":"stop_position","railway":"tram_stop","tram":"yes","wheelchair":"yes"}},{"type":"node","id":2505189672,"lat":51.3653433,"lon":11.994529,"tags":{"name":"Carl-von-Basedow-Klinikum","public_transport":"stop_position","railway":"tram_stop","tram":"yes","wheelchair":"yes"}},{"type":"node","id":4737729822,"lat":51.4489704,"lon":11.9595782,"tags":{"local_ref":"B","name":"Südstadt, Veszpremer Straße","operator":"HAVAG","public_transport":"stop_position","railway":"tram_stop","tram":"yes","wheelchair":"yes"}},{"type":"node","id":6252462083,"lat":51.4947743,"lon":11.9661841,"tags":{"local_ref":"D","name":"Reileck","passenger_information_display":"yes","public_transport":"stop_position","railway":"tram_stop","tram":"yes","wheelchair":"no"}},{"type":"node","id":7123637544,"lat":51.4310105,"lon":11.9841572,"tags":{"local_ref":"B","name":"Kurt-Wüsteneck-Straße","public_transport":"stop_position","railway":"tram_stop","tram":"yes","wheelchair":"no"}},{"type":"node","id":7954156753,"lat":51.4686575,"lon":11.9837122,"tags":{"addr:city":"Halle (Saale)","addr:country":"DE","local_ref":"A","name":"Heinrich-Schütz-Straße","network":"MDV","operator":"HAVAG","passenger_information_display":"yes","public_transport":"stop_position","railway":"tram_stop","tram":"yes"}},{"type":"node","id":8343660052,"lat":51.5105908,"lon":11.961501,"tags":{"local_ref":"A","name":"Seebener Straße","public_transport":"stop_position","railway":"tram_stop","toilets:wheelchair":"no","tram":"yes","wheelchair":"no"}},{"type":"node","id":8635471443,"lat":51.3033218,"lon":12.0705162,"tags":{"gtfs:stop_id":"000000692","local_ref":"A","name":"Bad Dürrenberg, Markt","network":"Mitteldeutscher Verkehrsverbund","network:short":"MDV","network:wikidata":"Q1742463","public_transport":"stop_position","railway":"tram_stop","tram":"yes"}},{"type":"node","id":8830027192,"lat":51.3007164,"lon":12.0652684,"tags":{"name":"Platz der Freiheit","public_transport":"stop_position","railway":"tram_stop","toilets:wheelchair":"no","tram":"yes","wheelchair":"yes"}},{"type":"node","id":9074945754,"lat":51.4912862,"lon":11.9659029,"tags":{"bench":"yes","bus":"yes","departures_board":"timetable","local_ref":"A","name":"Hermannstraße","operator":"HAVAG","passenger_information_display":"yes","public_transport":"stop_position","railway":"tram_stop","shelter":"no","tram":"yes","wheelchair":"limited"}},{"type":"node","id":9215929970,"lat":51.4983006,"lon":11.962862,"tags":{"bus":"yes","local_ref":"A","name":"Landesmuseum für Vorgeschichte","name:de":"Landesmuseum für Vorgeschichte","phone":"+49 345 524730","public_transport":"stop_position","railway":"tram_stop","tram":"yes","website":"https://www.lda-lsa.de/landesmuseum_fuer_vorgeschichte/","wheelchair":"no","wheelchair:description":"Zugang: Schräge am Seiteneingang. Behindertengerechtes WC im Erdgeschoss. Teilweise kleine Schwellen in den Ausstellungsräumen, Aufzug in alle Etagen."}},{"type":"node","id":9549454573,"lat":51.3449848,"lon":11.9949309,"tags":{"bench":"no","bin":"yes","bus":"yes","highway":"bus_stop","lit":"yes","name":"Merseburg, Haeckelstraße","network":"Mitteldeutscher Verkehrsverbund","network:short":"MDV","operator":"PNVG Merseburg-Querfurt","public_transport":"platform","route_ref":"744;745","shelter":"no","tactile_paving":"no","wheelchair":"no"}},{"type":"node","id":10017532471,"lat":51.5077012,"lon":11.9627987,"tags":{"bench":"no","bin":"yes","lit":"yes","local_ref":"B","name":"Geschwister-Scholl-Straße","public_transport":"platform","shelter":"no","tactile_paving":"no","wheelchair":"no"}},{"type":"node","id":10017532472,"lat":51.5075885,"lon":11.9627092,"tags":{"bench":"no","bin":"yes","lit":"yes","local_ref":"A","name":"Geschwister-Scholl-Straße","public_transport":"platform","shelter":"no","tactile_paving":"no","wheelchair":"no"}},{"type":"node","id":10017532473,"lat":51.5076041,"lon":11.9627009,"tags":{"local_ref":"A","name":"Geschwister-Scholl-Straße","public_transport":"stop_position","railway":"tram_stop","tram":"yes","wheelchair":"no"}},{"type":"node","id":10017532474,"lat":51.5076673,"lon":11.9628238,"tags":{"local_ref":"B","name":"Geschwister-Scholl-Straße","public_transport":"stop_position","railway":"tram_stop","tram":"yes","wheelchair":"no"}},{"type":"node","id":10017532475,"lat":51.5028229,"lon":11.9569136,"tags":{"local_ref":"A","name":"Historisches Straßenbahndepot","public_transport":"stop_position","railway":"tram_stop","tram":"yes","wheelchair":"no"}},{"type":"node","id":10017532476,"lat":51.5028813,"lon":11.9569297,"tags":{"bench":"no","bin":"yes","check_date:bench":"2025-02-18","lit":"yes","local_ref":"A","name":"Historisches Straßenbahndepot","public_transport":"platform","shelter":"no","tactile_paving":"no","wheelchair":"no"}},{"type":"node","id":10017532477,"lat":51.5028943,"lon":11.9571713,"tags":{"bench":"no","bin":"yes","check_date:bench":"2025-02-18","lit":"yes","local_ref":"C","name":"Historisches Straßenbahndepot","public_transport":"platform","shelter":"no","tactile_paving":"no","wheelchair":"no"}},{"type":"node","id":10017532478,"lat":51.5029057,"lon":11.9571504,"tags":{"local_ref":"B","name":"Historisches Straßenbahndepot","public_transport":"stop_position","railway":"tram_stop","tram":"yes","wheelchair":"no"}},{"type":"node","id":10658462868,"lat":51.4474647,"lon":11.9839948,"tags":{"local_ref":"A","name":"S-Bahnhof Rosengarten","network":"Mitteldeutscher Verkehrsverbund","network:short":"MDV","network:wikidata":"Q1742463","operator":"Hallesche Verkehrs-AG","public_transport":"stop_position","railway":"tram_stop","tactile_paving":"no","tram":"yes"}},{"type":"node","id":10658462869,"lat":51.4474687,"lon":11.9839569,"tags":{"local_ref":"B","name":"S-Bahnhof Rosengarten","network":"Mitteldeutscher Verkehrsverbund","network:short":"MDV","network:wikidata":"Q1742463","operator":"Hallesche Verkehrs-AG","public_transport":"stop_position","railway":"tram_stop","tactile_paving":"no","tram":"yes"}},{"type":"node","id":10670154933,"lat":51.4604014,"lon":11.9838356,"tags":{"lit":"yes","local_ref":"A","name":"BG Klinikum Bergmannstrost Halle","network":"Mitteldeutscher Verkehrsverbund","network:short":"MDV","network:wikidata":"Q1742463","operator":"Hallesche Verkehrs-AG","public_transport":"stop_position","railway":"tram_stop","ref:IFOPT":"de:15002:3943::01","tactile_paving":"yes","tram":"yes","wheelchair":"yes"}},{"type":"node","id":10670368200,"lat":51.4514335,"lon":11.9839258,"tags":{"lit":"yes","local_ref":"A","name":"Theodor-Neubauer-Straße","network":"Mitteldeutscher Verkehrsverbund","network:short":"MDV","network:wikidata":"Q1742463","operator":"Hallesche Verkehrs-AG","public_transport":"stop_position","railway":"tram_stop","tactile_paving":"yes","tram":"yes","wheelchair":"yes"}},{"type":"node","id":10832810186,"lat":51.3376474,"lon":11.9952149,"tags":{"bench":"yes","bin":"yes","lit":"no","local_ref":"B","name":"Leunaweg","public_transport":"platform","shelter":"partial","shelter:description":"just metal frame and roof; no glass panes","tactile_paving":"no","tram":"yes"}},{"type":"node","id":10832810189,"lat":51.3376001,"lon":11.9950258,"tags":{"bench":"no","bin":"no","departures_board":"timetable","lit":"no","local_ref":"E","name":"Leunaweg","public_transport":"platform","shelter":"no","tactile_paving":"no","tram":"yes"}},{"type":"node","id":11183760118,"lat":51.4785942,"lon":12.0255532,"tags":{"local_ref":"B","name":"Bitterfelder Straße","public_transport":"stop_position","railway":"tram_stop","tram":"yes","wheelchair":"yes"}},{"type":"node","id":11185909763,"lat":51.4788714,"lon":12.0315286,"tags":{"local_ref":"B","name":"Käthe-Kollwitz-Straße","public_transport":"stop_position","railway":"tram_stop","tram":"yes","wheelchair":"yes"}},{"type":"node","id":11866677619,"lat":51.3485747,"lon":11.9956769,"tags":{"bench":"yes","bin":"yes","bus":"yes","highway":"bus_stop","lit":"yes","name":"Merseburg, Herweghstraße","network":"Mitteldeutscher Verkehrsverbund","operator":"PNVG Merseburg-Querfurt","public_transport":"platform","route_ref":"745","shelter":"yes","tactile_paving":"no","wheelchair":"no"}},{"type":"node","id":11866677621,"lat":51.3485234,"lon":11.99574,"tags":{"name":"Merseburg, Herweghstraße","network":"Mitteldeutscher Verkehrsverbund","network:short":"MDV","network:wikidata":"Q1742463","operator":"Hallesche Verkehrs-AG","public_transport":"stop_position","railway":"tram_stop","tactile_paving":"no","tram":"yes"}},{"type":"node","id":11866737717,"lat":51.3485967,"lon":11.9957888,"tags":{"name":"Merseburg, Herweghstraße","network":"Mitteldeutscher Verkehrsverbund","network:short":"MDV","network:wikidata":"Q1742463","operator":"Hallesche Verkehrs-AG","public_transport":"stop_position","railway":"tram_stop","tactile_paving":"no","tram":"yes"}},{"type":"node","id":273641081,"lat":51.3379307,"lon":11.9952619,"tags":{"local_ref":"A","name":"Leunaweg","public_transport":"stop_position","railway":"tram_stop","tram":"yes","wheelchair":"yes"}},{"type":"node","id":303223131,"lat":51.3376621,"lon":11.9949096,"tags":{"local_ref":"D","name":"Leunaweg","public_transport":"stop_position","railway":"tram_stop","tram":"yes"}},{"type":"node","id":1890549156,"lat":51.4326782,"lon":11.967147,"tags":{"local_ref":"A","name":"Beesen","operator":"SWH.HAVAG","public_transport":"stop_position","railway":"tram_stop","tram":"yes","wheelchair":"yes"}},{"type":"node","id":1890549171,"lat":51.4327384,"lon":11.9671265,"tags":{"local_ref":"B","name":"Beesen","operator":"SWH.HAVAG","public_transport":"stop_position","railway":"tram_stop","tram":"yes","wheelchair":"yes"}},{"type":"node","id":1897772765,"lat":51.4793934,"lon":12.0347835,"tags":{"addr:city":"Halle (Saale)","addr:country":"DE","addr:postcode":"06116","addr:street":"Delitzscher Straße","addr:suburb":"Büschdorf","local_ref":"B","name":"Büschdorf","public_transport":"stop_position","railway":"tram_stop","tram":"yes","wheelchair":"yes"}},{"type":"node","id":1904781838,"lat":51.4244474,"lon":11.9865659,"tags":{"local_ref":"A","name":"Ammendorf","public_transport":"stop_position","railway":"tram_stop","tram":"yes","wheelchair":"yes"}},{"type":"node","id":1910491506,"lat":51.4667482,"lon":11.9563437,"tags":{"local_ref":"C","name":"Böllberg","public_transport":"stop_position","railway":"tram_stop","toilets:wheelchair":"no","tram":"yes","wheelchair":"yes"}},{"type":"node","id":1912880295,"lat":51.3554527,"lon":11.9938225,"tags":{"designation":"15","name":"Merseburg/Zentrum","public_transport":"stop_position","railway":"tram_stop","ref":"C","tram":"yes","wheelchair":"yes"}},{"type":"node","id":1914027944,"lat":51.4795202,"lon":11.89159,"tags":{"local_ref":"A","name":"Soltauer Straße","public_transport":"stop_position","railway":"tram_stop","tram":"yes","wheelchair":"yes"}},{"type":"node","id":1917160016,"lat":51.5000628,"lon":11.9328311,"tags":{"local_ref":"A","name":"Heide-Universitätsklinikum","passenger_information_display":"yes","public_transport":"stop_position","railway":"tram_stop","tram":"yes","wheelchair":"yes"}},{"type":"node","id":1917221196,"lat":51.507633,"lon":11.9276655,"tags":{"local_ref":"A","name":"Kröllwitz","public_transport":"stop_position","railway":"tram_stop","tram":"yes","wheelchair":"yes"}},{"type":"node","id":5438683069,"lat":51.3347047,"lon":11.991997,"tags":{"local_ref":"A","name":"Kötzschener Weg","public_transport":"stop_position","railway":"tram_stop","tram":"yes","wheelchair":"no"}},{"type":"node","id":6870959129,"lat":51.3375219,"lon":11.995084,"tags":{"local_ref":"F","name":"Leunaweg","public_transport":"stop_position","railway":"tram_stop","tram":"yes"}},{"type":"node","id":8653894009,"lat":51.3547486,"lon":11.9932032,"tags":{"name":"Merseburg/Zentrum Bedarfshalt","public_transport":"stop_position","railway":"tram_stop","tram":"yes","wheelchair":"yes"}},{"type":"node","id":10832479627,"lat":51.4855358,"lon":11.9945034,"tags":{"local_ref":"D","name":"Betriebshof Freiimfelder Straße","public_transport":"stop_position","railway":"tram_stop","tram":"yes","wheelchair":"no"}},{"type":"node","id":10832479628,"lat":51.4855365,"lon":11.9945487,"tags":{"local_ref":"E","name":"Betriebshof Freiimfelder Straße","public_transport":"stop_position","railway":"tram_stop","tram":"yes","wheelchair":"no"}},{"type":"node","id":10832479633,"lat":51.4877018,"lon":11.9953562,"tags":{"name":"Betriebshaltestelle","public_transport":"stop_position","railway":"tram_stop","tram":"yes"}},{"type":"node","id":10832479634,"lat":51.4876924,"lon":11.9956107,"tags":{"name":"Betriebshaltestelle","public_transport":"stop_position","railway":"tram_stop","tram":"yes"}},{"type":"node","id":12163558450,"lat":51.4904384,"lon":11.944437,"tags":{"name":"Blücherstraße/Peißnitzinsel","public_transport":"stop_position","railway":"tram_stop","tram":"yes"}},{"type":"node","id":12163558451,"lat":51.4902009,"lon":11.9444839,"tags":{"name":"Blücherstraße/Peißnitzinsel","public_transport":"stop_position","railway":"tram_stop","tram":"yes"}}]}