{"version":0.6,"generator":"Overpass API 0.7.62.11 87bfad18","osm3s":{"timestamp_osm_base":"2026-07-10T13:57:00Z","copyright":"The data included in this document is from www.openstreetmap.org. The data is made available under ODbL."},"elements":[{"type":"node","id":7944666582,"lat":25.5847457,"lon":85.1635946,"tags":{"name":"Khemnichak","public_transport":"station","railway":"station","station":"subway","subway":"yes","wikidata":"Q135412343"}},{"type":"node","id":7944685821,"lat":25.5856705,"lon":85.1867521,"tags":{"name":"Zero Mile","name:hi":"ज़ीरो माइल","public_transport":"station","railway":"station","station":"subway","subway":"yes","wikidata":"Q135412302"}},{"type":"node","id":7944687362,"lat":25.5854746,"lon":85.1735758,"tags":{"name":"Bhootnath","name:hi":"भूतनाथ","public_transport":"station","railway":"station","station":"subway","subway":"yes","wikidata":"Q135412342"}},{"type":"node","id":13234324356,"lat":25.5763224,"lon":85.1897525,"tags":{"name":"Patliputra Bus Terminal","name:hi":"पाटलिपुत्र बस टर्मिनल","public_transport":"station","railway":"station","station":"subway","subway":"yes"}},{"type":"node","id":13234324383,"lat":25.5935082,"lon":85.1571167,"tags":{"name":"Malahi Pakri","public_transport":"station","railway":"station","station":"subway","subway":"yes","wikidata":"Q135412326"}}]}