{"elements":[{"type":"node","id":897590757,"lat":56.5255611,"lon":21.0302334,"tags":{"bench":"yes","highway":"bus_stop","name":"Brīvības iela","public_transport":"platform","railway":"tram_stop","shelter":"yes","tram":"yes"}},{"type":"node","id":904214120,"lat":56.5048835,"lon":21.0066679,"tags":{"name":"Pētertirgus","public_transport":"stop_position","railway":"tram_stop","tram":"yes"}},{"type":"node","id":1457719509,"lat":56.4917068,"lon":21.0053918,"tags":{"name":"Ventas iela","public_transport":"stop_position","railway":"tram_stop","tram":"yes"}},{"type":"node","id":2633774441,"lat":56.4817339,"lon":21.0267451,"tags":{"name":"Mirdzas Ķempes iela","public_transport":"stop_position","railway":"tram_stop","tram":"yes"}},{"type":"node","id":2958667249,"lat":56.49088,"lon":21.0054817,"tags":{"name":"Ventas iela","public_transport":"stop_position","railway":"tram_stop","tram":"yes"}},{"type":"node","id":3647433080,"lat":56.5202527,"lon":21.0161513,"tags":{"name":"Olimpiskais centrs","public_transport":"stop_position","railway":"tram_stop","tram":"yes"}},{"type":"node","id":4347409456,"lat":56.4871576,"lon":21.0093524,"tags":{"name":"Tukuma iela","public_transport":"stop_position","railway":"tram_stop","tram":"yes"}},{"type":"node","id":4347409457,"lat":56.4872225,"lon":21.0100325,"tags":{"name":"Tukuma iela","public_transport":"stop_position","railway":"tram_stop","tram":"yes"}},{"type":"node","id":4435017962,"lat":56.5231751,"lon":21.0169256,"tags":{"name":"Stacija","public_transport":"stop_position","railway":"tram_stop","tram":"yes"}},{"type":"node","id":4435017963,"lat":56.5236795,"lon":21.0180671,"tags":{"name":"Stacija","public_transport":"stop_position","railway":"tram_stop","tram":"yes"}},{"type":"node","id":4435035971,"lat":56.4974336,"lon":21.0064676,"tags":{"name":"Līvas laukums","public_transport":"stop_position","railway":"tram_stop","tram":"yes"}},{"type":"node","id":4435035972,"lat":56.4979946,"lon":21.0067157,"tags":{"name":"Līvas laukums","public_transport":"stop_position","railway":"tram_stop","tram":"yes"}},{"type":"node","id":4435066860,"lat":56.5054586,"lon":21.0068111,"tags":{"name":"Pētertirgus","public_transport":"stop_position","railway":"tram_stop","tram":"yes"}},{"type":"node","id":4435084037,"lat":56.487273,"lon":21.0056608,"tags":{"name":"Klaipēdas iela","public_transport":"stop_position","railway":"tram_stop","tram":"yes"}},{"type":"node","id":4435084040,"lat":56.4870105,"lon":21.0056332,"tags":{"name":"Klaipēdas iela","public_transport":"stop_position","railway":"tram_stop","tram":"yes"}},{"type":"node","id":4435104046,"lat":56.4827777,"lon":21.0212483,"tags":{"name":"Cieceres iela","public_transport":"stop_position","railway":"tram_stop","tram":"yes"}},{"type":"node","id":4435104049,"lat":56.4818986,"lon":21.0259937,"tags":{"name":"Mirdzas Ķempes iela","public_transport":"stop_position","railway":"tram_stop","tram":"yes"}},{"type":"node","id":4435105197,"lat":56.483772,"lon":21.0158124,"tags":{"name":"Ganību iela","public_transport":"stop_position","railway":"tram_stop","tram":"yes"}},{"type":"node","id":4435105200,"lat":56.4836279,"lon":21.0164593,"tags":{"name":"Ganību iela","public_transport":"stop_position","railway":"tram_stop","tram":"yes"}},{"type":"node","id":4435114122,"lat":56.4826235,"lon":21.0219616,"tags":{"name":"Cieceres iela","public_transport":"stop_position","railway":"tram_stop","tram":"yes"}},{"type":"node","id":4444529467,"lat":56.4851378,"lon":21.0130366,"tags":{"name":"Vaiņodes iela","public_transport":"stop_position","railway":"tram_stop","tram":"yes"}},{"type":"node","id":4444529468,"lat":56.4854114,"lon":21.0127416,"tags":{"name":"Vaiņodes iela","public_transport":"stop_position","railway":"tram_stop","tram":"yes"}},{"type":"node","id":4448132471,"lat":56.5006353,"lon":21.0062103,"tags":{"name":"Jūrmalas iela","public_transport":"stop_position","railway":"tram_stop","tram":"yes"}},{"type":"node","id":4448137599,"lat":56.5008912,"lon":21.0062074,"tags":{"name":"Jūrmalas iela","public_transport":"stop_position","railway":"tram_stop","tram":"yes"}},{"type":"node","id":4592664077,"lat":56.5241739,"lon":21.0271023,"tags":{"name":"Metalurgs","public_transport":"stop_position","railway":"tram_stop","tram":"yes"}},{"type":"node","id":11012838430,"lat":56.5160534,"lon":21.0150743,"tags":{"name":"Esperanto iela","public_transport":"stop_position","railway":"tram_stop","tram":"yes"}},{"type":"node","id":11012884311,"lat":56.5206203,"lon":21.0162931,"tags":{"name":"Olimpiskais centrs","public_transport":"stop_position","railway":"tram_stop","tram":"yes"}},{"type":"node","id":11012919822,"lat":56.5109704,"lon":21.0138125,"tags":{"name":"Koncertzāle","public_transport":"stop_position","railway":"tram_stop","tram":"yes"}},{"type":"node","id":11012919823,"lat":56.5108883,"lon":21.0137593,"tags":{"name":"Koncertzāle","public_transport":"stop_position","railway":"tram_stop","tram":"yes"}}]}