{"elements":[{"type":"node","id":158304120,"lat":46.9299281,"lon":7.5303628,"tags":{"name":"Rüfenacht","network":"Libero","operator":"Bernmobil","public_transport":"stop_position","railway":"tram_stop","tram":"yes"}},{"type":"node","id":158308438,"lat":46.9307693,"lon":7.5263171,"tags":{"name":"Scheyenholz","network":"Libero","operator":"Bernmobil","public_transport":"stop_position","railway":"tram_stop","tram":"yes","uic_name":"Scheyenholz","uic_ref":"8507250"}},{"type":"node","id":223185158,"lat":46.9298597,"lon":7.5626392,"tags":{"name":"Worb Dorf","network":"Libero","network:wikidata":"Q2394193","operator":"Bernmobil","public_transport":"stop_position","railway":"tram_stop","tram":"yes","uic_name":"Worb Dorf","uic_ref":"8507063"}},{"type":"node","id":254429571,"lat":46.9344813,"lon":7.5055649,"tags":{"local_ref":"F","name":"Gümligen Bahnhof","network":"Libero","network:wikidata":"Q2394193","operator":"Bernmobil","public_transport":"stop_position","railway":"tram_stop","tram":"yes","uic_name":"Gümligen, Bahnhof (Tram)","uic_ref":"8595488"}},{"type":"node","id":254429600,"lat":46.9326728,"lon":7.5165532,"tags":{"name":"Siloah","network":"Libero","network:wikidata":"Q2394193","operator":"bernmobil","public_transport":"stop_position","railway":"tram_stop","tram":"yes","uic_name":"Gümligen, Siloah","uic_ref":"8507053"}},{"type":"node","id":255374482,"lat":46.9329433,"lon":7.4922784,"tags":{"light_rail":"yes","name":"Seidenberg","network":"Bernmobil","operator":"Bernmobil","public_transport":"stop_position","railway":"stop","tram":"yes","uic_name":"Gümligen, Seidenberg","uic_ref":"8507251"}},{"type":"node","id":275705868,"lat":46.9404753,"lon":7.4585934,"tags":{"brand":"Bernmobil","lit":"yes","local_ref":"B","name":"Thunplatz","network":"Libero","network:wikidata":"Q2394193","operator":"Bernmobil","public_transport":"stop_position","railway":"tram_stop","ref:sloid":"ch:1:sloid:89003:0:1","tactile_paving":"entrance_only","tram":"yes","uic_name":"Bern, Thunplatz","uic_ref":"8589003","wheelchair":"yes"}},{"type":"node","id":281571992,"lat":46.9317121,"lon":7.485445,"tags":{"brand":"Bernmobil","ele":"560","name":"Muri","network":"Libero","operator":"Bernmobil","public_transport":"stop_position","railway":"tram_stop","source":"BAV Bundesamt für Verkehr DIDOK 2014","tram":"yes","uic_name":"Muri bei Bern","uic_ref":"8507062","wheelchair":"yes"}},{"type":"node","id":286914585,"lat":46.9279386,"lon":7.4529416,"tags":{"departures_board":"realtime","departures_board:speech_output":"yes","lit":"yes","name":"Wabern","network":"Libero","network:wikidata":"Q2394193","network:wikipedia":"de:Libero-Tarifverbund","official_name":"Wabern, Tram-Endstation","operator":"Bernmobil","operator:official_name":"Städtische Verkehrsbetriebe Bern","operator:short":"SVB","operator:wikidata":"Q681700","passenger_information_display":"yes","passenger_information_display:speech_output":"yes","public_transport":"stop_position","railway":"tram_stop","ref:sloid":"ch:1:sloid:71395:0:217702","route_ref":"9","tactile_paving":"entrance only","tram":"yes","uic_name":"Wabern, Tram-Endstation","uic_ref":"8571395","wheelchair":"yes"}},{"type":"node","id":286915389,"lat":46.9315815,"lon":7.4453166,"tags":{"brand":"Bernmobil","lit":"yes","name":"Sandrain","network":"Libero","network:wikidata":"Q2394193","network:wikipedia":"de:Libero-Tarifverbund","operator":"Bernmobil","operator:short":"SVB","operator:wikidata":"Q681700","passenger_information_display":"no","public_transport":"stop_position","railway":"tram_stop","ref:sloid":"ch:1:sloid:90023:0:1","source":"BAV Bundesamt für Verkehr DIDOK 2014","surface":"asphalt","tactile_paving":"entrance only","tram":"yes","uic_name":"Bern, Sandrain","uic_ref":"8590023","wheelchair":"yes"}},{"type":"node","id":286990284,"lat":46.9450122,"lon":7.4717896,"tags":{"bus":"yes","ele":"537","name":"Ostring","network":"Libero","network:wikidata":"Q2394193","operator":"Bernmobil","public_transport":"stop_position","railway":"tram_stop","ref":"858748002","tram":"yes","uic_name":"Bern, Ostring","uic_ref":"8587480","wheelchair":"no"}},{"type":"node","id":308076048,"lat":46.9441936,"lon":7.3753698,"tags":{"name":"Brünnen Westside Bahnhof","network":"Libero","operator":"Bernmobil","public_transport":"stop_position","railway":"tram_stop","tram":"yes","uic_name":"Bern Brünnen Westside, Bahnhof","uic_ref":"8582262"}},{"type":"node","id":390009437,"lat":46.9349026,"lon":7.4979107,"tags":{"local_ref":"A","name":"Melchenbühl","network":"Libero","network:wikidata":"Q2394193","operator":"Bernmobil","public_transport":"stop_position","railway":"tram_stop","tram":"yes","uic_name":"Gümligen, Melchenbühl (Tram)","uic_ref":"8507052"}},{"type":"node","id":560531847,"lat":46.9432958,"lon":7.4695661,"tags":{"brand":"Bernmobil","ele":"556","name":"Sonnenhof","network":"Libero","network:wikidata":"Q2394193","operator":"Bernmobil","public_transport":"stop_position","railway":"tram_stop","shelter":"no","tram":"yes","uic_name":"Bern, Sonnenhof","uic_ref":"8590019","wheelchair":"yes"}},{"type":"node","id":568425344,"lat":46.9423006,"lon":7.3970069,"tags":{"name":"Bümpliz Höhe","public_transport":"stop_position","railway":"tram_stop","tram":"yes"}},{"type":"node","id":587634561,"lat":46.9531734,"lon":7.4497648,"tags":{"brand":"Bernmobil","ele":"551","lit":"yes","local_ref":"B","name":"Kursaal","network":"Libero","network:wikidata":"Q2394193","operator":"Bernmobil","public_transport":"stop_position","railway":"tram_stop","ref:sloid":"ch:1:sloid:90020:0:1","tactile_paving":"entrance only","tram":"yes","uic_name":"Bern, Kursaal","uic_ref":"8590020","wheelchair":"yes"}},{"type":"node","id":587634676,"lat":46.9554147,"lon":7.4515191,"tags":{"brand":"Bernmobil","ele":"559","lit":"yes","local_ref":"A","name":"Viktoriaplatz","network":"Libero","network:wikidata":"Q2394193","operator":"Bernmobil","passenger_information_display":"yes","public_transport":"stop_position","railway":"tram_stop","ref:sloid":"ch:1:sloid:90021:0:2","tactile_paving":"yes","tram":"yes","uic_name":"Bern, Viktoriaplatz","uic_ref":"8590021","wheelchair":"yes"}},{"type":"node","id":587634679,"lat":46.9555503,"lon":7.4516356,"tags":{"brand":"Bernmobil","ele":"559","lit":"yes","local_ref":"B","name":"Viktoriaplatz","network":"Libero","network:wikidata":"Q2394193","operator":"Bernmobil","passenger_information_display":"yes","public_transport":"stop_position","railway":"tram_stop","ref:sloid":"ch:1:sloid:90021:0:1","tactile_paving":"yes","tram":"yes","uic_name":"Bern, Viktoriaplatz","uic_ref":"8590021","wheelchair":"yes"}},{"type":"node","id":597213172,"lat":46.959659,"lon":7.4591415,"tags":{"brand":"Bernmobil","ele":"550","lit":"yes","name":"Parkstrasse","network":"Libero","operator":"Bernmobil","passenger_information_display":"yes","public_transport":"stop_position","railway":"tram_stop","ref:sloid":"ch:1:sloid:89000:0:2","smoothness":"excellent","surface":"asphalt","tactile_paving":"yes","tram":"yes","uic_name":"Bern, Parkstrasse","uic_ref":"8589000","wheelchair":"yes"}},{"type":"node","id":602151991,"lat":46.9596844,"lon":7.4594474,"tags":{"brand":"Bernmobil","ele":"550","lit":"yes","name":"Parkstrasse","network":"Libero","operator":"Bernmobil","public_transport":"stop_position","railway":"tram_stop","ref:sloid":"ch:1:sloid:89000:0:1","tactile_paving":"yes","tram":"yes","uic_name":"Bern, Parkstrasse","uic_ref":"8589000","wheelchair":"yes"}},{"type":"node","id":628633578,"lat":46.9301269,"lon":7.448272,"tags":{"local_ref":"A","name":"Gurtenbahn","network":"Libero","network:wikidata":"Q2394193","operator":"Bernmobil","public_transport":"stop_position","railway":"tram_stop","tram":"yes","wheelchair":"yes"}},{"type":"node","id":628633618,"lat":46.931825,"lon":7.444883,"tags":{"departures_board":"realtime","departures_board:speech_output":"yes","kerb":"raised","kerb:approach_aid":"no","lit":"no","name":"Sandrain","network":"Libero","network:wikidata":"Q2394193","network:wikipedia":"de:Libero-Tarifverbund","operator":"Bernmobil","operator:short":"SVB","operator:wikidata":"Q681700","passenger_information_display":"yes","passenger_information_display:speech_output":"yes","public_transport":"stop_position","railway":"tram_stop","route_ref":"9","source":"BAV Bundesamt für Verkehr DIDOK 2014","surface":"asphalt","tactile_paving":"entrance only","tram":"yes","uic_name":"Bern, Sandrain","uic_ref":"8590023","wheelchair":"yes"}},{"type":"node","id":662435357,"lat":46.9369229,"lon":7.4365013,"tags":{"brand":"Bernmobil","departures_board":"realtime","departures_board:speech_output":"yes","lit":"yes","local_ref":"A","name":"Wander","network":"Libero","network:wikidata":"Q2394193","network:wikipedia":"de:Libero-Tarifverbund","operator":"Bernmobil","operator:short":"SVB","passenger_information_display":"yes","passenger_information_display:speech_output":"yes","public_transport":"stop_position","railway":"tram_stop","ref:sloid":"ch:1:sloid:89993:0:2","surface":"asphalt","tactile_paving":"entrance only","tram":"yes","uic_name":"Bern, Wander","uic_ref":"8589993","wheelchair":"yes"}},{"type":"node","id":662435359,"lat":46.936572,"lon":7.4365251,"tags":{"departures_board":"timetable","lit":"yes","name":"Wander","network":"Libero","network:wikidata":"Q2394193","network:wikipedia":"de:Libero-Tarifverbund","operator":"Bernmobil","operator:short":"SVB","operator:wikidata":"Q681700","public_transport":"stop_position","railway":"tram_stop","surface":"asphalt","tactile_paving":"entrance only","tram":"yes","uic_name":"Bern, Wander","uic_ref":"8589993","wheelchair":"yes"}},{"type":"node","id":662435417,"lat":46.9405642,"lon":7.4358162,"tags":{"lit":"yes","name":"Sulgenau","network":"Libero","network:wikidata":"Q2394193","operator":"Bernmobil","public_transport":"stop_position","railway":"tram_stop","ref:sloid":"ch:1:sloid:89992:0:2","surface":"asphalt","tactile_paving":"entrance only","tram":"yes","uic_name":"Bern, Sulgenau","uic_ref":"8589992","wheelchair":"limited"}},{"type":"node","id":662435419,"lat":46.9401651,"lon":7.4357531,"tags":{"departures_board":"realtime","departures_board:speech_output":"yes","lit":"yes","local_ref":"B","name":"Sulgenau","network":"Libero","network:wikidata":"Q2394193","network:wikipedia":"de:Libero-Tarifverbund","operator":"Bernmobil","operator:short":"SVB","operator:wikidata":"Q681700","passenger_information_display":"yes","passenger_information_display:speech_output":"yes","public_transport":"stop_position","railway":"tram_stop","ref:sloid":"ch:1:sloid:89992:0:1","surface":"asphalt","tactile_paving":"entrance only","tram":"yes","uic_name":"Bern, Sulgenau","uic_ref":"8589992","wheelchair":"limited"}},{"type":"node","id":662765523,"lat":46.9413961,"lon":7.4310002,"tags":{"brand":"Bernmobil","lit":"yes","local_ref":"A","name":"Eigerplatz","network":"Libero","network:wikidata":"Q2394193","network:wikipedia":"de:Libero-Tarifverbund","operator":"Bernmobil","operator:short":"SVB","operator:wikidata":"Q681700","public_transport":"stop_position","railway":"tram_stop","ref:sloid":"ch:1:sloid:71393:0:2","surface":"asphalt","tactile_paving":"entrance only","tram":"yes","uic_name":"Bern, Eigerplatz","uic_ref":"8571393","wheelchair":"yes"}},{"type":"node","id":681264454,"lat":46.9458864,"lon":7.4339562,"tags":{"brand":"Bernmobil","kerb":"raised","lit":"yes","local_ref":"B","name":"Kocherpark","network":"Libero","network:wikidata":"Q2394193","operator":"Bernmobil","operator:short":"SVB","operator:wikidata":"Q681700","public_transport":"stop_position","railway":"tram_stop","ref:sloid":"ch:1:sloid:79897:0:1","surface":"asphalt","tactile_paving":"yes","tram":"yes","uic_name":"Bern, Kocherpark","uic_ref":"8579897","wheelchair":"yes"}},{"type":"node","id":700711762,"lat":46.9448422,"lon":7.4271584,"tags":{"brand":"Bernmobil","departures_board":"timetable","lit":"yes","local_ref":"B","name":"Brunnhof","network":"Libero","network:wikidata":"Q2394193","network:wikipedia":"de:Libero-Tarifverbund","operator":"Bernmobil","operator:short":"SVB","operator:wikidata":"Q681700","public_transport":"stop_position","railway":"tram_stop","ref:sloid":"ch:1:sloid:90010:0:1","route_ref":"6","surface":"asphalt","tactile_paving":"no","tram":"yes","uic_name":"Bern, Brunnhof","uic_ref":"8590010","wheelchair":"limited"}},{"type":"node","id":704434472,"lat":46.9485862,"lon":7.4476445,"tags":{"brand":"Bernmobil","local_ref":"B","name":"Zytglogge","network":"Libero","network:wikidata":"Q2394193","operator":"SVB","public_transport":"stop_position","railway":"tram_stop","tram":"yes","uic_name":"Bern, Zytglogge","uic_ref":"8507110"}},{"type":"node","id":718403360,"lat":46.9433151,"lon":7.406823,"tags":{"local_ref":"A","name":"Europaplatz Bahnhof","public_transport":"stop_position","railway":"tram_stop","source":"BAV Bundesamt für Verkehr DIDOK 2014","tram":"yes"}},{"type":"node","id":718403381,"lat":46.9431877,"lon":7.4061992,"tags":{"local_ref":"B","name":"Europaplatz Bahnhof","public_transport":"stop_position","railway":"tram_stop","source":"BAV Bundesamt für Verkehr DIDOK 2014","tram":"yes"}},{"type":"node","id":983971041,"lat":46.9327502,"lon":7.5111076,"tags":{"name":"Hofgut","network":"Libero","operator":"Bernmobil","public_transport":"stop_position","railway":"tram_stop","tram":"yes","uic_name":"Gümligen, Hofgut","uic_ref":"8530259"}},{"type":"node","id":1083620162,"lat":46.9489361,"lon":7.3880253,"tags":{"name":"Tscharnergut","public_transport":"stop_position","railway":"tram_stop","source":"BAV Bundesamt für Verkehr DIDOK 2014","tram":"yes"}},{"type":"node","id":1083620168,"lat":46.9475555,"lon":7.3949155,"tags":{"bus":"yes","highway":"bus_stop","name":"Bethlehem Säge","network":"Libero","network:wikidata":"Q2394193","operator":"Bernmobil","public_transport":"stop_position","railway":"tram_stop","tram":"yes"}},{"type":"node","id":1083620172,"lat":46.9491444,"lon":7.3931581,"tags":{"name":"Bethlehem Kirche","public_transport":"stop_position","railway":"tram_stop","tram":"yes"}},{"type":"node","id":1083620173,"lat":46.946575,"lon":7.3750189,"tags":{"name":"Ramuzstrasse","public_transport":"stop_position","railway":"tram_stop","tram":"yes"}},{"type":"node","id":1087228706,"lat":46.9475774,"lon":7.4406143,"tags":{"local_ref":"A","name":"Bern Bahnhof","network":"Libero","network:wikidata":"Q2394193","network:wikipedia":"de:Libero-Tarifverbund","public_transport":"stop_position","railway":"tram_stop","tram":"yes"}},{"type":"node","id":1211064275,"lat":46.9298585,"lon":7.4486433,"tags":{"brand":"Bernmobil","ele":"560","lit":"yes","local_ref":"B","name":"Gurtenbahn","network":"Libero","network:wikidata":"Q2394193","operator":"Bernmobil","operator:official_name":"Städtische Verkehrsbetriebe Bern","operator:short":"SVB","operator:wikidata":"Q681700","public_transport":"stop_position","railway":"tram_stop","ref:sloid":"ch:1:sloid:88562:0:1","surface":"asphalt","tactile_paving":"entrance only","tram":"yes","uic_name":"Wabern, Gurtenbahn","uic_ref":"8588562","wheelchair":"yes"}},{"type":"node","id":1515820923,"lat":46.9350399,"lon":7.4982679,"tags":{"local_ref":"B","name":"Melchenbühl","network":"Libero","network:wikidata":"Q2394193","operator":"Bernmobil","public_transport":"stop_position","railway":"tram_stop","tram":"yes","uic_name":"Gümligen, Melchenbühl (Tram)","uic_ref":"8507052"}},{"type":"node","id":1515820927,"lat":46.9315176,"lon":7.4858403,"tags":{"brand":"Bernmobil","ele":"560","name":"Muri","network":"Libero","operator":"Bernmobil","public_transport":"stop_position","railway":"tram_stop","source":"BAV Bundesamt für Verkehr DIDOK 2014","tram":"yes","uic_name":"Muri bei Bern","uic_ref":"8507062","wheelchair":"yes"}},{"type":"node","id":1515820929,"lat":46.9328243,"lon":7.4919821,"tags":{"light_rail":"yes","name":"Seidenberg","network":"Bernmobil","operator":"Bernmobil","public_transport":"stop_position","railway":"stop","tram":"yes","uic_name":"Gümligen, Seidenberg","uic_ref":"8507251"}},{"type":"node","id":1982875226,"lat":46.9476437,"lon":7.4405853,"tags":{"local_ref":"B","name":"Bern Bahnhof","network":"Libero","network:wikidata":"Q2394193","network:wikipedia":"de:Libero-Tarifverbund","operator":"Bernmobil","public_transport":"stop_position","railway":"tram_stop","tram":"yes"}},{"type":"node","id":1982875230,"lat":46.9475731,"lon":7.4401437,"tags":{"local_ref":"C","name":"Bern Bahnhof (C)","network":"Libero","network:wikidata":"Q2394193","network:wikipedia":"de:Libero-Tarifverbund","operator":"Bernmobil","public_transport":"stop_position","railway":"tram_stop","tram":"yes","wheelchair":"yes"}},{"type":"node","id":2036213210,"lat":46.9455882,"lon":7.4260029,"tags":{"lit":"yes","name":"Kaufmännischer Verband","public_transport":"stop_position","railway":"tram_stop","ref:sloid":"ch:1:sloid:90009:0:15","surface":"asphalt","tactile_paving":"no","tram":"yes","uic_name":"Bern, Kaufmännischer Verband","uic_ref":"8590009","wheelchair":"limited"}},{"type":"node","id":2048759109,"lat":46.9377255,"lon":7.3810983,"tags":{"name":"Bümpliz","public_transport":"stop_position","railway":"tram_stop","tram":"yes"}},{"type":"node","id":2058580013,"lat":46.9666827,"lon":7.4643931,"tags":{"ele":"552","name":"Wankdorf Bahnhof","nat_name":"Bern, Wankdorf Bahnhof","network":"Libero","operator":"Bernmobil","public_transport":"stop_position","railway":"tram_stop","tram":"yes","uic_name":"Bern Wankdorf, Bahnhof","uic_ref":"8590129","wheelchair":"yes"}},{"type":"node","id":2058580024,"lat":46.9644251,"lon":7.4680134,"tags":{"name":"Wankdorfplatz","network":"Libero","operator":"Bernmobil","public_transport":"stop_position","railway":"tram_stop","tram":"yes","uic_name":"Bern, Wankdorfplatz","uic_ref":"8576996"}},{"type":"node","id":2058587080,"lat":46.9640807,"lon":7.4672543,"tags":{"name":"Wankdorfplatz","network":"Libero","operator":"Bernmobil","public_transport":"stop_position","railway":"tram_stop","tram":"yes","uic_name":"Bern, Wankdorfplatz","uic_ref":"8576996"}},{"type":"node","id":2064695377,"lat":46.9472605,"lon":7.3952283,"tags":{"bus":"yes","highway":"bus_stop","name":"Bethlehem Säge","public_transport":"stop_position","railway":"tram_stop","tram":"yes"}},{"type":"node","id":2064709099,"lat":46.9488698,"lon":7.3885514,"tags":{"name":"Tscharnergut","public_transport":"stop_position","railway":"tram_stop","source":"BAV Bundesamt für Verkehr DIDOK 2014","tram":"yes"}},{"type":"node","id":2064709117,"lat":46.9491809,"lon":7.3931526,"tags":{"name":"Bethlehem Kirche","public_transport":"stop_position","railway":"tram_stop","tram":"yes"}},{"type":"node","id":2201887392,"lat":46.9592892,"lon":7.464281,"tags":{"brand":"Bernmobil","bus":"yes","ele":"540","highway":"bus_stop","lit":"yes","local_ref":"A","name":"Guisanplatz Expo","network":"Libero","network:wikidata":"Q2394193","operator":"Bernmobil","public_transport":"stop_position","railway":"tram_stop","surface":"asphalt","tactile_paving":"yes","tram":"yes","uic_name":"Bern, Guisanplatz Expo","uic_ref":"8576990","wheelchair":"yes"}},{"type":"node","id":2267453431,"lat":46.9448275,"lon":7.3988622,"tags":{"bus":"yes","highway":"bus_stop","name":"Stöckacker","network":"Libero","operator":"Bernmobil","public_transport":"stop_position","railway":"tram_stop","tram":"yes"}},{"type":"node","id":2419808467,"lat":46.9427087,"lon":7.4009679,"tags":{"name":"Bümpliz Unterführung","network":"Libero","operator":"Bernmobil","public_transport":"stop_position","railway":"tram_stop","survey:date":"2020-12-21","tram":"yes"}},{"type":"node","id":2916071197,"lat":46.9478085,"lon":7.447488,"tags":{"brand":"Bernmobil","ele":"540","lit":"yes","local_ref":"E","name":"Zytglogge","network":"Libero","network:wikidata":"Q2394193","operator":"Bernmobil","operator:short":"SVB","operator:wikidata":"Q681700","public_transport":"stop_position","railway":"tram_stop","route_ref":"6;7;8;M77","route_ref:note":"Tramlinien 6, 7 und 8","tactile_paving":"entrance only","tram":"yes","uic_name":"Bern, Zytglogge","uic_ref":"8507110","wheelchair":"limited"}},{"type":"node","id":3113129446,"lat":46.9375846,"lon":7.4322412,"tags":{"ele":"540","name":"Beaumont","network":"Libero","operator":"Bernmobil","public_transport":"stop_position","railway":"tram_stop","tactile_paving":"yes","tram":"yes","uic_name":"Bern, Beaumont","uic_ref":"8590016"}},{"type":"node","id":3113129447,"lat":46.9373725,"lon":7.4321511,"tags":{"ele":"540","name":"Beaumont","network":"Libero","operator":"Bernmobil","public_transport":"stop_position","railway":"tram_stop","tactile_paving":"yes","tram":"yes","uic_name":"Bern, Beaumont","uic_ref":"8590016"}},{"type":"node","id":3113129448,"lat":46.9467292,"lon":7.4409955,"tags":{"brand":"Bernmobil","departures_board":"realtime","departures_board:speech_output":"yes","lit":"yes","local_ref":"J","name":"Bern Bahnhof (J)","network":"Libero","network:wikidata":"Q2394193","network:wikipedia":"de:Libero-Tarifverbund","operator":"Bernmobil","operator:short":"SVB","passenger_information_display":"yes","passenger_information_display:speech_output":"yes","public_transport":"stop_position","railway":"tram_stop","ref:sloid":"ch:1:sloid:76646:0:10","surface":"asphalt","tactile_paving":"entrance only","tram":"yes","uic_name":"Bern, Bahnhof","uic_ref":"8576646","wheelchair":"yes"}},{"type":"node","id":3113129452,"lat":46.9435211,"lon":7.4320538,"tags":{"name":"Hasler","public_transport":"stop_position","railway":"tram_stop","tram":"yes","wheelchair":"yes"}},{"type":"node","id":3113129453,"lat":46.9468624,"lon":7.4377396,"tags":{"brand":"Bernmobil","lit":"yes","local_ref":"B","name":"Hirschengraben","network":"Libero","network:wikidata":"Q2394193","network:wikipedia":"de:Libero-Tarifverbund","operator":"Bernmobil","operator:short":"SVB","operator:wikidata":"Q681700","public_transport":"stop_position","railway":"tram_stop","ref:sloid":"ch:1:sloid:79896:0:2","surface":"asphalt","tactile_paving":"partial","tram":"yes","uic_name":"Bern, Hirschengraben","uic_ref":"8579896","wheelchair":"yes"}},{"type":"node","id":3113129454,"lat":46.946425,"lon":7.4375128,"tags":{"brand":"Bernmobil","departures_board":"realtime","departures_board:speech_output":"yes","kerb":"raised","kerb:approach_aid":"no","lit":"yes","local_ref":"A","name":"Hirschengraben","network":"Libero","network:wikidata":"Q2394193","network:wikipedia":"de:Libero-Tarifverbund","operator":"Bernmobil","operator:short":"SVB","operator:wikidata":"Q681700","passenger_information_display":"yes","passenger_information_display:speech_output":"yes","public_transport":"stop_position","railway":"tram_stop","ref:sloid":"ch:1:sloid:79896:0:1","route_ref":"3;6;7;8;9","surface":"asphalt","tactile_paving":"yes","tram":"yes","uic_name":"Bern, Hirschengraben","uic_ref":"8579896","wheelchair":"yes"}},{"type":"node","id":3113129455,"lat":46.9458334,"lon":7.4346813,"tags":{"brand":"Bernmobil","kerb":"raised","lit":"yes","local_ref":"A","name":"Kocherpark","network":"Libero","network:wikidata":"Q2394193","operator":"Bernmobil","operator:short":"SVB","operator:wikidata":"Q681700","public_transport":"stop_position","railway":"tram_stop","ref:sloid":"ch:1:sloid:79897:0:2","surface":"asphalt","tactile_paving":"yes","tram":"yes","uic_name":"Bern, Kocherpark","uic_ref":"8579897","wheelchair":"yes"}},{"type":"node","id":3113129457,"lat":46.9356025,"lon":7.4333457,"tags":{"bus":"yes","highway":"bus_stop","name":"Weissenbühl","public_transport":"stop_position","railway":"tram_stop","tram":"yes","wheelchair":"no"}},{"type":"node","id":3113545993,"lat":46.9412606,"lon":7.4639863,"tags":{"brand":"Bernmobil","ele":"555","lit":"yes","local_ref":"B","name":"Brunnadernstrasse","network":"Libero","network:wikidata":"Q2394193","operator":"Bernmobil","public_transport":"stop_position","railway":"tram_stop","ref:sloid":"ch:1:sloid:7061:0:1","shelter":"yes","surface":"asphalt","tactile_paving":"entrance_only","tram":"yes","uic_name":"Bern, Brunnadernstrasse","uic_ref":"8507061","wheelchair":"yes"}},{"type":"node","id":3113545995,"lat":46.9481797,"lon":7.4434152,"tags":{"brand":"Bernmobil","ele":"520","name":"Bärenplatz","network":"Libero","operator":"Bernmobil","public_transport":"stop_position","railway":"tram_stop","shelter":"no","tram":"yes","uic_name":"Bern, Bärenplatz","uic_ref":"8588989","wheelchair":"yes"}},{"type":"node","id":3113545996,"lat":46.9481359,"lon":7.4428478,"tags":{"brand":"Bernmobil","ele":"520","name":"Bärenplatz","network":"Libero","operator":"Bernmobil","public_transport":"stop_position","railway":"tram_stop","shelter":"no","tram":"yes","uic_name":"Bern, Bärenplatz","uic_ref":"8588989","wheelchair":"yes"}},{"type":"node","id":3113545997,"lat":46.9416643,"lon":7.4256776,"tags":{"brand":"Bernmobil","departures_board":"realtime","departures_board:speech_output":"no","lit":"yes","name":"Cäcilienstrasse","network":"Libero","network:wikidata":"Q2394193","network:wikipedia":"de:Libero-Tarifverbund","operator":"Bernmobil","operator:short":"SVB","operator:wikidata":"Q681700","passenger_information_display":"yes","passenger_information_display:speech_output":"no","public_transport":"stop_position","railway":"tram_stop","ref:sloid":"ch:1:sloid:90011:0:2","route_ref":"6","surface":"asphalt","tactile_paving":"no","tram":"yes","uic_name":"Bern, Cäcilienstrasse","uic_ref":"8590011","wheelchair":"limited"}},{"type":"node","id":3113546000,"lat":46.9405834,"lon":7.4189583,"tags":{"departures_board":"realtime","departures_board:speech_output":"yes","lit":"yes","local_ref":"E","name":"Fischermätteli","network":"Libero","network:wikidata":"Q2394193","network:wikipedia":"de:Libero-Tarifverbund","operator":"Bernmobil","operator:short":"SVB","operator:wikidata":"Q681700","passenger_information_display":"yes","passenger_information_display:speech_output":"yes","public_transport":"stop_position","railway":"tram_stop","ref:sloid":"ch:1:sloid:90014:0:2","route_ref":"6","surface":"asphalt","tactile_paving":"yes","tram":"yes","uic_name":"Bern, Fischermätteli","uic_ref":"8590014","wheelchair":"limited"}},{"type":"node","id":3113546001,"lat":46.9435851,"lon":7.449955,"tags":{"brand":"Bernmobil","ele":"534","lit":"yes","local_ref":"B","name":"Helvetiaplatz","network":"Libero","network:wikidata":"Q2394193","operator":"Bernmobil","public_transport":"stop_position","railway":"tram_stop","ref":"BNKF","ref:sloid":"ch:1:sloid:7060:0:1","smoothness":"excellent","surface":"asphalt","tactile_paving":"entrance_only","tram":"yes","uic_name":"Bern, Helvetiaplatz","uic_ref":"8507060","wheelchair":"yes"}},{"type":"node","id":3113546002,"lat":46.9437897,"lon":7.4495344,"tags":{"brand":"Bernmobil","ele":"534","lit":"yes","local_ref":"A","name":"Helvetiaplatz","network":"Libero","network:wikidata":"Q2394193","operator":"Bernmobil","public_transport":"stop_position","railway":"tram_stop","ref":"BNKF","ref:sloid":"ch:1:sloid:7060:0:2","smoothness":"excellent","surface":"asphalt","tactile_paving":"entrance_only","tram":"yes","uic_name":"Bern, Helvetiaplatz","uic_ref":"8507060","wheelchair":"yes"}},{"type":"node","id":3113546003,"lat":46.9457375,"lon":7.4290254,"tags":{"highway":"bus_stop","name":"Kaufmännischer Verband","operator":"Bernmobil","public_transport":"stop_position","railway":"tram_stop","tram":"yes"}},{"type":"node","id":3113546004,"lat":46.9402409,"lon":7.4218454,"tags":{"departures_board":"timetable","highway":"bus_stop","lit":"yes","name":"Munzinger","network":"Libero","network:wikidata":"Q2394193","network:wikipedia":"de:Libero-Tarifverbund","operator":"Bernmobil","operator:short":"SVB","operator:wikidata":"Q681700","passenger_information_display":"no","public_transport":"stop_position","railway":"tram_stop","ref:sloid":"ch:1:sloid:90013:0:2","route_ref":"6","surface":"asphalt","tactile_paving":"no","tram":"yes","uic_name":"Bern, Munzinger","uic_ref":"8590013","wheelchair":"limited"}},{"type":"node","id":3113546005,"lat":46.9401275,"lon":7.4220886,"tags":{"departures_board":"timetable","highway":"bus_stop","lit":"yes","name":"Munzinger","network":"Libero","network:wikidata":"Q2394193","network:wikipedia":"de:Libero-Tarifverbund","operator":"Bernmobil","operator:short":"SVB","operator:wikidata":"Q681700","passenger_information_display":"no","public_transport":"stop_position","railway":"tram_stop","ref:sloid":"ch:1:sloid:90013:0:1","route_ref":"6","surface":"asphalt","tactile_paving":"no","tram":"yes","uic_name":"Bern, Munzinger","uic_ref":"8590013","wheelchair":"limited"}},{"type":"node","id":3113546008,"lat":46.9469571,"lon":7.4478741,"tags":{"brand":"Bernmobil","ele":"540","local_ref":"F","name":"Zytglogge","network":"Libero","network:wikidata":"Q2394193","operator":"SVB","public_transport":"stop_position","railway":"tram_stop","tram":"yes","uic_name":"Bern, Zytglogge","uic_ref":"8507110"}},{"type":"node","id":3161304085,"lat":46.9398923,"lon":7.3902249,"tags":{"local_ref":"A","name":"Bachmätteli","public_transport":"stop_position","railway":"tram_stop","tram":"yes"}},{"type":"node","id":3161304086,"lat":46.939676,"lon":7.3898342,"tags":{"local_ref":"B","name":"Bachmätteli","public_transport":"stop_position","railway":"tram_stop","tram":"yes"}},{"type":"node","id":3161304087,"lat":46.947682,"lon":7.4402525,"tags":{"local_ref":"D","name":"Bern Bahnhof (D)","network":"Libero","network:wikidata":"Q2394193","network:wikipedia":"de:Libero-Tarifverbund","operator":"Bernmobil","public_transport":"stop_position","railway":"tram_stop","tram":"yes","uic_name":"Bern, Bahnhof"}},{"type":"node","id":3161304090,"lat":46.9422551,"lon":7.3972086,"tags":{"name":"Bümpliz Höhe","public_transport":"stop_position","railway":"tram_stop","tram":"yes"}},{"type":"node","id":3161304095,"lat":46.9445915,"lon":7.4213142,"tags":{"name":"Loryplatz","public_transport":"stop_position","railway":"tram_stop","tram":"yes","wheelchair":"yes"}},{"type":"node","id":3161304096,"lat":46.9446004,"lon":7.4207884,"tags":{"name":"Loryplatz","public_transport":"stop_position","railway":"tram_stop","tram":"yes","wheelchair":"yes"}},{"type":"node","id":3161304097,"lat":46.942278,"lon":7.4534609,"tags":{"brand":"Bernmobil","bus":"yes","ele":"539","name":"Luisenstrasse","network":"Libero","network:wikidata":"Q2394193","operator":"Bernmobil","public_transport":"stop_position","railway":"tram_stop","ref:sloid":"ch:1:sloid:90006:0:1","tram":"yes","uic_name":"Bern, Luisenstrasse","uic_ref":"8590006","wheelchair":"yes"}},{"type":"node","id":3161304122,"lat":46.9441508,"lon":7.4152427,"tags":{"bus":"yes","highway":"bus_stop","name":"Schlossmatte","network":"Libero","network:wikidata":"Q2394193","operator":"Bernmobil","public_transport":"stop_position","railway":"tram_stop","tram":"yes","uic_name":"Bern, Schlossmatte","uic_ref":"8590042"}},{"type":"node","id":3161304123,"lat":46.944181,"lon":7.4146838,"tags":{"bus":"yes","highway":"bus_stop","name":"Schlossmatte","network":"Libero","network:wikidata":"Q2394193","operator":"Bernmobil","public_transport":"stop_position","railway":"tram_stop","tram":"yes","uic_name":"Bern, Schlossmatte","uic_ref":"8590042"}},{"type":"node","id":3161304125,"lat":46.9430829,"lon":7.4691501,"tags":{"brand":"Bernmobil","ele":"556","name":"Sonnenhof","network":"Libero","network:wikidata":"Q2394193","operator":"Bernmobil","public_transport":"stop_position","railway":"tram_stop","shelter":"yes","tram":"yes","uic_name":"Bern, Sonnenhof","uic_ref":"8590019","wheelchair":"yes"}},{"type":"node","id":3161304126,"lat":46.9394751,"lon":7.3862291,"tags":{"name":"Statthalterstrasse","operator":"Bernmobil","public_transport":"stop_position","railway":"tram_stop","tram":"yes"}},{"type":"node","id":3161304128,"lat":46.9439195,"lon":7.4118557,"tags":{"bus":"yes","highway":"bus_stop","name":"Steigerhubel","network":"Libero","operator":"Bernmobil","public_transport":"stop_position","railway":"tram_stop","tram":"yes","uic_name":"Bern, Steigerhubel","uic_ref":"8590005"}},{"type":"node","id":3161304129,"lat":46.9439435,"lon":7.4113011,"tags":{"bus":"yes","highway":"bus_stop","name":"Steigerhubel","network":"Libero","network:wikidata":"Q2394193","operator":"Bernmobil","public_transport":"stop_position","railway":"tram_stop","tram":"yes","uic_name":"Bern, Steigerhubel","uic_ref":"8590005"}},{"type":"node","id":3161304132,"lat":46.9421198,"lon":7.4002905,"tags":{"name":"Bümpliz Unterführung","public_transport":"stop_position","railway":"tram_stop","ref":"3","survey:date":"2020-12-21","tram":"yes"}},{"type":"node","id":3161304133,"lat":46.9422337,"lon":7.3998773,"tags":{"name":"Bümpliz Unterführung","operator":"Bernmobil","public_transport":"stop_position","railway":"tram_stop","tram":"yes"}},{"type":"node","id":3161927318,"lat":46.9528747,"lon":7.4495701,"tags":{"brand":"Bernmobil","ele":"551","lit":"yes","local_ref":"A","name":"Kursaal","network":"Libero","network:wikidata":"Q2394193","operator":"Bernmobil","public_transport":"stop_position","railway":"tram_stop","ref:sloid":"ch:1:sloid:90020:0:2","tactile_paving":"entrance only","tram":"yes","uic_name":"Bern, Kursaal","uic_ref":"8590020","wheelchair":"yes"}},{"type":"node","id":3172752531,"lat":46.9461966,"lon":7.3750749,"tags":{"name":"Ramuzstrasse","network":"Libero","operator":"Bernmobil","public_transport":"stop_position","railway":"tram_stop","tram":"yes"}},{"type":"node","id":3172752532,"lat":46.9423771,"lon":7.4007089,"tags":{"name":"Bümpliz Unterführung","public_transport":"stop_position","railway":"tram_stop","survey:date":"2020-12-21","tram":"yes"}},{"type":"node","id":3172828488,"lat":46.9436712,"lon":7.4360051,"tags":{"brand":"Bernmobil","departures_board":"realtime","departures_board:speech_output":"yes","lit":"yes","local_ref":"A","name":"Monbijou","network":"Libero","network:wikidata":"Q2394193","network:wikipedia":"de:Libero-Tarifverbund","operator":"Bernmobil","operator:short":"SVB","public_transport":"stop_position","railway":"tram_stop","ref:sloid":"ch:1:sloid:89991:0:2","surface":"asphalt","tactile_paving":"yes","tram":"yes","uic_name":"Bern, Monbijou","uic_ref":"8589991","wheelchair":"limited"}},{"type":"node","id":3172828490,"lat":46.9339201,"lon":7.4399424,"tags":{"departures_board":"timetable","departures_board:speech_output":"no","kerb":"raised","kerb:approach_aid":"no","lit":"no","name":"Schönegg","network":"Libero","network:wikidata":"Q2394193","network:wikipedia":"de:Libero-Tarifverbund","operator":"Bernmobil","operator:short":"SVB","operator:wikidata":"Q681700","passenger_information_display":"no","public_transport":"stop_position","railway":"tram_stop","ref:sloid":"ch:1:sloid:90022:0:1","route_ref":"9","source":"BAV Bundesamt für Verkehr DIDOK 2014","tactile_paving":"entrance only","tram":"yes","uic_name":"Bern, Schönegg","uic_ref":"8590022","wheelchair":"yes"}},{"type":"node","id":3172828491,"lat":46.9341317,"lon":7.4395147,"tags":{"departures_board":"realtime","departures_board:speech_output":"yes","kerb":"raised","kerb:approach_aid":"no","lit":"yes","name":"Schönegg","network":"Libero","network:wikidata":"Q2394193","network:wikipedia":"de:Libero-Tarifverbund","operator":"Bernmobil","operator:short":"SVB","operator:wikidata":"Q681700","passenger_information_display":"yes","passenger_information_display:speech_output":"yes","public_transport":"stop_position","railway":"tram_stop","ref:sloid":"ch:1:sloid:90022:0:2","route_ref":"9","source":"BAV Bundesamt für Verkehr DIDOK 2014","tactile_paving":"entrance only","tram":"yes","uic_name":"Bern, Schönegg","uic_ref":"8590022","wheelchair":"yes"}},{"type":"node","id":3190304212,"lat":46.9587752,"lon":7.4549199,"tags":{"brand":"Bernmobil","ele":"564","lit":"yes","local_ref":"B","name":"Breitenrain","network":"Libero","operator":"Bernmobil","public_transport":"stop_position","railway":"tram_stop","ref:sloid":"ch:1:sloid:8075:0:1","surface":"asphalt","tactile_paving":"yes","tram":"yes","uic_name":"Bern, Breitenrain","uic_ref":"8508075","wheelchair":"yes"}},{"type":"node","id":3190304213,"lat":46.9592437,"lon":7.464232,"tags":{"brand":"Bernmobil","bus":"yes","ele":"540","highway":"bus_stop","lit":"yes","local_ref":"B","name":"Guisanplatz Expo","network":"Libero","operator":"Bernmobil","passenger_information_display":"yes","public_transport":"stop_position","railway":"tram_stop","surface":"asphalt","tactile_paving":"yes","tram":"yes","uic_name":"Bern, Guisanplatz Expo","uic_ref":"8576990","wheelchair":"yes"}},{"type":"node","id":3211570341,"lat":46.9438808,"lon":7.4323354,"tags":{"name":"Hasler","public_transport":"stop_position","railway":"tram_stop","tram":"yes","wheelchair":"yes"}},{"type":"node","id":3874773834,"lat":46.9481799,"lon":7.4474904,"tags":{"brand":"Bernmobil","local_ref":"A","name":"Zytglogge","network":"Libero","network:wikidata":"Q2394193","operator":"SVB","public_transport":"stop_position","railway":"tram_stop","tram":"yes","uic_name":"Bern, Zytglogge","uic_ref":"8507110"}},{"type":"node","id":4759294110,"lat":46.9308392,"lon":7.5259873,"tags":{"name":"Scheyenholz","network":"Libero","operator":"Bernmobil","public_transport":"stop_position","railway":"tram_stop","tram":"yes","uic_name":"Scheyenholz","uic_ref":"8507250"}},{"type":"node","id":4883366861,"lat":46.941064,"lon":7.4310757,"tags":{"brand":"Bernmobil","junction":"turning_loop","lit":"yes","local_ref":"B","name":"Eigerplatz","network":"Libero","network:wikidata":"Q2394193","network:wikipedia":"de:Libero-Tarifverbund","operator":"Bernmobil","operator:short":"SVB","operator:wikidata":"Q681700","public_transport":"stop_position","railway":"tram_stop","ref:sloid":"ch:1:sloid:71393:0:1","surface":"asphalt","tactile_paving":"entrance only","tram":"yes","uic_name":"Bern, Eigerplatz","uic_ref":"8571393","wheelchair":"yes"}},{"type":"node","id":5262611435,"lat":46.9377256,"lon":7.4855785,"tags":{"ele":"555","name":"Saali","network":"Libero","operator":"Bernmobil","public_transport":"stop_position","railway":"tram_stop","tactile_paving":"yes","tram":"yes","uic_name":"Bern, Saali","uic_ref":"8589002"}},{"type":"node","id":5304994030,"lat":46.9444826,"lon":7.4272244,"tags":{"brand":"Bernmobil","departures_board":"realtime","departures_board:speech_output":"no","lit":"yes","local_ref":"A","name":"Brunnhof","network":"Libero","network:wikidata":"Q2394193","network:wikipedia":"de:Libero-Tarifverbund","operator":"Bernmobil","operator:short":"SVB","operator:wikidata":"Q681700","public_transport":"stop_position","railway":"tram_stop","ref:sloid":"ch:1:sloid:90010:0:2","route_ref":"6","surface":"asphalt","tactile_paving":"no","tram":"yes","uic_name":"Bern, Brunnhof","uic_ref":"8590010","wheelchair":"limited"}},{"type":"node","id":5306967867,"lat":46.9414083,"lon":7.4252746,"tags":{"brand":"Bernmobil","departures_board":"timetable","lit":"yes","name":"Cäcilienstrasse","network":"Libero","network:wikidata":"Q2394193","network:wikipedia":"de:Libero-Tarifverbund","operator":"Bernmobil","operator:short":"SVB","operator:wikidata":"Q681700","passenger_information_display":"no","public_transport":"stop_position","railway":"tram_stop","ref:sloid":"ch:1:sloid:90011:0:1","route_ref":"6","surface":"asphalt","tactile_paving":"no","tram":"yes","uic_name":"Bern, Cäcilienstrasse","uic_ref":"8590011","wheelchair":"limited"}},{"type":"node","id":5511508189,"lat":46.9297974,"lon":7.5306408,"tags":{"name":"Rüfenacht","network":"Libero","operator":"Bernmobil","public_transport":"stop_position","railway":"tram_stop","tram":"yes"}},{"type":"node","id":5511508208,"lat":46.9326458,"lon":7.5163708,"tags":{"name":"Siloah","network":"Libero","network:wikidata":"Q2394193","operator":"Bernmobil","public_transport":"stop_position","railway":"tram_stop","tram":"yes","uic_name":"Gümligen, Siloah","uic_ref":"8507053"}},{"type":"node","id":5511508211,"lat":46.9275388,"lon":7.5433092,"tags":{"name":"Langenloh","network":"Libero","operator":"Bernmobil","public_transport":"stop_position","railway":"tram_stop","tram":"yes","uic_name":"Langenloh","uic_ref":"8507055"}},{"type":"node","id":5511746599,"lat":46.9274718,"lon":7.5437215,"tags":{"name":"Langenloh","network":"Libero","operator":"Bernmobil","public_transport":"stop_position","railway":"tram_stop","tram":"yes","uic_name":"Langenloh","uic_ref":"8507055"}},{"type":"node","id":5511776187,"lat":46.934363,"lon":7.5058607,"tags":{"local_ref":"E","name":"Gümligen Bahnhof","network":"Libero","network:wikidata":"Q2394193","operator":"RBS","public_transport":"stop_position","railway":"tram_stop","tram":"yes","uic_name":"Gümligen, Bahnhof (Tram)","uic_ref":"8595488"}},{"type":"node","id":6373943148,"lat":46.9327925,"lon":7.5105676,"tags":{"name":"Hofgut","network":"Libero","operator":"Bernmobil","public_transport":"stop_position","railway":"tram_stop","tram":"yes","uic_name":"Gümligen, Hofgut","uic_ref":"8530259"}},{"type":"node","id":255377044,"lat":46.9380588,"lon":7.481481,"tags":{"ele":"555","name":"Wittigkofen","network":"Libero","operator":"Bernmobil","public_transport":"stop_position","railway":"tram_stop","tactile_paving":"yes","tram":"yes","uic_name":"Bern, Wittigkofen","uic_ref":"8589006"}},{"type":"node","id":255377351,"lat":46.9371945,"lon":7.4763603,"tags":{"bus":"yes","departures_board":"timetable","highway":"bus_stop","lit":"yes","local_ref":"A","name":"Egghölzli","network":"Libero","network:wikidata":"Q2394193","operator":"Bernmobil","public_transport":"stop_position","railway":"tram_stop","ref":"BNEG","ref:sloid":"ch:1:sloid:7050:0:2","tactile_paving":"entrance_only","tram":"yes","uic_name":"Bern, Egghölzli","uic_ref":"8507050","wheelchair":"yes"}},{"type":"node","id":286919478,"lat":46.9585509,"lon":7.4545579,"tags":{"brand":"Bernmobil","ele":"564","lit":"yes","local_ref":"A","name":"Breitenrain","network":"Libero","operator":"Bernmobil","public_transport":"stop_position","railway":"tram_stop","ref:sloid":"ch:1:sloid:8075:0:2","surface":"asphalt","tactile_paving":"yes","tram":"yes","uic_name":"Bern, Breitenrain","uic_ref":"8508075","wheelchair":"no"}},{"type":"node","id":286991804,"lat":46.9420552,"lon":7.467089,"tags":{"brand":"Bernmobil","ele":"537","name":"Burgernziel","network":"Libero","network:wikidata":"Q2394193","operator":"Bernmobil","public_transport":"stop_position","railway":"tram_stop","shelter":"no","tram":"yes","uic_name":"Bern, Burgernziel","uic_ref":"8587481","wheelchair":"no"}},{"type":"node","id":308076088,"lat":46.947723,"lon":7.3772918,"tags":{"name":"Gäbelbach","operator":"Bernmobil","public_transport":"stop_position","railway":"tram_stop","tram":"yes"}},{"type":"node","id":568312044,"lat":46.9371926,"lon":7.4757584,"tags":{"lit":"yes","local_ref":"D","name":"Egghölzli","network":"Libero","network:wikidata":"Q2394193","operator":"Bernmobil","public_transport":"stop_position","railway":"tram_stop","ref":"BNEG","ref:sloid":"ch:1:sloid:7050:0:3","surface":"asphalt","tactile_paving":"entrance_only","tram":"yes","uic_name":"Bern, Egghölzli","uic_ref":"8507050","wheelchair":"yes"}},{"type":"node","id":568312117,"lat":46.9368159,"lon":7.4766041,"tags":{"lit":"yes","local_ref":"C","name":"Egghölzli","network":"Libero","network:wikidata":"Q2394193","operator":"Bernmobil","public_transport":"stop_position","railway":"tram_stop","ref":"BNEG","ref:sloid":"ch:1:sloid:7050:0:12","surface":"asphalt","tactile_paving":"entrance_only","tram":"yes","uic_name":"Bern, Egghölzli","uic_ref":"8507050","wheelchair":"yes"}},{"type":"node","id":568312139,"lat":46.9372688,"lon":7.4768504,"tags":{"departures_board":"timetable","local_ref":"B","name":"Egghölzli","network":"Libero","network:wikidata":"Q2394193","operator":"Bernmobil","public_transport":"stop_position","railway":"tram_stop","ref":"BNEG","ref:sloid":"ch:1:sloid:7050:0:1","tactile_paving":"entrance_only","tram":"yes","uic_name":"Bern, Egghölzli","uic_ref":"8507050","wheelchair":"yes"}},{"type":"node","id":1083620171,"lat":46.9486827,"lon":7.3823077,"tags":{"name":"Holenacker","public_transport":"stop_position","railway":"tram_stop","tram":"yes"}},{"type":"node","id":2058590963,"lat":46.9617501,"lon":7.465671,"tags":{"name":"Wankdorf Center","network":"Libero","network:wikidata":"Q2394193","operator":"Bernmobil","public_transport":"stop_position","railway":"tram_stop","tram":"yes","uic_name":"Bern, Wankdorf Center","uic_ref":"8588699"}},{"type":"node","id":2058590964,"lat":46.9622059,"lon":7.4661255,"tags":{"name":"Wankdorf Center","network":"Libero","operator":"Bernmobil","public_transport":"stop_position","railway":"tram_stop","tram":"yes","uic_name":"Bern, Wankdorf Center","uic_ref":"8588699"}},{"type":"node","id":2267453434,"lat":46.9445235,"lon":7.3991498,"tags":{"name":"Stöckacker","public_transport":"stop_position","railway":"tram_stop","tram":"yes"}},{"type":"node","id":2419808462,"lat":46.9478574,"lon":7.3777315,"tags":{"name":"Gäbelbach","operator":"Bernmobil","public_transport":"stop_position","railway":"tram_stop","tram":"yes"}},{"type":"node","id":2419808463,"lat":46.9487682,"lon":7.3828295,"tags":{"name":"Holenacker","public_transport":"stop_position","railway":"tram_stop","tram":"yes"}},{"type":"node","id":3113545994,"lat":46.9412061,"lon":7.4634948,"tags":{"brand":"Bernmobil","ele":"555","lit":"yes","local_ref":"A","name":"Brunnadernstrasse","network":"Libero","network:wikidata":"Q2394193","operator":"Bernmobil","public_transport":"stop_position","railway":"tram_stop","ref:sloid":"ch:1:sloid:7061:0:2","shelter":"yes","tactile_paving":"no","tram":"yes","uic_name":"Bern, Brunnadernstrasse","uic_ref":"8507061","wheelchair":"no"}},{"type":"node","id":3113546006,"lat":46.9402866,"lon":7.4237542,"tags":{"brand":"Bernmobil","departures_board":"realtime","departures_board:speech_output":"yes","lit":"yes","name":"Pestalozzi","network":"Libero","network:wikidata":"Q2394193","network:wikipedia":"de:Libero-Tarifverbund","operator":"Bernmobil","operator:short":"SVB","operator:wikidata":"Q681700","passenger_information_display":"yes","passenger_information_display:speech_output":"yes","public_transport":"stop_position","railway":"tram_stop","ref:sloid":"ch:1:sloid:90012:0:2","route_ref":"6","surface":"asphalt","tactile_paving":"entrance only","tram":"yes","uic_name":"Bern, Pestalozzi","uic_ref":"8590012","wheelchair":"limited"}},{"type":"node","id":3113546007,"lat":46.9402023,"lon":7.4235904,"tags":{"brand":"Bernmobil","departures_board":"timetable","lit":"yes","name":"Pestalozzi","network":"Libero","network:wikidata":"Q2394193","network:wikipedia":"de:Libero-Tarifverbund","operator":"Bernmobil","operator:short":"SVB","operator:wikidata":"Q681700","public_transport":"stop_position","railway":"tram_stop","ref:sloid":"ch:1:sloid:90012:0:1","route_ref":"6","surface":"asphalt","tactile_paving":"no","tram":"yes","uic_name":"Bern, Pestalozzi","uic_ref":"8590012","wheelchair":"limited"}},{"type":"node","id":3161304089,"lat":46.9419079,"lon":7.4667168,"tags":{"brand":"Bernmobil","name":"Burgernziel","network":"Libero","operator":"Bernmobil","public_transport":"stop_position","railway":"tram_stop","tram":"yes","uic_name":"Bern, Burgernziel","uic_ref":"8587481"}},{"type":"node","id":3161304091,"lat":46.9416418,"lon":7.393747,"tags":{"name":"Bümpliz Post","public_transport":"stop_position","railway":"tram_stop","tram":"yes"}},{"type":"node","id":3161304098,"lat":46.9424756,"lon":7.453075,"tags":{"brand":"Bernmobil","bus":"yes","ele":"539","name":"Luisenstrasse","network":"Libero","network:wikidata":"Q2394193","operator":"Bernmobil","public_transport":"stop_position","railway":"tram_stop","ref:sloid":"ch:1:sloid:90006:0:2","shelter":"yes","tactile_paving":"entrance_only","tram":"yes","uic_name":"Bern, Luisenstrasse","uic_ref":"8590006","wheelchair":"yes"}},{"type":"node","id":3161304104,"lat":46.9416079,"lon":7.3932316,"tags":{"name":"Bümpliz Post","public_transport":"stop_position","railway":"tram_stop","tram":"yes"}},{"type":"node","id":3161304127,"lat":46.9394594,"lon":7.3857036,"tags":{"name":"Statthalterstrasse","public_transport":"stop_position","railway":"tram_stop","tram":"yes"}},{"type":"node","id":3161304131,"lat":46.9405948,"lon":7.4581371,"tags":{"brand":"Bernmobil","lit":"yes","local_ref":"A","name":"Thunplatz","network":"Libero","network:wikidata":"Q2394193","operator":"Bernmobil","public_transport":"stop_position","railway":"tram_stop","ref:sloid":"ch:1:sloid:89003:0:2","tactile_paving":"entrance_only","tram":"yes","uic_name":"Bern, Thunplatz","uic_ref":"8589003","wheelchair":"yes"}},{"type":"node","id":3172752533,"lat":46.9379459,"lon":7.4818931,"tags":{"ele":"555","name":"Wittigkofen","network":"Libero","operator":"Bernmobil","public_transport":"stop_position","railway":"tram_stop","tactile_paving":"yes","tram":"yes","uic_name":"Bern, Wittigkofen","uic_ref":"8589006"}},{"type":"node","id":3172828487,"lat":46.9432215,"lon":7.4359039,"tags":{"brand":"Bernmobil","departures_board":"realtime","departures_board:speech_output":"yes","lit":"yes","local_ref":"B","name":"Monbijou","network":"Libero","network:wikidata":"Q2394193","network:wikipedia":"de:Libero-Tarifverbund","operator":"Bernmobil","operator:short":"SVB","public_transport":"stop_position","railway":"tram_stop","ref:sloid":"ch:1:sloid:89991:0:1","surface":"asphalt","tactile_paving":"entrance only","tram":"yes","uic_name":"Bern, Monbijou","uic_ref":"8589991","wheelchair":"limited"}},{"type":"node","id":3172828492,"lat":46.9287022,"lon":7.4516035,"tags":{"bus":"yes","name":"Eichholz","network":"Libero","network:wikidata":"Q2394193","operator":"Bernmobil","public_transport":"stop_position","railway":"tram_stop","tram":"yes","uic_name":"Wabern, Eichholz","uic_ref":"8580567","wheelchair":"yes"}},{"type":"node","id":3189923475,"lat":46.9388985,"lon":7.471859,"tags":{"departures_board":"timetable","ele":"550","name":"Weltpostverein","network":"Libero","network:wikidata":"Q2394193","operator":"Bernmobil","public_transport":"stop_position","railway":"tram_stop","ref:sloid":"ch:1:sloid:88174:0:2","surface":"asphalt","tactile_paving":"yes","tram":"yes","uic_name":"Bern, Weltpostverein","uic_ref":"8588174","wheelchair":"yes"}},{"type":"node","id":3189923476,"lat":46.9390397,"lon":7.4714429,"tags":{"departures_board":"timetable","ele":"550","lit":"no","name":"Weltpostverein","network":"Libero","network:wikidata":"Q2394193","operator":"Bernmobil","public_transport":"stop_position","railway":"tram_stop","ref:sloid":"ch:1:sloid:88174:0:1","surface":"asphalt","tactile_paving":"yes","tram":"yes","uic_name":"Bern, Weltpostverein","uic_ref":"8588174","wheelchair":"yes"}},{"type":"node","id":5778443872,"lat":46.9470173,"lon":7.4389819,"tags":{"name":"Bern Bahnhof","network":"Libero","network:wikidata":"Q2394193","network:wikipedia":"de:Libero-Tarifverbund","operator":"Bernmobil","public_transport":"stop_position","railway":"tram_stop","ref":"N","tram":"yes","uic_name":"Bern, Bahnhof","uic_ref":"8576646","wheelchair":"limited"}},{"type":"node","id":6353778160,"lat":46.9666362,"lon":7.4643962,"tags":{"ele":"552","name":"Wankdorf Bahnhof","nat_name":"Bern, Wankdorf Bahnhof","network":"Libero","operator":"Bernmobil","public_transport":"stop_position","railway":"tram_stop","tram":"yes","uic_name":"Bern Wankdorf, Bahnhof","uic_ref":"8590129"}},{"type":"node","id":6367355267,"lat":46.9328838,"lon":7.4921303,"tags":{"ele":"560","light_rail":"yes","name":"Seidenberg","network":"Bernmobil","operator":"Bernmobil","public_transport":"station","railway":"tram_stop","station":"light_rail"}},{"type":"node","id":6373943149,"lat":46.9327758,"lon":7.51083,"tags":{"ele":"576","light_rail":"yes","name":"Hofgut","network":"Libero","operator":"Bernmobil","railway":"tram_stop","wheelchair":"limited"}},{"type":"node","id":6374152728,"lat":46.9307949,"lon":7.5261681,"tags":{"ele":"582","light_rail":"yes","name":"Scheyenholz","network":"Libero","operator":"Bernmobil","public_transport":"station","railway":"tram_stop","station":"light_rail","wheelchair":"limited"}},{"type":"node","id":6374152742,"lat":46.9298609,"lon":7.5305098,"tags":{"ele":"596","light_rail":"yes","name":"Rüfenacht","network":"Libero","operator":"Bernmobil","public_transport":"station","railway":"tram_stop","station":"light_rail","wheelchair":"limited"}},{"type":"node","id":6374181236,"lat":46.9275203,"lon":7.5434761,"tags":{"ele":"617","light_rail":"yes","name":"Langenloh","network":"Libero","operator":"Bernmobil","public_transport":"station","railway":"tram_stop","station":"light_rail","wheelchair":"limited"}},{"type":"node","id":6640123619,"lat":46.9472159,"lon":7.447762,"tags":{"brand":"Bernmobil","ele":"540","name":"Zytglogge","network":"Libero","operator":"Bernmobil","public_transport":"stop_position","railway":"tram_stop","tram":"yes","uic_name":"Bern, Zytglogge","uic_ref":"8507110","wheelchair":"yes"}},{"type":"node","id":6650047927,"lat":46.9457789,"lon":7.4290193,"tags":{"name":"Kaufmännischer Verband","network":"Libero","operator":"Bernmobil","public_transport":"stop_position","railway":"tram_stop","tram":"yes"}},{"type":"node","id":8505214839,"lat":46.9442483,"lon":7.3753437,"tags":{"name":"Brünnen Westside Bahnhof","network":"Libero","operator":"Bernmobil","public_transport":"stop_position","railway":"tram_stop","tram":"yes","uic_name":"Bern Brünnen Westside, Bahnhof","uic_ref":"8582262"}}]}