{"version":0.6,"generator":"Overpass API 0.7.62.4 2390de5a","osm3s":{"timestamp_osm_base":"2026-07-10T13:38:35Z","copyright":"The data included in this document is from www.openstreetmap.org. The data is made available under ODbL."},"elements":[{"type":"node","id":12388534,"lat":48.8151929,"lon":2.2973418,"tags":{"STIF:zone":"1","name":"Malakoff - Rue Étienne Dolet","name:zh":"马拉科夫-艾蒂安·多雷路","public_transport":"station","railway":"station","ref:FR:RATP":"22441","ref:FR:STIF":"22236","source":"STIF - 12/2016","station":"subway","subway":"yes","type:RATP":"metro","wheelchair":"no","wikidata":"Q1731762","wikipedia":"fr:Malakoff - Rue Étienne-Dolet (métro de Paris)"}},{"type":"node","id":27362238,"lat":48.8809365,"lon":2.2722281,"tags":{"STIF:zone":"1","alt_name":"Les Sablons (Jardin d'acclimatation)","layer":"-2","location":"underground","name":"Les Sablons","name:ar":"ليه سابلون","name:ru":"Ле-Саблон","name:zh":"萨布隆","public_transport":"station","railway":"station","ref:FR:RATP":"1802","ref:FR:STIF":"22100","source":"STIF - 12/2016","start_date":"1937-04-29","station":"subway","subway":"yes","type:RATP":"metro","wheelchair":"yes","wikidata":"Q649160","wikipedia":"fr:Les Sablons (métro de Paris)"}},{"type":"node","id":27362251,"lat":48.8690339,"lon":2.3099266,"tags":{"STIF:zone":"1","name":"Franklin D. Roosevelt","name:ar":"فرانكلين ديلانو روزفلت","name:ko":"프랭클린 D. 루스벨트","name:ru":"Франклин Д. Рузвельт","name:zh":"富兰克林·D·罗斯福","old_name":"Marbeuf Rond Point des Champs-Élysées","public_transport":"station","railway":"station","ref:FR:FANTOIR":"75108S169G","ref:FR:RATP":"1924","ref:FR:STIF":"21931","source":"survey","station":"subway","subway":"yes","type:RATP":"metro","wheelchair":"no","wikidata":"Q1445234","wikipedia":"fr:Franklin D. Roosevelt (métro de Paris)"}},{"type":"node","id":27362257,"lat":48.8661988,"lon":2.3244166,"tags":{"STIF:zone":"1","name":"Concorde","name:br":"Kornkord","name:de":"Concorde","name:es":"Concorde","name:it":"Concorde","name:pt":"Concorde","name:ru":"Конкорд","operator":"RATP","public_transport":"stop_position","railway":"stop","ref:FR:RATP":"1885","station":"subway","subway":"yes","type:RATP":"metro","wheelchair":"no","wikidata":"Q970075","wikipedia":"fr:Concorde (métro de Paris)"}},{"type":"node","id":27362258,"lat":48.8645194,"lon":2.3296312,"tags":{"STIF:zone":"1","name":"Tuileries","name:ar":"التويلري","name:de":"Tuilerien","name:ko":"튈르리","name:ru":"Тюильри","name:zh":"杜伊乐丽","public_transport":"station","railway":"station","ref:FR:FANTOIR":"75101S567R","ref:FR:RATP":"1640","ref:FR:STIF":"22075","source":"STIF - 12/2016","station":"subway","subway":"yes","type:RATP":"metro","wheelchair":"no","wikidata":"Q666009","wikipedia":"fr:Tuileries (métro de Paris)"}},{"type":"node","id":27371862,"lat":48.8587782,"lon":2.3474106,"tags":{"STIF:zone":"1","name":"Châtelet","name:ar":"شاتليه","name:ko":"샤틀레 - 레 알","name:ru":"Шатле","name:zh":"沙特莱","network":"Métro de Paris","network:wikidata":"Q50716","old_name":"Pont Notre-Dame;Pont Notre-Dame – Pont au Change","operator":"RATP","operator:wikidata":"Q643290","public_transport":"station","railway":"station","ref:FR:FANTOIR":"75101S090X;75104S090J","ref:FR:RATP":"1964","ref:FR:STIF":"21959","source":"STIF - 12/2016","station":"subway","subway":"yes","type:RATP":"metro","wheelchair":"no","wikidata":"Q601484","wikipedia":"fr:Châtelet (métro de Paris)"}},{"type":"node","id":27371867,"lat":48.8553844,"lon":2.3604068,"tags":{"STIF:zone":"1","addr:city":"Paris","alt_name":"Saint-Paul (Le Marais)","name":"Saint-Paul","name:ar":"سان بول","name:ko":"생폴","name:zh":"圣保罗","public_transport":"station","railway":"station","ref:FR:FANTOIR":"75104S523E","ref:FR:RATP":"1695","ref:FR:STIF":"22074","source":"STIF - 12/2016","station":"subway","subway":"yes","type:RATP":"metro","wheelchair":"no","wikidata":"Q1535005","wikipedia":"fr:Saint-Paul (métro de Paris)"}},{"type":"node","id":29588070,"lat":48.8336468,"lon":2.2435931,"tags":{"STIF:zone":"1","name":"Marcel Sembat","name:zh":"马塞尔·松巴","public_transport":"stop_position","railway":"station","ref:FR:RATP":"1829","ref:FR:STIF":"21940","source":"STIF - 12/2016","station":"subway","subway":"yes","type:RATP":"metro","wheelchair":"no","wikidata":"Q613123","wikipedia":"fr:Marcel Sembat (métro de Paris)"}},{"type":"node","id":34909170,"lat":48.8491009,"lon":2.2981675,"tags":{"STIF:zone":"1","name":"La Motte-Picquet - Grenelle","name:ko":"라모트피케 - 그르넬","name:zh":"拉莫特-皮凯-格勒内勒","public_transport":"station","railway":"station","ref:FR:FANTOIR":"75115S283C","ref:FR:RATP":"1705;1874","ref:FR:STIF":"21969","source":"STIF - 12/2016","station":"subway","subway":"yes","type:RATP":"metro","wheelchair":"limited","wikidata":"Q1415143","wikipedia":"fr:La Motte-Picquet - Grenelle (métro de Paris)"}},{"type":"node","id":34909171,"lat":48.8475232,"lon":2.3029457,"tags":{"STIF:zone":"1","name":"Cambronne","name:ko":"캉브론","name:zh":"康布罗纳","public_transport":"station","railway":"station","ref:FR:FANTOIR":"75115S072Y","ref:FR:RATP":"1940","ref:FR:STIF":"22176","source":"STIF - 12/2016","station":"subway","subway":"yes","type:RATP":"metro","wheelchair":"no","wikidata":"Q1028368","wikipedia":"fr:Cambronne (métro de Paris)"}},{"type":"node","id":34909187,"lat":48.8504095,"lon":2.2936611,"tags":{"STIF:zone":"1","name":"Dupleix","name:ko":"뒤플레익스","name:zh":"杜布雷","public_transport":"station","railway":"station","ref:FR:FANTOIR":"75115S126G","ref:FR:RATP":"1907","ref:FR:STIF":"22171","source":"STIF - 12/2016","station":"subway","subway":"yes","type:RATP":"metro","wheelchair":"no","wikidata":"Q1266508","wikipedia":"fr:Dupleix (métro de Paris)"}},{"type":"node","id":134299001,"lat":48.824163,"lon":2.2731685,"tags":{"STIF:zone":"1","name":"Mairie d'Issy","name:ru":"Мэри-д’Исси","name:zh":"伊西市政厅","public_transport":"station","railway":"station","ref:FR:RATP":"1814;2803","ref:FR:STIF":"22062","source":"STIF - 12/2016","station":"subway","subway":"yes","type:RATP":"metro","wheelchair":"no","wikidata":"Q1885858","wikipedia":"fr:Mairie d'Issy (métro de Paris)"}},{"type":"node","id":134299013,"lat":48.8270637,"lon":2.279363,"tags":{"STIF:zone":"1","name":"Corentin Celton","name:ru":"Корентен Селтон","name:zh":"科朗坦·塞尔东","old_name":"Petits Ménages","public_transport":"station","railway":"station","ref:FR:RATP":"1889;2802","ref:FR:STIF":"22061","source":"STIF - 12/2016","station":"subway","subway":"yes","type:RATP":"metro","wheelchair":"no","wikidata":"Q1132595","wikipedia":"fr:Corentin Celton (métro de Paris)"}},{"type":"node","id":134305198,"lat":48.8372872,"lon":2.2966539,"tags":{"STIF:zone":"1","name":"Convention","name:ru":"Конвансьон","name:zh":"国民公会","public_transport":"station","railway":"station","ref:FR:FANTOIR":"75115S100D","ref:FR:RATP":"1887;1605","ref:FR:STIF":"22058","source":"STIF - 12/2016","station":"subway","subway":"yes","type:RATP":"metro","wheelchair":"no","wikidata":"Q630642","wikipedia":"fr:Convention (métro de Paris)"}},{"type":"node","id":220289379,"lat":48.8236307,"lon":2.3256075,"tags":{"STIF:zone":"1","alt_name":"Porte d'Orléans (Général Leclerc)","name":"Porte d'Orléans","name:zh":"奥尔良门","operator":"RATP","public_transport":"station","railway":"station","ref:FR:FANTOIR":"75114S443H","ref:FR:RATP":"1720","ref:FR:STIF":"22140","source":"STIF - 12/2016","station":"subway","subway":"yes","type:RATP":"metro","wheelchair":"yes","wikidata":"Q119971","wikipedia":"fr:Porte d'Orléans (métro de Paris)"}},{"type":"node","id":220289382,"lat":48.8280318,"lon":2.3270406,"tags":{"STIF:zone":"1","alt_name":"Métro Alésia","check_date:wheelchair":"2026-06-23","name":"Alésia","name:zh":"阿莱西亚","operator":"RATP","public_transport":"station","railway":"station","ref:FR:FANTOIR":"75114S002D","ref:FR:RATP":"1981","ref:FR:STIF":"22154","source":"STIF - 12/2016","station":"subway","subway":"yes","type:RATP":"metro","wheelchair":"yes","wikidata":"Q450976","wikipedia":"fr:Alésia (métro de Paris)"}},{"type":"node","id":220289385,"lat":48.8312786,"lon":2.3298657,"tags":{"STIF:zone":"1","check_date:wheelchair":"2021-04-12","heritage":"3","heritage:operator":"mhs","mhs:inscription_date":"1978","name":"Mouton-Duvernet","name:zh":"穆顿-迪韦内","operator":"RATP","public_transport":"station","railway":"station","ref:FR:FANTOIR":"75114S339V","ref:FR:RATP":"1753","ref:FR:STIF":"22144","ref:mhs":"PA00086631","source":"STIF - 12/2016","station":"subway","subway":"yes","type:RATP":"metro","wheelchair":"no","wikidata":"Q1406323","wikipedia":"fr:Mouton-Duvernet (métro de Paris)"}},{"type":"node","id":235369898,"lat":48.8329806,"lon":2.3368199,"tags":{"STIF:zone":"1","addr:city":"Paris","addr:postcode":"75014","addr:street":"Boulevard Saint-Jacques","gtfs:stop_id":"IDFM:71041","name":"Saint-Jacques","name:zh":"圣雅克","public_transport":"station","railway":"station","ref:FR:FANTOIR":"75114P023C;75114P024D","ref:FR:RATP":"1688","ref:FR:STIF":"22160","source":"STIF - 12/2016","station":"subway","subway":"yes","type:RATP":"metro","wheelchair":"no","wikidata":"Q1999538","wikipedia":"fr:Saint-Jacques (métro de Paris)"}},{"type":"node","id":235370184,"lat":48.8311451,"lon":2.3434916,"tags":{"STIF:zone":"1","check_date:wheelchair":"2026-03-11","gtfs:stop_id":"IDFM:71026","name":"Glacière","name:zh":"冰库","public_transport":"station","railway":"station","ref:FR:FANTOIR":"75113S193R","ref:FR:RATP":"1848","ref:FR:STIF":"22173","source":"STIF - 12/2016","station":"subway","subway":"yes","type:RATP":"metro","wheelchair":"no","wikidata":"Q1529016","wikipedia":"fr:Glacière (métro de Paris)"}},{"type":"node","id":235371392,"lat":48.8309446,"lon":2.3558932,"tags":{"STIF:zone":"1","name":"Place d'Italie","name:es":"Plaza de Italia","name:fr":"Place d'Italie","name:ru":"Пляс д’Итали","name:zh":"意大利广场","public_transport":"station","railway":"station","ref:FR:RATP":"1789","ref:FR:STIF":"22168","source":"STIF - 12/2016","station":"subway","subway":"yes","type:RATP":"metro","uic_ref":"8705548","wheelchair":"no","wikidata":"Q1537246","wikipedia":"fr:Place d'Italie (métro de Paris)"}},{"type":"node","id":235371394,"lat":48.8331995,"lon":2.3628272,"tags":{"STIF:zone":"1","check_date:wheelchair":"2025-11-03","name":"Nationale","name:zh":"国民","public_transport":"station","railway":"station","ref:FR:FANTOIR":"75113P016Z;75113P015Y","ref:FR:RATP":"1761","ref:FR:STIF":"22169","source":"STIF - 12/2016","station":"subway","subway":"yes","type:RATP":"metro","wheelchair":"no","wikidata":"Q661846","wikipedia":"fr:Nationale (métro de Paris)"}},{"type":"node","id":235371395,"lat":48.83495,"lon":2.3681023,"tags":{"STIF:zone":"1","gtfs:stop_id":"IDFM:463147;IDFM:22174;IDFM:73651","name":"Chevaleret","name:zh":"骑士","public_transport":"station","railway":"station","ref:FR:FANTOIR":"75113S094H","ref:FR:RATP":"1959","ref:FR:STIF":"22174","source":"STIF - 12/2016","station":"subway","subway":"yes","type:RATP":"metro","wheelchair":"no","wikidata":"Q937680","wikipedia":"fr:Chevaleret (métro de Paris)"}},{"type":"node","id":235374383,"lat":48.8370444,"lon":2.3728619,"tags":{"STIF:zone":"1","gtfs:stop_id":"IDFM:71597","name":"Quai de la Gare","name:zh":"车站河边街","public_transport":"station","railway":"station","ref:FR:FANTOIR":"75113S471T","ref:FR:RATP":"1742","ref:FR:STIF":"22161","source":"STIF - 12/2016","station":"subway","subway":"yes","type:RATP":"metro","wheelchair":"no","wikidata":"Q1969659","wikipedia":"fr:Quai de la Gare (métro de Paris)"}},{"type":"node","id":235377792,"lat":48.8842416,"lon":2.3670741,"tags":{"STIF:zone":"1","name":"Stalingrad","name:ar":"ستالينغراد","name:ru":"Сталинград","name:zh":"斯大林格勒","old_name":"Aubervilliers","public_transport":"station","railway":"station","ref:FR:FANTOIR":"75119S536F","ref:FR:RATP":"1627","ref:FR:STIF":"22107","source":"STIF - 12/2016","station":"subway","subway":"yes","type:RATP":"metro","wheelchair":"yes","wikidata":"Q1418821","wikipedia":"fr:Stalingrad (métro de Paris)"}},{"type":"node","id":241928557,"lat":48.8476792,"lon":2.3955176,"tags":{"STIF:zone":"1","check_date:wheelchair":"2026-06-22","name":"Nation","name:ar":"ناسيون","name:zh":"民族","public_transport":"station","railway":"station","ref:FR:FANTOIR":"75112S361W","ref:FR:RATP":"1758","ref:FR:STIF":"22073","source":"STIF - 12/2016","station":"subway","subway":"yes","type:RATP":"metro","wheelchair":"no","wikidata":"Q1418711","wikipedia":"fr:Nation (métro de Paris)"}},{"type":"node","id":243357000,"lat":48.8783961,"lon":2.3812008,"tags":{"STIF:zone":"1","name":"Buttes Chaumont","name:zh":"肖蒙山丘","public_transport":"stop_position","railway":"station","ref:FR:FANTOIR":"75119S055H","ref:FR:RATP":"1936","ref:FR:STIF":"24683","source":"STIF - 12/2016","station":"subway","subway":"yes","type:RATP":"metro","wheelchair":"no","wikidata":"Q1018164","wikipedia":"fr:Buttes Chaumont (métro de Paris)"}},{"type":"node","id":243358029,"lat":48.8809263,"lon":2.3739077,"tags":{"STIF:zone":"1","gtfs:stop_id":"IDFM:24685;IDFM:463132","name":"Bolivar","name:zh":"玻利瓦尔","public_transport":"stop_position","railway":"station","ref:FR:FANTOIR":"75119S046Y","ref:FR:RATP":"2014","ref:FR:STIF":"24685","source":"STIF - 12/2016","station":"subway","subway":"yes","type:RATP":"metro","wikidata":"Q891362","wikipedia":"fr:Bolivar (métro de Paris)"}},{"type":"node","id":243486950,"lat":48.8518248,"lon":2.4013274,"tags":{"STIF:zone":"1","check_date:wheelchair":"2022-08-23","gtfs:stop_id":"IDFM:25084","name":"Buzenval","name:zh":"布松瓦尔","public_transport":"station","railway":"station","ref:FR:FANTOIR":"75120S057F","ref:FR:RATP":"1937","ref:FR:STIF":"25084","source":"STIF - 12/2016","station":"subway","subway":"yes","type:RATP":"metro","wheelchair":"no","wikidata":"Q1018331","wikipedia":"fr:Buzenval (métro de Paris)"}},{"type":"node","id":243487863,"lat":48.8463532,"lon":2.4187025,"tags":{"name":"Saint-Mandé","network":"RATP","operator":"RATP","public_transport":"stop_position","railway":"stop","station":"subway","subway":"yes","type:RATP":"metro","wheelchair":"no","wikidata":"Q1784678","wikipedia":"fr:Saint-Mandé (métro de Paris)"}},{"type":"node","id":243490762,"lat":48.8629238,"lon":2.3874128,"tags":{"STIF:zone":"1","name":"Père Lachaise","name:ar":"بير لاشيز","name:ru":"Пер-Лашез","name:zh":"拉雪兹神父","public_transport":"station","railway":"station","ref:FR:FANTOIR":"75120P017N;75111P018D;75111P017C","ref:FR:RATP":"1741","ref:FR:STIF":"22112","source":"STIF - 12/2016","station":"subway","subway":"yes","type:RATP":"metro","wikidata":"Q176582","wikipedia":"fr:Père Lachaise (métro de Paris)"}},{"type":"node","id":243490764,"lat":48.85634,"lon":2.3944352,"tags":{"STIF:zone":"1","name":"Alexandre Dumas","name:ar":"ألكسندر دوما","name:zh":"大仲马","old_name":"Bagnolet","public_transport":"station","railway":"station","ref:FR:FANTOIR":"75111S003L","ref:FR:RATP":"1978","ref:FR:STIF":"22122","source":"STIF - 12/2016","station":"subway","subway":"yes","type:RATP":"metro","wheelchair":"no","wikidata":"Q1577219","wikipedia":"fr:Alexandre Dumas (métro de Paris)"}},{"type":"node","id":243493845,"lat":48.872035,"lon":2.3768798,"tags":{"STIF:zone":"1","alt_name":"Belleville-Commune de Paris 1871","name":"Belleville","name:ar":"بيلفيل","name:zh":"美丽城","public_transport":"station","railway":"station","ref:FR:FANTOIR":"75110S038B","ref:FR:RATP":"2004","ref:FR:STIF":"21998","source":"STIF - 12/2016","station":"subway","subway":"yes","type:RATP":"metro","wheelchair":"no","wikidata":"Q815946","wikipedia":"fr:Belleville (métro de Paris)"}},{"type":"node","id":243496025,"lat":48.8835274,"lon":2.3335853,"tags":{"STIF:zone":"1","name":"Blanche","name:ar":"بلانش","name:zh":"白色","public_transport":"station","railway":"station","ref:FR:FANTOIR":"75118S043B","ref:FR:RATP":"2009","ref:FR:STIF":"22125","source":"STIF - 12/2016","station":"subway","subway":"yes","type:RATP":"metro","wheelchair":"no","wikidata":"Q881406","wikipedia":"fr:Blanche (métro de Paris)"}},{"type":"node","id":243496027,"lat":48.8834776,"lon":2.3272899,"tags":{"STIF:zone":"1","name":"Place de Clichy","name:ar":"ساحة كليشي","name:ko":"플라스 드 클리시","name:ru":"Пляс-де-Клиши","name:zh":"克利希广场","public_transport":"station","railway":"station","ref:FR:FANTOIR":"75117S416L;75109S416S","ref:FR:RATP":"1790","ref:FR:STIF":"22115","source":"STIF - 12/2016","station":"subway","subway":"yes","type:RATP":"metro","wheelchair":"no","wikidata":"Q610012","wikipedia":"fr:Place de Clichy (métro de Paris)"}},{"type":"node","id":243496028,"lat":48.8823012,"lon":2.3213298,"tags":{"STIF:zone":"1","name":"Rome","name:ar":"روما","name:ko":"롬","name:zh":"罗马","public_transport":"station","railway":"station","ref:FR:FANTOIR":"75117S492U","ref:FR:RATP":"1670","ref:FR:STIF":"22110","source":"STIF - 12/2016","station":"subway","subway":"yes","survey:date":"2017-09-20","type:RATP":"metro","wheelchair":"no","wikidata":"Q567806","wikipedia":"fr:Rome (métro de Paris)"}},{"type":"node","id":243496029,"lat":48.8811181,"lon":2.3149118,"tags":{"STIF:zone":"1","name":"Villiers","name:ar":"فيلييه","name:ko":"빌리에르","name:ru":"Вилье","name:zh":"维利耶","public_transport":"station","railway":"station","ref:FR:FANTOIR":"75117S589Z","ref:FR:RATP":"1654","ref:FR:STIF":"22027","source":"STIF - 12/2016","station":"subway","subway":"yes","type:RATP":"metro","wheelchair":"no","wikidata":"Q1511335","wikipedia":"fr:Villiers (métro de Paris)"}},{"type":"node","id":243496030,"lat":48.8803157,"lon":2.3086415,"tags":{"STIF:zone":"1","check_date:wheelchair":"2023-09-02","name":"Monceau","name:ar":"مونسو","name:ko":"몽소","name:zh":"蒙索","public_transport":"station","railway":"station","ref:FR:FANTOIR":"75108S334L","ref:FR:RATP":"1749","ref:FR:STIF":"22117","source":"STIF - 12/2016","station":"subway","subway":"yes","type:RATP":"metro","wheelchair":"no","wikidata":"Q1717241","wikipedia":"fr:Monceau (métro de Paris)"}},{"type":"node","id":243496729,"lat":48.8715463,"lon":2.2774569,"tags":{"STIF:zone":"1","alt_name":"Porte Dauphine (Maréchal de Lattre de Tassigny)","name":"Porte Dauphine","name:ar":"بورت دوفين","name:ru":"Порт-Дофин","name:zh":"太子妃门","public_transport":"station","railway":"station","ref:FR:FANTOIR":"75116S436P","ref:FR:RATP":"1714","station":"subway","subway":"yes","type:RATP":"metro","wheelchair":"no","wikidata":"Q1459245","wikipedia":"fr:Porte Dauphine (métro de Paris)"}},{"type":"node","id":243507789,"lat":48.864335,"lon":2.3794817,"tags":{"STIF:zone":"1","gtfs:stop_id":"IDFM:71795","name":"Rue Saint-Maur","name:ru":"Рю-Сен-Мор","name:zh":"圣莫尔路","public_transport":"station","railway":"station","ref:FR:FANTOIR":"75111S520Y","ref:FR:RATP":"1693","ref:FR:STIF":"22025","source":"STIF - 12/2016","station":"subway","subway":"yes","type:RATP":"metro","wheelchair":"no","wikidata":"Q1315757","wikipedia":"fr:Rue Saint-Maur (métro de Paris)"}},{"type":"node","id":243507790,"lat":48.8653571,"lon":2.3739035,"tags":{"STIF:zone":"1","gtfs:stop_id":"IDFM:463250","name":"Parmentier","name:ru":"Пармантье","name:zh":"帕尔芒捷","public_transport":"station","railway":"station","ref:FR:FANTOIR":"75111S404X","ref:FR:RATP":"1779","ref:FR:STIF":"22019","source":"STIF - 12/2016","station":"subway","subway":"yes","type:RATP":"metro","wheelchair":"no","wikidata":"Q1970334","wikipedia":"fr:Parmentier (métro de Paris)"}},{"type":"node","id":243507793,"lat":48.8654718,"lon":2.3561116,"tags":{"STIF:zone":"1","addr:city":"Paris","check_date:wheelchair":"2025-12-09","name":"Arts et Métiers","name:ko":"아르 에 메티에르","name:ru":"Ар-э-Метье","name:zh":"工艺美术馆","operator":"RATP","public_transport":"station","railway":"station","ref:FR:RATP":"1988","ref:FR:STIF":"21994","source":"STIF - 12/2016","station":"subway","subway":"yes","type:RATP":"metro","wheelchair":"no","wikidata":"Q713944","wikipedia":"fr:Arts et Métiers (métro de Paris)"}},{"type":"node","id":243510334,"lat":48.8686539,"lon":2.3414383,"tags":{"STIF:zone":"1","name":"Bourse","name:ko":"부르스","name:ru":"Бурс","name:zh":"证券交易所","public_transport":"station","railway":"station","ref:FR:FANTOIR":"75102S052B","ref:FR:RATP":"1930","ref:FR:STIF":"22033","source":"STIF - 12/2016","station":"subway","subway":"yes","type:RATP":"metro","wheelchair":"no","wikidata":"Q895259","wikipedia":"fr:Bourse (métro de Paris)"}},{"type":"node","id":243510335,"lat":48.8695929,"lon":2.3358665,"tags":{"STIF:zone":"1","name":"Quatre Septembre","name:fr":"Quatre Septembre","name:ko":"카트르 셉탕브르","name:ru":"Катр-Септамбр","name:zh":"九月四日","public_transport":"station","railway":"station","ref:FR:FANTOIR":"75102S473J","ref:FR:RATP":"1744","ref:FR:STIF":"22024","source":"STIF - 12/2016","station":"subway","subway":"yes","type:RATP":"metro","wheelchair":"no","wikidata":"Q945229","wikipedia":"fr:Quatre-Septembre (métro de Paris)"}},{"type":"node","id":243510336,"lat":48.8706446,"lon":2.33233,"tags":{"STIF:zone":"1","name":"Opéra","name:ko":"오페라","name:ru":"Опера","name:zh":"歌剧院","public_transport":"station","railway":"station","ref:FR:FANTOIR":"75109S383F","ref:FR:RATP":"1771","ref:FR:STIF":"22030","source":"STIF - 12/2016","station":"subway","subway":"yes","type:RATP":"metro","wheelchair":"no","wikidata":"Q1392037","wikipedia":"fr:Opéra (métro de Paris)"}},{"type":"node","id":243510337,"lat":48.8737533,"lon":2.3274302,"tags":{"STIF:zone":"1","name":"Havre - Caumartin","name:fr":"Havre - Caumartin","name:ko":"아브르 - 코마르탱","name:ru":"Гавр — Комартен","name:zh":"阿弗尔-科马丹","network":"Métro de Paris","network:wikidata":"Q50716","old_name":"Caumartin","operator":"RATP","operator:wikidata":"Q643290","public_transport":"station","railway":"station","ref:FR:FANTOIR":"75109S223G","ref:FR:RATP":"1852","ref:FR:STIF":"21906;21926","station":"subway","subway":"yes","type:RATP":"metro","wheelchair":"no","wikidata":"Q1511406","wikipedia":"fr:Havre - Caumartin (métro de Paris)"}},{"type":"node","id":243510338,"lat":48.8756142,"lon":2.3241006,"tags":{"STIF:zone":"1","addr:city":"Paris","addr:postcode":"75009","addr:street":"Cour de Rome","level":"-4","name":"Saint-Lazare","name:fr":"Saint-Lazare","name:ru":"Сен-Лазар","network":"Métro de Paris;RATP","operator":"RATP","public_transport":"stop_position","railway":"stop","start_date":"2003-12-16","station":"subway","subway":"yes","type:RATP":"metro","wheelchair":"yes","wikidata":"Q1519529","wikipedia":"fr:Saint-Lazare (métro de Paris)"}},{"type":"node","id":243510678,"lat":48.8829752,"lon":2.3089995,"tags":{"STIF:zone":"1","name":"Malesherbes","name:ko":"말르셰르브","name:ru":"Мальзерб","name:zh":"马勒泽布","public_transport":"station","railway":"station","ref:FR:FANTOIR":"75117S319F","ref:FR:RATP":"1826","ref:FR:STIF":"22031","source":"STIF - 12/2016","station":"subway","subway":"yes","type:RATP":"metro","wheelchair":"no","wikidata":"Q1784153","wikipedia":"fr:Malesherbes (métro de Paris)"}},{"type":"node","id":243510679,"lat":48.8840526,"lon":2.3037389,"tags":{"STIF:zone":"1","heritage":"3","heritage:operator":"mhs","mhs:inscription_date":"1978","name":"Wagram","name:ko":"바그랑","name:ru":"Ваграм","name:zh":"瓦格拉姆","public_transport":"station","railway":"station","ref:FR:FANTOIR":"75117S601M","ref:FR:RATP":"1658","ref:FR:STIF":"22028","ref:mhs":"PA00086728","source":"STIF - 12/2016","source:heritage":"data.gouv.fr:Ministère de la Culture - 08/2011","station":"subway","subway":"yes","type:RATP":"metro","wheelchair":"no","wikidata":"Q944564","wikipedia":"fr:Wagram (métro de Paris)"}},{"type":"node","id":243510680,"lat":48.8847906,"lon":2.2983109,"tags":{"STIF:zone":"1","name":"Pereire","name:ko":"페레이르 - 르발루아","name:ru":"Перер","name:zh":"佩雷尔","public_transport":"station","railway":"station","ref:FR:FANTOIR":"75117S409D","ref:FR:RATP":"1740","ref:FR:STIF":"22021;463228","station":"subway","subway":"yes","type:RATP":"metro","wheelchair":"no","wikidata":"Q670081","wikipedia":"fr:Pereire (métro de Paris)"}},{"type":"node","id":243510681,"lat":48.8858342,"lon":2.2931032,"tags":{"STIF:zone":"1","name":"Porte de Champerret","name:ko":"포르트 드 샹페레","name:ru":"Порт-де-Шанперре","name:zh":"尚佩雷门","public_transport":"stop_position","railway":"station","ref:FR:FANTOIR":"75117S430B","ref:FR:RATP":"1722","ref:FR:STIF":"411230","source":"STIF - 12/2016","subway":"yes","type:RATP":"metro","wheelchair":"no","wikidata":"Q167371","wikipedia":"fr:Porte de Champerret (métro de Paris)"}},{"type":"node","id":244494486,"lat":48.839587,"lon":2.3012795,"tags":{"STIF:zone":"1","alt_name":"Vaugirard (Adolphe Chérioux)","name":"Vaugirard","name:fr":"Vaugirard","name:ru":"Вожирар","name:zh":"沃日拉尔","public_transport":"station","railway":"station","ref:FR:FANTOIR":"75115S584E","ref:FR:RATP":"1645;1604","ref:FR:STIF":"22047","source":"STIF - 12/2016","station":"subway","subway":"yes","type:RATP":"metro","wheelchair":"no","wikidata":"Q769848","wikipedia":"fr:Vaugirard (métro de Paris)"}},{"type":"node","id":244494489,"lat":48.8415334,"lon":2.3080102,"tags":{"STIF:zone":"1","check_date:wheelchair":"2021-05-25","name":"Volontaires","name:ru":"Волонтер","name:zh":"志愿者","public_transport":"station","railway":"station","ref:FR:FANTOIR":"75115S590L","ref:FR:RATP":"1656;1603","ref:FR:STIF":"22048","source":"STIF - 12/2016","station":"subway","subway":"yes","type:RATP":"metro","wheelchair":"no","wikidata":"Q238902","wikipedia":"fr:Volontaires (métro de Paris)"}},{"type":"node","id":244494496,"lat":48.8444916,"lon":2.317965,"tags":{"STIF:zone":"1","check_date:wheelchair":"2021-06-30","name":"Falguière","name:ru":"Фальгьер","name:zh":"法尔吉埃","operator":"RATP","public_transport":"station","railway":"station","ref:FR:FANTOIR":"75115S162W","ref:FR:RATP":"1601;1918","ref:FR:STIF":"22056","source":"SNCF - 06/2013","station":"subway","subway":"yes","type:RATP":"metro","wheelchair":"no","wikidata":"Q568013","wikipedia":"fr:Falguière (métro de Paris)"}},{"type":"node","id":245250755,"lat":48.8468433,"lon":2.3166286,"tags":{"STIF:zone":"1","check_date:wheelchair":"2021-05-03","name":"Duroc","name:fr":"Duroc","name:ko":"뒤로크","name:ru":"Дюрок","name:zh":"杜洛克","public_transport":"station","railway":"station","ref:FR:FANTOIR":"75107S127T","ref:FR:RATP":"1908","ref:FR:STIF":"22229","source":"STIF - 12/2016","station":"subway","subway":"yes","type:RATP":"metro","wheelchair":"no","wikidata":"Q1267446","wikipedia":"fr:Duroc (métro de Paris)"}},{"type":"node","id":245455187,"lat":48.8413382,"lon":2.4009129,"tags":{"STIF:zone":"1","gtfs:stop_id":"IDFM:73650","name":"Bel-Air","name:zh":"贝莱尔","public_transport":"station","railway":"station","ref:FR:FANTOIR":"75112S037U","ref:FR:RATP":"2003","ref:FR:STIF":"22177","source":"STIF - 12/2016","station":"subway","subway":"yes","type:RATP":"metro","wheelchair":"no","wikidata":"Q815061","wikipedia":"fr:Bel-Air (métro de Paris)"}},{"type":"node","id":249335596,"lat":48.8905061,"lon":2.3599967,"tags":{"STIF:zone":"1","check_date:wheelchair":"2024-07-20","name":"Marx Dormoy","name:zh":"马克思·多尔穆瓦","old_name":"Torcy","public_transport":"stop_position","railway":"station","ref:FR:FANTOIR":"75118S324G","ref:FR:RATP":"1831","ref:FR:STIF":"22053","source":"STIF - 12/2016","station":"subway","subway":"yes","type:RATP":"metro","wheelchair":"no","wikidata":"Q1622759","wikipedia":"fr:Marx Dormoy (métro de Paris)"}},{"type":"node","id":249524554,"lat":48.9163939,"lon":2.2946589,"tags":{"STIF:zone":"1","addr:city":"Asnières-sur-Seine","addr:postcode":"92600","alt_name":"Asnières – Gennevilliers – Gabriel Péri","name":"Gabriel Péri","name:zh":"加布里埃尔·佩里","network":"Métro de Paris;RATP","old_name":"Asnières – Gennevilliers","operator":"RATP","public_transport":"station","railway":"station","ref:FR:RATP":"22443","ref:FR:STIF":"22234","source":"STIF - 12/2016","station":"subway","subway":"yes","type:RATP":"metro","wikidata":"Q645691","wikipedia":"fr:Gabriel Péri (métro de Paris)"}},{"type":"node","id":251387813,"lat":48.8711191,"lon":2.3607546,"tags":{"STIF:zone":"1","name":"Jacques Bonsergent","name:ko":"자크 봉세르장","name:zh":"雅克·邦塞尔让","old_name":"Lancry","public_transport":"stop_position","railway":"station","ref:FR:FANTOIR":"75110S251H","ref:FR:RATP":"1859","ref:FR:STIF":"22011","source":"STIF - 12/2016","station":"subway","subway":"yes","type:RATP":"metro","wheelchair":"yes","wikidata":"Q1677923","wikipedia":"fr:Jacques Bonsergent (métro de Paris)"}},{"type":"node","id":255160720,"lat":48.8579778,"lon":2.43575,"tags":{"STIF:zone":"1","alt_name":"Croix-de-Chavaux (Jacques Duclos)","name":"Croix de Chavaux","name:zh":"沙佛十字路","public_transport":"stop_position","railway":"station","ref:FR:RATP":"1896","ref:FR:STIF":"21943","source":"STIF - 12/2016","station":"subway","subway":"yes","type:RATP":"metro","wheelchair":"no","wikidata":"Q1140796","wikipedia":"fr:Croix de Chavaux (métro de Paris)"}},{"type":"node","id":255160722,"lat":48.8625988,"lon":2.441569,"tags":{"STIF:zone":"1","name":"Mairie de Montreuil","name:zh":"蒙特勒伊市政府","public_transport":"stop_position","railway":"station","ref:FR:RATP":"1817","ref:FR:STIF":"21941","source":"STIF - 12/2016","station":"subway","subway":"yes","type:RATP":"metro","wheelchair":"no","wikidata":"Q668351","wikipedia":"fr:Mairie de Montreuil (métro de Paris)"}},{"type":"node","id":255161921,"lat":48.8971408,"lon":2.2803973,"tags":{"alt_name":"Pont de Levallois-Bécon","name":"Pont de Levallois - Bécon","name:fr":"Pont de Levallois - Bécon","name:ru":"Пон-де-Левалюа - Бекон","public_transport":"stop_position","railway":"stop","source":"STIF - 12/2016","station":"subway","subway":"yes","wheelchair":"no"}},{"type":"node","id":256441194,"lat":48.8527267,"lon":2.4061303,"tags":{"STIF:zone":"1","check_date:wheelchair":"2021-07-15","gtfs:stop_id":"IDFM:71703","name":"Maraîchers","name:zh":"菜农","public_transport":"station","railway":"station","ref:FR:FANTOIR":"75120S320S","ref:FR:RATP":"55372","ref:FR:STIF":"21936","source":"STIF - 12/2016","station":"subway","subway":"yes","type:RATP":"metro","wheelchair":"no","wikidata":"Q631846","wikipedia":"fr:Maraîchers (métro de Paris)"}},{"type":"node","id":256442845,"lat":48.8558145,"lon":2.4237108,"tags":{"STIF:zone":"1","name":"Robespierre","name:ru":"Робеспьер","name:zh":"罗珀斯庇尔","public_transport":"stop_position","railway":"station","ref:FR:RATP":"1667","ref:FR:STIF":"21942","source":"STIF - 12/2016","station":"subway","subway":"yes","type:RATP":"metro","wheelchair":"no","wikidata":"Q1784141","wikipedia":"fr:Robespierre (métro de Paris)"}},{"type":"node","id":256443205,"lat":48.8525808,"lon":2.3887914,"tags":{"STIF:zone":"1","name":"Rue des Boulets","name:zh":"铁球路","public_transport":"stop_position","railway":"station","ref:FR:FANTOIR":"75111S050M","ref:FR:RATP":"1673","ref:FR:STIF":"22442","source":"STIF - 12/2016","station":"subway","subway":"yes","type:RATP":"metro","wheelchair":"no","wikidata":"Q1969472","wikipedia":"fr:Rue des Boulets (métro de Paris)"}},{"type":"node","id":256443438,"lat":48.8547411,"lon":2.3853043,"tags":{"STIF:zone":"1","alt_name":"Charonne (place du 6-Février-1962)","name":"Charonne","name:zh":"沙隆","public_transport":"station","railway":"station","ref:FR:FANTOIR":"75111S085A","ref:FR:RATP":"1955","ref:FR:STIF":"21934","source":"STIF - 12/2016","station":"subway","subway":"yes","type:RATP":"metro","wheelchair":"no","wikidata":"Q948012","wikipedia":"fr:Charonne (métro de Paris)"}},{"type":"node","id":256895321,"lat":48.8581794,"lon":2.3798223,"tags":{"STIF:zone":"1","alt_name":"Voltaire (Léon Blum)","name":"Voltaire","name:zh":"伏尔泰","public_transport":"station","railway":"station","ref:FR:FANTOIR":"75111S591A","ref:FR:RATP":"1657","ref:FR:STIF":"21916","source":"survey 2013","station":"subway","subway":"yes","type:RATP":"metro","wheelchair":"no","wikidata":"Q1789126","wikipedia":"fr:Voltaire (métro de Paris)"}},{"type":"node","id":256895609,"lat":48.8610434,"lon":2.3747264,"tags":{"STIF:zone":"1","name":"Saint-Ambroise","name:zh":"圣昂布瓦斯","public_transport":"station","railway":"station","ref:FR:FANTOIR":"75111S510M","ref:FR:RATP":"1680","ref:FR:STIF":"21910","source":"STIF - 12/2016","station":"subway","subway":"yes","type:RATP":"metro","wheelchair":"no","wikidata":"Q1450538","wikipedia":"fr:Saint-Ambroise (métro de Paris)"}},{"type":"node","id":256896059,"lat":48.8641124,"lon":2.3694232,"tags":{"STIF:zone":"1","name":"Oberkampf","name:zh":"奥伯坎普夫","public_transport":"station","railway":"station","ref:FR:FANTOIR":"75111S381X","ref:FR:RATP":"1769","ref:FR:STIF":"21925","source":"STIF - 12/2016","station":"subway","subway":"yes","type:RATP":"metro","wheelchair":"no","wikidata":"Q1578030","wikipedia":"fr:Oberkampf (métro de Paris)"}},{"type":"node","id":256897078,"lat":48.8705324,"lon":2.3487457,"tags":{"STIF:zone":"1","name":"Bonne Nouvelle","name:ko":"본 누벨","name:zh":"佳音","public_transport":"station","railway":"station","ref:FR:FANTOIR":"75102P003Z;75102P004A","ref:FR:RATP":"2015","ref:FR:STIF":"21933","source":"STIF - 12/2016","station":"subway","subway":"yes","type:RATP":"metro","wheelchair":"no","wikidata":"Q892720","wikipedia":"fr:Bonne-Nouvelle (métro de Paris)"}},{"type":"node","id":256897079,"lat":48.8714412,"lon":2.3434953,"tags":{"STIF:zone":"1","name":"Grands Boulevards","name:ko":"그랑드 불르바르","name:zh":"大道","old_name":"Montmartre; rue Montmartre","public_transport":"station","railway":"station","ref:FR:RATP":"1671","ref:FR:STIF":"21909","source":"STIF - 12/2016","station":"subway","subway":"yes","type:RATP":"metro","wheelchair":"no","wikidata":"Q1543053","wikipedia":"fr:Grands Boulevards (métro de Paris)"}},{"type":"node","id":256897080,"lat":48.8717041,"lon":2.3385398,"tags":{"STIF:zone":"1","level":"-2","name":"Richelieu - Drouot","name:ru":"Ришельё — Друо","network":"RATP","operator":"RATP","public_transport":"stop_position","railway":"stop","ref:FR:FANTOIR":"75109S488V","ref:FR:RATP":"1665","ref:FR:STIF":"22196","source":"STIF - 12/2016","station":"subway","subway":"yes","type:RATP":"metro","wheelchair":"no","wikidata":"Q1412692","wikipedia":"fr:Richelieu - Drouot (métro de Paris)"}},{"type":"node","id":256897554,"lat":48.874471,"lon":2.3217921,"tags":{"STIF:zone":"1","name":"Saint-Augustin","name:zh":"圣奥古斯丁","public_transport":"stop_position","railway":"station","ref:FR:FANTOIR":"75108S511D","ref:FR:RATP":"1681","ref:FR:STIF":"21911","source":"STIF - 12/2016","station":"subway","subway":"yes","type:RATP":"metro","wheelchair":"no","wikidata":"Q649273","wikipedia":"fr:Saint-Augustin (métro de Paris)"}},{"type":"node","id":260078615,"lat":48.8465303,"lon":2.3518356,"tags":{"STIF:zone":"1","addr:city":"Paris","gtfs:stop_id":"IDFM:71153;IDFM:21984","name":"Cardinal Lemoine","name:ja":"カルディナル・ルモワヌ駅","name:zh":"勒莫万枢机","public_transport":"station","railway":"station","ref:FR:FANTOIR":"75105S074W","ref:FR:RATP":"1942","ref:FR:STIF":"21984","source":"STIF - 12/2016","station":"subway","subway":"yes","train":"yes","type:RATP":"metro","wheelchair":"no","wikidata":"Q607342","wikipedia":"fr:Cardinal Lemoine (métro de Paris)"}},{"type":"node","id":260078619,"lat":48.8500649,"lon":2.3484301,"tags":{"STIF:zone":"1","name":"Maubert - Mutualité","name:ja":"モベール＝ミュテュアリテ駅","name:zh":"莫贝-医保互助会","public_transport":"station","railway":"station","ref:FR:FANTOIR":"75105S327W","ref:FR:RATP":"1834","ref:FR:STIF":"21975","source":"STIF - 12/2016","station":"subway","subway":"yes","type:RATP":"metro","wheelchair":"no","wikidata":"Q1789145","wikipedia":"fr:Maubert - Mutualité (métro de Paris)"}},{"type":"node","id":260078622,"lat":48.8510938,"lon":2.3441587,"tags":{"STIF:zone":"1","name":"Cluny-La Sorbonne","name:zh":"克吕尼-拉索邦","old_name":"Cluny","operator":"RATP Ile de France Mobilités","public_transport":"station","railway":"station","ref:FR:FANTOIR":"75105S108H","ref:FR:RATP":"54244","ref:FR:STIF":"21983","source":"STIF - 12/2016","station":"subway","subway":"yes","type:RATP":"metro","wheelchair":"limited","wikidata":"Q1103432","wikipedia":"fr:Cluny - La Sorbonne (métro de Paris)"}},{"type":"node","id":260079322,"lat":48.8528857,"lon":2.3349394,"tags":{"STIF:zone":"1","addr:city":"Paris","name":"Mabillon","name:ko":"마비용","name:zh":"马比永","public_transport":"station","railway":"station","ref:FR:FANTOIR":"75106S311Z","ref:FR:RATP":"1812","ref:FR:STIF":"21973","source":"STIF - 12/2016","station":"subway","subway":"yes","type:RATP":"metro","wheelchair":"no","wikidata":"Q974510","wikipedia":"fr:Mabillon (métro de Paris)"}},{"type":"node","id":260231828,"lat":48.8363968,"lon":2.278379,"tags":{"STIF:zone":"1","name":"Balard","name:zh":"巴拉尔","public_transport":"station","railway":"station","ref:FR:FANTOIR":"75115S034G","ref:FR:RATP":"1997;1609","ref:FR:STIF":"22186","source":"STIF, 12/2016 - Île-de-France Mobilités, 01/2024","station":"subway","subway":"yes","type:RATP":"metro","wheelchair":"no","wikidata":"Q804647","wikipedia":"fr:Balard (métro de Paris)"}},{"type":"node","id":260231831,"lat":48.8387364,"lon":2.2821481,"tags":{"STIF:zone":"1","check_date:wheelchair":"2025-03-06","name":"Lourmel","name:zh":"卢梅尔","public_transport":"station","railway":"station","ref:FR:FANTOIR":"75115S292M","ref:FR:RATP":"1808;1610","ref:FR:STIF":"22187","source":"STIF - 12/2016","station":"subway","subway":"yes","type:RATP":"metro","wheelchair":"no","wikidata":"Q1651903","wikipedia":"fr:Lourmel (métro de Paris)"}},{"type":"node","id":260231832,"lat":48.8410837,"lon":2.2879218,"tags":{"STIF:zone":"1","name":"Boucicaut","name:zh":"布西科","network":"RATP","public_transport":"station","railway":"station","ref:FR:FANTOIR":"75115S049Y","ref:FR:RATP":"2017;1611","ref:FR:STIF":"22188","source":"STIF - 12/2016","station":"subway","subway":"yes","type:RATP":"metro","wheelchair":"no","wikidata":"Q894984","wikipedia":"fr:Boucicaut (métro de Paris)"}},{"type":"node","id":260231833,"lat":48.8426775,"lon":2.2917792,"tags":{"STIF:zone":"1","addr:city":"Paris","name":"Félix Faure","name:zh":"费利克斯·福尔","public_transport":"station","railway":"station","ref:FR:FANTOIR":"75115S163X","ref:FR:RATP":"1612;1925","ref:FR:STIF":"22189","source":"STIF - 12/2016","station":"subway","subway":"yes","type:RATP":"metro","wheelchair":"no","wikidata":"Q1479476","wikipedia":"fr:Félix Faure (métro de Paris)"}},{"type":"node","id":260762378,"lat":48.8390379,"lon":2.3897217,"tags":{"STIF:zone":"1","addr:city":"Paris","name":"Dugommier","name:zh":"迪戈米耶","old_name":"Charenton","public_transport":"station","railway":"station","ref:FR:FANTOIR":"75112S125P","ref:FR:RATP":"1906","ref:FR:STIF":"22182","source":"STIF - 12/2016","station":"subway","subway":"yes","type:RATP":"metro","wheelchair":"no","wikidata":"Q602615","wikipedia":"fr:Dugommier (métro de Paris)"}},{"type":"node","id":260762540,"lat":48.8401405,"lon":2.3799259,"tags":{"STIF:zone":"1","name":"Bercy","name:zh":"贝尔西","network":"Métro de Paris","network:wikidata":"Q50716","operator":"RATP","operator:wikidata":"Q643290","public_transport":"station","railway":"station","ref:FR:FANTOIR":"75112S040X","ref:FR:RATP":"2005","ref:FR:STIF":"22178","station":"subway","subway":"yes","type:RATP":"metro","wheelchair":"yes","wikidata":"Q818853","wikipedia":"fr:Bercy (métro de Paris)"}},{"type":"node","id":260763474,"lat":48.8410969,"lon":2.3250718,"tags":{"name":"Edgar Quinet","network":"Métro de Paris","operator":"RATP","public_transport":"stop_position","railway":"stop","station":"subway","subway":"yes","wikidata":"Q56707803"}},{"type":"node","id":260763892,"lat":48.8421022,"lon":2.3202714,"tags":{"STIF:zone":"1","name":"Montparnasse-Bienvenüe","name:ru":"Монпарнас — Бьенвеню","name:zh":"蒙帕纳斯-比安弗尼","network":"Métro de Paris","network:wikidata":"Q50716","operator":"RATP","operator:wikidata":"Q643290","public_transport":"station","railway":"station","ref:FR:RATP":"1751","ref:FR:STIF":"22157","source":"STIF - 12/2016","station":"subway","subway":"yes","type:RATP":"metro","wheelchair":"no","wikidata":"Q764465","wikipedia":"fr:Montparnasse - Bienvenüe (métro de Paris)"}},{"type":"node","id":260764273,"lat":48.8429336,"lon":2.3125906,"tags":{"STIF:zone":"1","check_date:wheelchair":"2025-09-09","name":"Pasteur","name:ru":"Пастер","name:zh":"巴斯德","public_transport":"station","railway":"station","ref:FR:FANTOIR":"75115S406L","ref:FR:RATP":"1602;1781","ref:FR:STIF":"22039","source":"STIF - 12/2016","station":"subway","subway":"yes","type:RATP":"metro","wheelchair":"no","wikidata":"Q1578103","wikipedia":"fr:Pasteur (métro de Paris)"}},{"type":"node","id":260765385,"lat":48.8716801,"lon":2.2935185,"tags":{"STIF:zone":"1","name":"Kléber","name:ko":"클레베","name:zh":"克勒贝尔","operator":"RATP","operator:wikidata":"Q643290","public_transport":"station","railway":"station","ref:FR:FANTOIR":"75116S271K","ref:FR:RATP":"1867","ref:FR:STIF":"22170","source":"STIF - 12/2016","station":"subway","subway":"yes","type:RATP":"metro","wheelchair":"no","wikidata":"Q254308","wikipedia":"fr:Kléber (métro de Paris)"}},{"type":"node","id":260765390,"lat":48.8575009,"lon":2.285778,"tags":{"STIF:zone":"1","addr:city":"Paris","name":"Passy","name:ko":"파시","name:ru":"Пасси","name:zh":"帕西","operator":"RATP","public_transport":"station","railway":"station","ref:FR:FANTOIR":"75116S405F","ref:FR:RATP":"1780","ref:FR:STIF":"22165","source":"STIF - 12/2016","station":"subway","subway":"yes","type:RATP":"metro","wheelchair":"yes","wikidata":"Q1576609","wikipedia":"fr:Passy (métro de Paris)"}},{"type":"node","id":260767422,"lat":48.8646131,"lon":2.2937335,"tags":{"STIF:zone":"1","name":"Iéna","name:ko":"예나","name:zh":"耶拿","public_transport":"stop_position","railway":"station","ref:FR:FANTOIR":"75116S241C","ref:FR:RATP":"1858","ref:FR:STIF":"21927","source":"STIF - 12/2016","station":"subway","subway":"yes","type:RATP":"metro","wheelchair":"no","wikidata":"Q1237945","wikipedia":"fr:Iéna (métro de Paris)"}},{"type":"node","id":260767423,"lat":48.8640672,"lon":2.278149,"tags":{"STIF:zone":"1","alt_name":"Rue de la Pompe (Avenue Georges Mandel)","name":"Rue de la Pompe","name:ko":"뤼 드 라 퐁프","name:zh":"水泵路","public_transport":"stop_position","railway":"station","ref:FR:FANTOIR":"75116S421Y","ref:FR:RATP":"1672","ref:FR:STIF":"21908","source":"STIF - 12/2016","station":"subway","subway":"yes","type:RATP":"metro","wheelchair":"no","wikidata":"Q771548","wikipedia":"fr:Rue de la Pompe (métro de Paris)"}},{"type":"node","id":260767424,"lat":48.8579754,"lon":2.274062,"tags":{"STIF:zone":"1","check_date:wheelchair":"2021-10-28","name":"La Muette","name:ru":"Ля-Мюэт","name:zh":"犬舍","network":"Métro de Paris","network:wikidata":"Q50716","operator":"RATP","public_transport":"stop_position","railway":"station","ref:FR:FANTOIR":"75116S340K","ref:FR:RATP":"1876","ref:FR:STIF":"21929","source":"STIF - 12/2016","station":"subway","subway":"yes","type:RATP":"metro","wheelchair":"no","wikidata":"Q168170","wikipedia":"fr:La Muette (métro de Paris)"}},{"type":"node","id":260767425,"lat":48.8555764,"lon":2.2702166,"tags":{"STIF:zone":"1","name":"Ranelagh","name:zh":"拉内尔拉格","public_transport":"stop_position","railway":"station","ref:FR:FANTOIR":"75116S482P","ref:FR:RATP":"1659","ref:FR:STIF":"21915","source":"STIF - 12/2016","station":"subway","subway":"yes","type:RATP":"metro","wheelchair":"no","wikidata":"Q1969938","wikipedia":"fr:Ranelagh (métro de Paris)"}},{"type":"node","id":260767426,"lat":48.8525598,"lon":2.2681802,"tags":{"STIF:zone":"1","name":"Jasmin","name:zh":"雅斯门","public_transport":"stop_position","railway":"station","ref:FR:FANTOIR":"75116S252P","ref:FR:RATP":"1860","ref:FR:STIF":"21928","source":"STIF - 12/2016","station":"subway","subway":"yes","type:RATP":"metro","wheelchair":"no","wikidata":"Q1683797","wikipedia":"fr:Jasmin (métro de Paris)"}},{"type":"node","id":260767428,"lat":48.8450092,"lon":2.26111,"tags":{"STIF:zone":"1","check_date:wheelchair":"2021-06-13","name":"Michel-Ange - Molitor","name:zh":"米歇尔-安热-莫利托","public_transport":"station","railway":"station","ref:FR:FANTOIR":"75116S330Z","ref:FR:RATP":"1837","ref:FR:STIF":"21923","source":"STIF - 12/2016","station":"subway","subway":"yes","type:RATP":"metro","wheelchair":"no","wikidata":"Q1228836","wikipedia":"fr:Michel-Ange - Molitor (métro de Paris)"}},{"type":"node","id":260767429,"lat":48.8430044,"lon":2.2600472,"tags":{"STIF:zone":"1","name":"Exelmans","name:zh":"埃克赛蒙","public_transport":"stop_position","railway":"station","ref:FR:FANTOIR":"75116S149C","ref:FR:RATP":"1916","ref:FR:STIF":"21930","source":"STIF - 12/2016","station":"subway","subway":"yes","type:RATP":"metro","wheelchair":"no","wikidata":"Q970844","wikipedia":"fr:Exelmans (métro de Paris)"}},{"type":"node","id":260767430,"lat":48.8377937,"lon":2.256558,"tags":{"STIF:zone":"1","check_date:wheelchair":"2021-06-27","name":"Porte de Saint-Cloud","name:zh":"圣克卢门","public_transport":"stop_position","railway":"station","ref:FR:FANTOIR":"75116S445Z","ref:FR:RATP":"1729","ref:FR:STIF":"21914","source":"STIF - 12/2016","station":"subway","subway":"yes","type:RATP":"metro","wheelchair":"no","wikidata":"Q1451224","wikipedia":"fr:Porte de Saint-Cloud (métro de Paris)"}},{"type":"node","id":260769132,"lat":48.8648683,"lon":2.300292,"tags":{"STIF:zone":"1","name":"Alma-Marceau","name:zh":"阿尔玛-玛索","public_transport":"stop_position","railway":"station","ref:FR:FANTOIR":"75108S004C","ref:FR:RATP":"1980","ref:FR:STIF":"21935","source":"STIF - 12/2016","station":"subway","subway":"yes","type:RATP":"metro","wheelchair":"no","wikidata":"Q1768692","wikipedia":"fr:Alma - Marceau (métro de Paris)"}},{"type":"node","id":260769651,"lat":48.8722352,"lon":2.3100505,"tags":{"STIF:zone":"1","name":"Saint-Philippe du Roule","name:ko":"생필리프 뒤 룰","name:zh":"圣菲利普卢勒","public_transport":"stop_position","railway":"station","ref:FR:FANTOIR":"75108S524T","ref:FR:RATP":"1696","ref:FR:STIF":"21912","source":"STIF - 12/2016","station":"subway","subway":"yes","type:RATP":"metro","wheelchair":"no","wikidata":"Q1784247","wikipedia":"fr:Saint-Philippe du Roule (métro de Paris)"}},{"type":"node","id":260769652,"lat":48.873719,"lon":2.3145029,"tags":{"STIF:zone":"1","name":"Miromesnil","name:fr":"Miromesnil","name:ko":"미로메니유","name:ru":"Миромениль","name:zh":"米罗梅尼尔","public_transport":"station","railway":"station","ref:FR:FANTOIR":"75108P013N;75108P014P","ref:FR:RATP":"1747","ref:FR:STIF":"21924","source":"STIF - 12/2016","station":"subway","subway":"yes","type:RATP":"metro","wheelchair":"yes","wikidata":"Q1578045","wikipedia":"fr:Miromesnil (métro de Paris)"}},{"type":"node","id":261162833,"lat":48.8512518,"lon":2.326992,"tags":{"STIF:zone":"1","addr:city":"Paris","gtfs:stop_id":"IDFM:71203","name":"Sèvres-Babylone","name:fr":"Sèvres-Babylone","name:ko":"세브르바빌론","name:ru":"Севр — Бабилон","name:zh":"塞夫尔-巴比伦","old_name":"Sèvres – Croix-Rouge","public_transport":"station","railway":"station","ref:FR:FANTOIR":"75107S532H","ref:FR:RATP":"1632","ref:FR:STIF":"21980","source":"STIF - 12/2016","station":"subway","subway":"yes","type:RATP":"metro","wheelchair":"no","wikidata":"Q1578089","wikipedia":"fr:Sèvres - Babylone (métro de Paris)"}},{"type":"node","id":261611470,"lat":48.9032278,"lon":2.3059879,"tags":{"STIF:zone":"1","addr:city":"Clichy","addr:postcode":"92110","name":"Mairie de Clichy","name:zh":"克利希市政厅","network":"Métro de Paris;RATP","operator":"RATP","public_transport":"station","railway":"station","ref:FR:RATP":"1816","ref:FR:STIF":"22238","source":"STIF - 12/2016","station":"subway","subway":"yes","type:RATP":"metro","wikidata":"Q1885852","wikipedia":"fr:Mairie de Clichy (métro de Paris)"}},{"type":"node","id":261611884,"lat":48.8905757,"lon":2.3202004,"tags":{"STIF:zone":"1","addr:city":"Paris","addr:postcode":"75017","name":"Brochant","name:zh":"博尚","network":"Métro de Paris","operator":"RATP","public_transport":"station","railway":"station","ref:FR:FANTOIR":"75117S054T","ref:FR:RATP":"1931","ref:FR:STIF":"22231","source":"STIF - 12/2016","start_date":"1912-01-20","station":"subway","subway":"yes","type:RATP":"metro","wheelchair":"no","wikidata":"Q923435","wikipedia":"fr:Brochant (métro de Paris)"}},{"type":"node","id":261612240,"lat":48.886971,"lon":2.3258228,"tags":{"STIF:zone":"1","addr:city":"Paris","addr:postcode":"75017","name":"La Fourche","name:fr":"La Fourche","name:ru":"Ля-Фурш","name:zh":"岔路口","network":"Métro de Paris;RATP","operator":"RATP","public_transport":"station","railway":"station","ref:FR:RATP":"1872","ref:FR:STIF":"22227","source":"STIF - 12/2016","station":"subway","subway":"yes","type:RATP":"metro","wheelchair":"no","wikidata":"Q780625","wikipedia":"fr:La Fourche (métro de Paris)"}},{"type":"node","id":261665825,"lat":48.8469753,"lon":2.3074451,"tags":{"STIF:zone":"1","addr:city":"Paris","name":"Ségur","name:ko":"세귀르","name:zh":"塞居尔","public_transport":"station","railway":"station","ref:FR:FANTOIR":"75115S530W","ref:FR:RATP":"1631","ref:FR:STIF":"21979","source":"STIF - 12/2016","station":"subway","subway":"yes","type:RATP":"metro","wheelchair":"no","wikidata":"Q1511392","wikipedia":"fr:Ségur (métro de Paris)"}},{"type":"node","id":261666122,"lat":48.8469751,"lon":2.2953222,"tags":{"STIF:zone":"1","name":"Avenue Émile Zola","name:zh":"埃米尔·左拉大街","old_name":"Commerce","public_transport":"station","railway":"station","ref:FR:FANTOIR":"75115S145C","ref:FR:RATP":"1994","ref:FR:STIF":"21987","source":"STIF - 12/2016","station":"subway","subway":"yes","type:RATP":"metro","wheelchair":"no","wikidata":"Q790593","wikipedia":"fr:Avenue Émile Zola (métro de Paris)"}},{"type":"node","id":263497271,"lat":48.860576,"lon":2.3211714,"tags":{"STIF:zone":"1","name":"Assemblée Nationale","name:ko":"아상블레 나시오날","name:zh":"国民议会","old_name":"Chambre des Députés","public_transport":"station","railway":"station","ref:FR:FANTOIR":"75107S077N","ref:FR:RATP":"1989","ref:FR:STIF":"22060","source":"STIF - 12/2016","station":"subway","subway":"yes","type:RATP":"metro","wheelchair":"no","wikidata":"Q740744","wikipedia":"fr:Assemblée nationale (métro de Paris)"}},{"type":"node","id":263497272,"lat":48.8586551,"lon":2.3229865,"tags":{"STIF:zone":"1","name":"Solférino","name:ko":"솔페리노","name:ru":"Сольферино","name:zh":"索尔费里诺","network":"Métro de Paris","network:wikidata":"Q50716","operator":"RATP","operator:wikidata":"Q643290","public_transport":"station","railway":"station","ref:FR:FANTOIR":"75107S535L","ref:FR:RATP":"1622","ref:FR:STIF":"22045","source":"STIF - 12/2016","station":"subway","subway":"yes","train":"yes","type:RATP":"metro","wheelchair":"no","wikidata":"Q1368640","wikipedia":"fr:Solférino (métro de Paris)"}},{"type":"node","id":263499468,"lat":48.848198,"lon":2.3277771,"tags":{"STIF:zone":"1","check_date:wheelchair":"2022-08-23","name":"Rennes","name:ko":"렌셀러","name:ru":"Рен","name:zh":"雷恩","public_transport":"station","railway":"station","ref:FR:FANTOIR":"75106S490U","ref:FR:RATP":"1661","ref:FR:STIF":"22049","source":"STIF - 12/2016","station":"subway","subway":"yes","train":"yes","type:RATP":"metro","wheelchair":"no","wikidata":"Q1969677","wikipedia":"fr:Rennes (métro de Paris)"}},{"type":"node","id":263499471,"lat":48.8446836,"lon":2.3288039,"tags":{"STIF:zone":"1","check_date:wheelchair":"2022-04-24","name":"Notre-Dame des Champs","name:ru":"Нотр-Дам-де-Шан","name:zh":"田野圣母院","public_transport":"station","railway":"station","ref:FR:FANTOIR":"75106S364G","ref:FR:RATP":"1768","station":"subway","subway":"yes","train":"yes","type:RATP":"metro","wheelchair":"no","wikidata":"Q1970325","wikipedia":"fr:Notre-Dame-des-Champs (métro de Paris)"}},{"type":"node","id":263917856,"lat":48.8657199,"lon":2.3228167,"tags":{"STIF:zone":"1","name":"Concorde","name:br":"Kornkord","name:de":"Eintracht","name:es":"Concordia","name:it":"Concorde","name:pt":"Concórdia","name:ru":"Конкорд","operator":"RATP","public_transport":"stop_position","railway":"stop","ref:FR:RATP":"1885","station":"subway","subway":"yes","type:RATP":"metro","wheelchair":"no","wikidata":"Q970075","wikipedia":"fr:Concorde (métro de Paris)"}},{"type":"node","id":264469160,"lat":48.8447112,"lon":2.2938643,"tags":{"STIF:zone":"1","name":"Commerce","name:zh":"商业","public_transport":"station","railway":"station","ref:FR:FANTOIR":"75115S098B","ref:FR:RATP":"1705;1973","ref:FR:STIF":"22190","source":"STIF - 12/2016","station":"subway","subway":"yes","type:RATP":"metro","wheelchair":"no","wikidata":"Q608305","wikipedia":"fr:Commerce (métro de Paris)"}},{"type":"node","id":264469541,"lat":48.8546647,"lon":2.3060728,"tags":{"STIF:zone":"1","name":"École Militaire","name:fr":"École Militaire","name:ko":"에콜 밀리테르","name:ru":"Эколь Милитер","name:zh":"军校","public_transport":"station","railway":"station","ref:FR:FANTOIR":"75107S141H","ref:FR:RATP":"1909;1007","ref:FR:STIF":"22191","source":"STIF - 12/2016","station":"subway","subway":"yes","type:RATP":"metro","wheelchair":"no","wikidata":"Q273476","wikipedia":"fr:École Militaire (métro de Paris)"}},{"type":"node","id":264473011,"lat":48.8575602,"lon":2.3103234,"tags":{"STIF:zone":"1","addr:city":"Paris","name":"La Tour Maubourg","name:ko":"라 투르 모부르","name:ru":"Лятур-Мобур","name:zh":"拉图尔-莫布尔","public_transport":"station","railway":"station","ref:FR:FANTOIR":"75107S285P","ref:FR:RATP":"1008;54166","station":"subway","subway":"yes","type:RATP":"metro","wheelchair":"no","wikidata":"Q1514082","wikipedia":"fr:La Tour-Maubourg (métro de Paris)"}},{"type":"node","id":264476971,"lat":48.8633194,"lon":2.3666323,"tags":{"STIF:zone":"1","name":"Filles du Calvaire","name:ru":"Фий-дю-Кальвер","name:zh":"十字架之女","public_transport":"station","railway":"station","ref:FR:FANTOIR":"75111S164L","ref:FR:RATP":"1919","ref:FR:STIF":"22200","source":"STIF - 12/2016","station":"subway","subway":"yes","type:RATP":"metro","wheelchair":"no","wikidata":"Q1414178","wikipedia":"fr:Filles du Calvaire (métro de Paris)"}},{"type":"node","id":264479724,"lat":48.8611816,"lon":2.367234,"tags":{"STIF:zone":"1","name":"Saint-Sébastien - Froissart","name:ru":"Сен-Себастьен — Фруассар","name:zh":"圣塞巴斯蒂安-弗鲁瓦萨尔","operator":"RATP","public_transport":"station","railway":"station","ref:FR:FANTOIR":"75111S527F","ref:FR:RATP":"1699","ref:FR:STIF":"22201","source":"STIF - 12/2016","station":"subway","subway":"yes","type:RATP":"metro","wheelchair":"no","wikidata":"Q550042","wikipedia":"fr:Saint-Sébastien - Froissart (métro de Paris)"}},{"type":"node","id":264479775,"lat":48.8574434,"lon":2.3681408,"tags":{"STIF:zone":"1","gtfs:stop_id":"IDFM:463146;IDFM:22202","name":"Chemin Vert","name:ru":"Шемен-Вер","name:zh":"绿径","public_transport":"station","railway":"station","ref:FR:FANTOIR":"75111S093J","ref:FR:RATP":"1958","ref:FR:STIF":"22202","source":"STIF - 12/2016","station":"subway","subway":"yes","toilets:wheelchair":"no","type:RATP":"metro","wheelchair":"no","wikidata":"Q524191","wikipedia":"fr:Chemin Vert (métro de Paris)"}},{"type":"node","id":264480784,"lat":48.8512945,"lon":2.3760274,"tags":{"STIF:zone":"1","name":"Ledru-Rollin","name:ru":"Ледрю-Роллен","name:zh":"勒杜-罗兰","public_transport":"stop_position","railway":"station","ref:FR:FANTOIR":"75112S287R","ref:FR:RATP":"1798","ref:FR:STIF":"22203","source":"STIF - 12/2016","station":"subway","subway":"yes","type:RATP":"metro","wheelchair":"no","wikidata":"Q680787","wikipedia":"fr:Ledru-Rollin (métro de Paris)"}},{"type":"node","id":264481019,"lat":48.8501609,"lon":2.3842222,"tags":{"STIF:zone":"1","check_date:wheelchair":"2021-11-19","gtfs:stop_id":"IDFM:22204","name":"Faidherbe — Chaligny","name:ru":"Федерб — Шалиньи","name:zh":"费代尔布-沙利尼","public_transport":"station","railway":"station","ref:FR:FANTOIR":"75111S161H","ref:FR:RATP":"1917","ref:FR:STIF":"22204","source":"STIF - 12/2016","station":"subway","subway":"yes","type:RATP":"metro","wheelchair":"no","wikidata":"Q337855","wikipedia":"fr:Faidherbe - Chaligny (métro de Paris)"}},{"type":"node","id":264481854,"lat":48.844304,"lon":2.3901962,"tags":{"STIF:zone":"1","name":"Montgallet","name:ru":"Монгале","name:zh":"蒙加莱","public_transport":"station","railway":"station","ref:FR:FANTOIR":"75112S336U","ref:FR:RATP":"1750","ref:FR:STIF":"22205","source":"STIF - 12/2016","station":"subway","subway":"yes","type:RATP":"metro","wheelchair":"no","wikidata":"Q999159","wikipedia":"fr:Montgallet (métro de Paris)"}},{"type":"node","id":264482226,"lat":48.8370694,"lon":2.4024586,"tags":{"STIF:zone":"1","check_date:wheelchair":"2025-06-25","gtfs:stop_id":"IDFM:22206;IDFM:463226","name":"Michel Bizot","name:ru":"Мишель Бизо","name:zh":"米歇尔·比佐","public_transport":"station","railway":"station","ref:FR:FANTOIR":"75112S331N","ref:FR:RATP":"1835","ref:FR:STIF":"22206","source":"STIF - 12/2016","station":"subway","subway":"yes","type:RATP":"metro","wheelchair":"no","wikidata":"Q616619","wikipedia":"fr:Michel Bizot (métro de Paris)"}},{"type":"node","id":264482296,"lat":48.8264064,"lon":2.406201,"tags":{"STIF:zone":"1","name":"Liberté","name:ru":"Либерте","name:zh":"自由","public_transport":"station","railway":"station","ref:FR:RATP":"1803","ref:FR:STIF":"22209","source":"STIF - 12/2016","station":"subway","subway":"yes","type:RATP":"metro","wheelchair":"no","wikidata":"Q1725892","wikipedia":"fr:Liberté (métro de Paris)"}},{"type":"node","id":264482297,"lat":48.8352765,"lon":2.4061775,"tags":{"STIF:zone":"1","name":"Porte Dorée","name:fr":"Porte Dorée","name:ru":"Порт-Доре","name:zh":"镀金门","public_transport":"station","railway":"station","ref:FR:FANTOIR":"75112S437D","ref:FR:RATP":"1715","ref:FR:STIF":"22207","source":"STIF - 12/2016","station":"subway","subway":"yes","type:RATP":"metro","wheelchair":"no","wikidata":"Q946441","wikipedia":"fr:Porte Dorée (métro de Paris)"}},{"type":"node","id":264490283,"lat":48.8451759,"lon":2.4005236,"tags":{"STIF:zone":"1","heritage":"3","heritage:operator":"mhs","mhs:inscription_date":"1978","name":"Picpus","name:zh":"皮克皮斯","old_name":"Saint-Mandé","public_transport":"station","railway":"station","ref:FR:FANTOIR":"75112S413C","ref:FR:RATP":"1785","ref:FR:STIF":"22167","ref:mhs":"PA00086581","source":"data.gouv.fr:Ministère de la Culture - 08/2011","station":"subway","subway":"yes","type:RATP":"metro","wheelchair":"no","wikidata":"Q589686","wikipedia":"fr:Picpus (métro de Paris)"}},{"type":"node","id":264491320,"lat":48.8330612,"lon":2.4011868,"tags":{"STIF:zone":"1","gtfs:stop_id":"IDFM:463277;IDFM:22208","gtfs:stop_name:IL-MOT":"Porte de Charenton","name":"Porte de Charenton","name:ru":"Порт-де-Шарантон","name:zh":"沙朗通门","public_transport":"station","railway":"station","ref:FR:FANTOIR":"75112S432Y","ref:FR:RATP":"1723","ref:FR:STIF":"22208","source":"STIF - 12/2016","station":"subway","subway":"yes","type:RATP":"metro","wheelchair":"no","wikidata":"Q1666283","wikipedia":"fr:Porte de Charenton (métro de Paris)"}},{"type":"node","id":264495077,"lat":48.8763067,"lon":2.3326426,"tags":{"STIF:zone":"1","name":"Trinité d'Estienne d'Orves","name:ko":"트리니테 데스티엔 도르브","name:ru":"Трините — д’Эстьен д’Орв","name:zh":"圣三一-代斯蒂安多尔夫","public_transport":"station","railway":"station","ref:FR:FANTOIR":"75109S565D","ref:FR:RATP":"1638;3108","ref:FR:STIF":"22046","source":"STIF - 12/2016","station":"subway","subway":"yes","type:RATP":"metro","wheelchair":"no","wikidata":"Q1316395","wikipedia":"fr:Trinité - d'Estienne d'Orves (métro de Paris)"}},{"type":"node","id":264495078,"lat":48.8760405,"lon":2.3374234,"tags":{"STIF:zone":"1","name":"Notre-Dame de Lorette","name:ko":"노트르담 드 로레트","name:ru":"Нотр-Дам-де-Лорет","name:zh":"洛雷特圣母院","public_transport":"station","railway":"station","ref:FR:FANTOIR":"75109S365L","ref:FR:RATP":"1767;3109","ref:FR:STIF":"22050","source":"STIF - 12/2016","station":"subway","subway":"yes","type:RATP":"metro","wheelchair":"no","wikidata":"Q575604","wikipedia":"fr:Notre-Dame-de-Lorette (métro de Paris)"}},{"type":"node","id":264504832,"lat":48.8784466,"lon":2.3374748,"tags":{"STIF:zone":"1","name":"Saint-Georges","name:ko":"생조르주","name:ru":"Сен-Жорж","name:zh":"圣乔治","public_transport":"station","railway":"station","ref:FR:FANTOIR":"75109S514Y","ref:FR:RATP":"3110;1686","ref:FR:STIF":"22044","source":"STIF - 12/2016","station":"subway","subway":"yes","type:RATP":"metro","wheelchair":"no","wikidata":"Q1937499","wikipedia":"fr:Saint-Georges (métro de Paris)"}},{"type":"node","id":264505115,"lat":48.8848041,"lon":2.3386421,"tags":{"STIF:zone":"1","name":"Abbesses","name:ru":"Аббес","name:zh":"阿贝斯","public_transport":"station","railway":"station","ref:FR:FANTOIR":"75118S001F","ref:FR:RATP":"1975","ref:FR:STIF":"22059","source":"STIF - 12/2016","station":"subway","subway":"yes","type:RATP":"metro","wheelchair":"no","wikidata":"Q306256","wikipedia":"fr:Abbesses (métro de Paris)"}},{"type":"node","id":264505153,"lat":48.8897556,"lon":2.3387677,"tags":{"STIF:zone":"1","name":"Lamarck - Caulaincourt","name:ru":"Ламарк — Коленкур","name:zh":"拉马克-科兰古","public_transport":"station","railway":"station","ref:FR:FANTOIR":"75118S282L","ref:FR:RATP":"1879","ref:FR:STIF":"22055","source":"STIF - 12/2016","station":"subway","subway":"yes","type:RATP":"metro","wheelchair":"no","wikidata":"Q980380","wikipedia":"fr:Lamarck - Caulaincourt (métro de Paris)"}},{"type":"node","id":264505450,"lat":48.8925349,"lon":2.3446536,"tags":{"STIF:zone":"1","name":"Jules Joffrin","name:ru":"Жюль Жоффрен","name:zh":"于勒·若夫兰","public_transport":"station","railway":"station","ref:FR:FANTOIR":"75118S257J","ref:FR:RATP":"1865","ref:FR:STIF":"22054","source":"STIF - 12/2016","station":"subway","subway":"yes","type:RATP":"metro","wheelchair":"no","wikidata":"Q617430","wikipedia":"fr:Jules Joffrin (métro de Paris)"}},{"type":"node","id":264505930,"lat":48.897694,"lon":2.359259,"tags":{"STIF:zone":"1","layer":"-4","name":"Porte de la Chapelle","name:zh":"拉沙佩勒门","public_transport":"stop_position","railway":"station","ref:FR:RATP":"1734","ref:FR:STIF":"22041","source":"STIF - 12/2016","station":"subway","subway":"yes","type:RATP":"metro","wheelchair":"limited","wikidata":"Q382659","wikipedia":"fr:Porte de la Chapelle (métro de Paris)"}},{"type":"node","id":264505993,"lat":48.8938481,"lon":2.3478412,"tags":{"STIF:zone":"1","name":"Simplon","name:zh":"辛普朗","operator":"RATP","public_transport":"stop_position","railway":"station","ref:FR:FANTOIR":"75118S534K","ref:FR:RATP":"1621","ref:FR:STIF":"22133","source":"STIF - 12/2016","station":"subway","subway":"yes","type:RATP":"metro","wheelchair":"no","wikidata":"Q163879","wikipedia":"fr:Simplon (métro de Paris)"}},{"type":"node","id":264508548,"lat":48.8762027,"lon":2.3579127,"tags":{"STIF:zone":"1","addr:city":"Paris","addr:postcode":"75010","alt_name":"Gare de l'Est (Verdun)","name":"Gare de l'Est","name:ko":"가르 드 레스트","name:zh":"巴黎东站","network":"Métro de Paris","network:wikidata":"Q50716","operator":"RATP","public_transport":"station","railway":"station","ref:FR:FANTOIR":"75110S184K","ref:FR:RATP":"1841","ref:FR:STIF":"41010","source":"STIF - 12/2016","station":"subway","subway":"yes","type:RATP":"metro","wikidata":"Q1494172","wikipedia":"fr:Gare de l'Est (métro de Paris)"}},{"type":"node","id":264509793,"lat":48.8639526,"lon":2.3493931,"tags":{"STIF:zone":"1","name":"Étienne Marcel","operator":"RATP","public_transport":"stop_position","railway":"stop","ref:FR:FANTOIR":"75101S146H","ref:FR:RATP":"1914","source":"STIF - 12/2016","station":"subway","subway":"yes","type:RATP":"metro","wheelchair":"no","wikidata":"Q289916","wikipedia":"fr:Étienne Marcel (métro de Paris)"}},{"type":"node","id":264512252,"lat":48.8728919,"lon":2.3563063,"tags":{"STIF:zone":"1","gtfs:stop_id":"IDFM:462979","heritage":"3","heritage:operator":"mhs","mhs:inscription_date":"1978","name":"Château d'Eau","operator":"RATP","public_transport":"stop_position","railway":"stop","ref:FR:FANTOIR":"75110S086D","ref:FR:RATP":"1961","ref:mhs":"PA00086508","source":"STIF - 12/2016","station":"subway","subway":"yes","type:RATP":"metro","wheelchair":"no","wikidata":"Q1090753","wikipedia":"fr:Château d'Eau (métro de Paris)"}},{"type":"node","id":264513655,"lat":48.8621646,"lon":2.3458801,"tags":{"STIF:zone":"1","name":"Les Halles","opening_hours":"Mo-Sa 10:00-20:30; Su 11:00-19:00","operator":"RATP","public_transport":"stop_position","railway":"stop","ref:FR:FANTOIR":"75101S222R","ref:FR:RATP":"1801","source":"STIF - 12/2016","station":"subway","subway":"yes","type:RATP":"metro","wikidata":"Q1576810","wikipedia":"fr:Les Halles (métro de Paris)"}},{"type":"node","id":264514896,"lat":48.8553245,"lon":2.347542,"tags":{"STIF:zone":"1","elevator":"yes","level":"-2","name":"Cité","name:ko":"시테","name:ru":"Ситэ","name:zh":"西岱","network":"Métro de Paris","network:wikidata":"Q50716","operator":"RATP","operator:wikidata":"Q643290","public_transport":"station","railway":"station","ref:FR:FANTOIR":"75104S095P","ref:FR:RATP":"1969","ref:FR:STIF":"22150","source":"STIF - 12/2016","station":"subway","subway":"yes","type:RATP":"metro","wheelchair":"no","wikidata":"Q1094294","wikipedia":"fr:Cité (métro de Paris)"}},{"type":"node","id":264515098,"lat":48.8532864,"lon":2.3435081,"tags":{"STIF:zone":"1","heritage":"3","heritage:operator":"mhs","location":"underground","mhs:inscription_date":"1978","name":"Saint-Michel","name:ko":"생미셸 노트르담","name:zh":"圣米歇尔","network":"Métro de Paris","network:wikidata":"Q50716","operator":"RATP","operator:wikidata":"Q643290","public_transport":"station","railway":"station","ref:FR:FANTOIR":"75106S522D","ref:FR:RATP":"1694","ref:FR:STIF":"412816","ref:mhs":"PA00088479","source":"STIF - 12/2016","source:heritage":"data.gouv.fr:Ministère de la Culture - 08/2011","station":"subway","subway":"yes","type:RATP":"metro","wheelchair":"yes","wikidata":"Q1598555","wikipedia":"fr:Saint-Michel (métro de Paris)"}},{"type":"node","id":264519782,"lat":48.8536304,"lon":2.334471,"tags":{"STIF:zone":"1","name":"Saint-Germain-des-Prés","name:ko":"생제르맹데프레","name:zh":"圣日耳曼德普雷","public_transport":"station","railway":"station","ref:FR:FANTOIR":"75106S516X","ref:FR:RATP":"1687","ref:FR:STIF":"22136","source":"STIF - 12/2016","station":"subway","subway":"yes","type:RATP":"metro","wheelchair":"no","wikidata":"Q781873","wikipedia":"fr:Saint-Germain-des-Prés (métro de Paris)"}},{"type":"node","id":264520061,"lat":48.847098,"lon":2.3270206,"tags":{"STIF:zone":"1","check_date:wheelchair":"2021-05-03","name":"Saint-Placide","name:ko":"생플라시드","name:zh":"圣普拉西德","network":"Métro de Paris","network:wikidata":"Q50716","old_name":"Vaugirard","operator":"RATP","operator:wikidata":"Q643290","public_transport":"station","railway":"station","ref:FR:FANTOIR":"75106S525G","ref:FR:RATP":"1697","ref:FR:STIF":"22138","source":"STIF - 12/2016","station":"subway","subway":"yes","type:RATP":"metro","wheelchair":"no","wikidata":"Q763411","wikipedia":"fr:Saint-Placide (métro de Paris)"}},{"type":"node","id":264526095,"lat":48.8422164,"lon":2.3290114,"tags":{"STIF:zone":"1","check_date:wheelchair":"2021-04-23","name":"Vavin","name:zh":"瓦万","operator":"RATP","public_transport":"station","railway":"station","ref:FR:FANTOIR":"75106S585X","ref:FR:RATP":"1646","ref:FR:STIF":"22135","source":"STIF - 12/2016","station":"subway","subway":"yes","type:RATP":"metro","wheelchair":"no","wikidata":"Q954301","wikipedia":"fr:Vavin (métro de Paris)"}},{"type":"node","id":264534423,"lat":48.84647,"lon":2.2858803,"tags":{"STIF:zone":"1","addr:city":"Paris","name":"Charles Michels","name:zh":"夏尔·米歇尔","network":"Métro de Paris","network:wikidata":"Q50716","old_name":"Beaugrenelle","operator":"RATP","operator:wikidata":"Q643290","public_transport":"station","railway":"station","ref:FR:FANTOIR":"75115S084L","ref:FR:RATP":"1952","ref:FR:STIF":"21986","source":"STIF - 12/2016","start_date":"1913-07-13","station":"subway","subway":"yes","type:RATP":"metro","wheelchair":"no","wikidata":"Q632881","wikipedia":"fr:Charles Michels (métro de Paris)"}},{"type":"node","id":264534424,"lat":48.8461781,"lon":2.2782825,"tags":{"STIF:zone":"1","name":"Javel - André Citroën","name:zh":"雅弗尔-安德烈·雪铁龙","network":"Métro de Paris","network:wikidata":"Q50716","operator":"RATP","public_transport":"station","railway":"station","ref:FR:FANTOIR":"75115S253V","ref:FR:RATP":"1862","ref:FR:STIF":"21972","source":"STIF - 12/2016","start_date":"1913-09-30","station":"subway","subway":"yes","type:RATP":"metro","wheelchair":"no","wikidata":"Q1511378","wikipedia":"fr:Javel - André Citroën (métro de Paris)"}},{"type":"node","id":264534683,"lat":48.8473124,"lon":2.2686366,"tags":{"STIF:zone":"1","name":"Église d'Auteuil","name:zh":"奥特伊教堂","old_name":"Wilhem","operator":"RATP","public_transport":"station","railway":"station","ref:FR:FANTOIR":"75116S143W","ref:FR:RATP":"1911","ref:FR:STIF":"21971","source":"STIF - 12/2016","station":"subway","subway":"yes","type:RATP":"metro","wheelchair":"no","wikidata":"Q274534","wikipedia":"fr:Église d'Auteuil (métro de Paris)"}},{"type":"node","id":264535735,"lat":48.8480881,"lon":2.2587539,"tags":{"STIF:zone":"1","name":"Porte d'Auteuil","name:zh":"奥特伊门","public_transport":"station","railway":"station","ref:FR:FANTOIR":"75116S428F","ref:FR:RATP":"1717","ref:FR:STIF":"21974","source":"STIF - 12/2016","station":"subway","subway":"yes","type:RATP":"metro","wheelchair":"no","wikidata":"Q1578078","wikipedia":"fr:Porte d'Auteuil (métro de Paris)"}},{"type":"node","id":264537727,"lat":48.8454285,"lon":2.2671305,"tags":{"STIF:zone":"1","name":"Chardon-Lagache","name:zh":"夏尔东-拉加什","public_transport":"station","railway":"station","ref:FR:FANTOIR":"75116S082E","ref:FR:RATP":"1950","ref:FR:STIF":"21985","source":"STIF - 02/2020","station":"subway","subway":"yes","type:RATP":"metro","wheelchair":"no","wikidata":"Q927829","wikipedia":"fr:Chardon-Lagache (métro de Paris)"}},{"type":"node","id":264538576,"lat":48.8468116,"lon":2.2716976,"tags":{"STIF:zone":"1","check_date:wheelchair":"2021-04-18","name":"Mirabeau","name:zh":"米拉博","public_transport":"station","railway":"station","ref:FR:FANTOIR":"75116S332B","ref:FR:RATP":"1746","ref:FR:STIF":"21982","source":"STIF - 12/2016","station":"subway","subway":"yes","type:RATP":"metro","wheelchair":"no","wikidata":"Q517739","wikipedia":"fr:Mirabeau (métro de Paris)"}},{"type":"node","id":264539964,"lat":48.8421141,"lon":2.2393674,"tags":{"STIF:zone":"1","check_date:wheelchair":"2021-08-29","name":"Boulogne - Jean Jaurès","name:zh":"布洛涅-让·饶勒斯","public_transport":"station","railway":"station","ref:FR:RATP":"2018","ref:FR:STIF":"21988","source":"STIF - 12/2016","station":"subway","subway":"yes","type:RATP":"metro","wheelchair":"no","wikidata":"Q426440","wikipedia":"fr:Boulogne - Jean Jaurès (métro de Paris)"}},{"type":"node","id":264541617,"lat":48.8408383,"lon":2.2283263,"tags":{"STIF:zone":"1","check_date:wheelchair":"2021-06-13","name":"Boulogne - Pont de Saint-Cloud","name:zh":"布洛涅-圣克卢桥","network":"RATP","operator":"RATP","public_transport":"station","railway":"station","ref:FR:RATP":"2019","ref:FR:STIF":"21989","source":"STIF - 12/2016","station":"subway","subway":"yes","type:RATP":"metro","wheelchair":"no","wikidata":"Q895108","wikipedia":"fr:Boulogne - Pont de Saint-Cloud (métro de Paris)"}},{"type":"node","id":264591604,"lat":48.8699854,"lon":2.3710671,"tags":{"STIF:zone":"1","alt_name":"Goncourt (Hôpital Saint-Louis)","name":"Goncourt","name:zh":"龚古尔","public_transport":"station","railway":"station","ref:FR:FANTOIR":"75111S195V","ref:FR:RATP":"1849","ref:FR:STIF":"21996","source":"STIF - 12/2016","station":"subway","subway":"yes","type:RATP":"metro","wheelchair":"no","wikidata":"Q1536969","wikipedia":"fr:Goncourt (métro de Paris)"}},{"type":"node","id":264690372,"lat":48.8738565,"lon":2.3852638,"tags":{"STIF:zone":"1","name":"Pyrénées","name:zh":"比利牛斯","public_transport":"station","railway":"station","ref:FR:FANTOIR":"75120S453L","ref:FR:RATP":"55330","ref:FR:STIF":"21991","source":"STIF - 12/2016","station":"subway","subway":"yes","type:RATP":"metro","wheelchair":"no","wikidata":"Q1969303","wikipedia":"fr:Pyrénées (métro de Paris)"}},{"type":"node","id":264692522,"lat":48.8750944,"lon":2.38933,"tags":{"STIF:zone":"1","name":"Jourdain","name:zh":"儒尔丹","operator":"RATP","public_transport":"station","railway":"station","ref:FR:FANTOIR":"75120S256X","ref:FR:RATP":"1864","ref:FR:STIF":"21995","source":"STIF - 12/2016","station":"subway","subway":"yes","type:RATP":"metro","wheelchair":"no","wikidata":"Q1517347","wikipedia":"fr:Jourdain (métro de Paris)"}},{"type":"node","id":264776028,"lat":48.8884812,"lon":2.3742226,"tags":{"STIF:zone":"1","name":"Riquet","name:zh":"里凯","public_transport":"station","railway":"station","ref:FR:FANTOIR":"75119S489E","ref:FR:RATP":"1666","ref:FR:STIF":"22371","source":"STIF - 12/2016","station":"subway","subway":"yes","type:RATP":"metro","wheelchair":"no","wikidata":"Q1772478","wikipedia":"fr:Riquet (métro de Paris)"}},{"type":"node","id":264776029,"lat":48.8908513,"lon":2.3773681,"tags":{"STIF:zone":"1","name":"Crimée","name:zh":"克里米亚","public_transport":"station","railway":"station","ref:FR:FANTOIR":"75119S107P","ref:FR:RATP":"1894","ref:FR:STIF":"22392","source":"STIF - 12/2016;survey;local knowledge;streetlevel imagery","station":"subway","subway":"yes","type:RATP":"metro","wheelchair":"no","wikidata":"Q746288","wikipedia":"fr:Crimée (métro de Paris)"}},{"type":"node","id":264776910,"lat":48.8947282,"lon":2.3823046,"tags":{"STIF:zone":"1","name":"Corentin Cariou","name:zh":"科伦坦·卡里乌","old_name":"Pont de Flandre","public_transport":"station","railway":"station","ref:FR:FANTOIR":"75119S101H","ref:FR:RATP":"1888","ref:FR:STIF":"22389","source":"STIF - 12/2016","station":"subway","subway":"yes","type:RATP":"metro","wheelchair":"no","wikidata":"Q120303","wikipedia":"fr:Corentin Cariou (métro de Paris)"}},{"type":"node","id":264778142,"lat":48.8974039,"lon":2.385591,"tags":{"STIF:zone":"1","alt_name":"Porte de la Villette (Cité des Sciences et de l'Industrie)","name":"Porte de la Villette","name:zh":"维耶特门","public_transport":"station","railway":"station","ref:FR:FANTOIR":"75119S449L","ref:FR:RATP":"1735","ref:FR:STIF":"22374","source":"STIF - 12/2016","station":"subway","subway":"yes","type:RATP":"metro","wikidata":"Q571446","wikipedia":"fr:Porte de la Villette (métro de Paris)"}},{"type":"node","id":264780946,"lat":48.8748399,"lon":2.3399568,"tags":{"STIF:zone":"1","name":"Le Peletier","public_transport":"stop_position","railway":"stop","ref:FR:FANTOIR":"75109S288C","ref:FR:RATP":"1795","source":"STIF - 12/2016","station":"subway","subway":"yes","type:RATP":"metro","wikidata":"Q1784008","wikipedia":"fr:Le Peletier (métro de Paris)"}},{"type":"node","id":264780947,"lat":48.8759722,"lon":2.3442896,"tags":{"STIF:zone":"1","name":"Cadet","public_transport":"stop_position","railway":"stop","ref:FR:FANTOIR":"75109S071S","ref:FR:RATP":"1939","station":"subway","subway":"yes","type:RATP":"metro","wheelchair":"no","wikidata":"Q1025135","wikipedia":"fr:Cadet (métro de Paris)"}},{"type":"node","id":264784170,"lat":48.8586746,"lon":2.3418394,"tags":{"STIF:zone":"1","name":"Pont Neuf","name:en":"Pont Neuf","name:es":"Puente Nuevo","name:pt":"Ponte Nova","name:ru":"Новый мост","name:zh":"新桥","public_transport":"station","railway":"stop","ref:FR:FANTOIR":"75101S426M","ref:FR:RATP":"1712","source":"STIF - 12/2016","station":"subway","subway":"yes","type:RATP":"metro","wheelchair":"no","wikidata":"Q1458421","wikipedia":"fr:Pont Neuf (métro de Paris)"}},{"type":"node","id":264785951,"lat":48.8513954,"lon":2.3618174,"tags":{"STIF:zone":"1","name":"Sully - Morland","name:ko":"쉴리 - 모를랑","name:ru":"Сюлли — Морлан","name:zh":"叙利-莫尔朗","old_name":"Pont Sully","public_transport":"station","railway":"station","ref:FR:FANTOIR":"75104S539X","ref:FR:RATP":"1630","ref:FR:STIF":"22369","source":"STIF - 12/2016","station":"subway","subway":"yes","type:RATP":"metro","wheelchair":"no","wikidata":"Q257465","wikipedia":"fr:Sully - Morland (métro de Paris)"}},{"type":"node","id":264785952,"lat":48.8537872,"lon":2.3565905,"tags":{"STIF:zone":"1","alt_name":"Pont Marie (Cité des Arts)","name":"Pont Marie","name:ko":"퐁 마리","name:ru":"Пон-Мари","name:zh":"马里桥","public_transport":"station","railway":"station","ref:FR:FANTOIR":"75104S425Y","ref:FR:RATP":"1711","station":"subway","subway":"yes","type:RATP":"metro","wheelchair":"no","wikidata":"Q282600","wikipedia":"fr:Pont Marie (métro de Paris)"}},{"type":"node","id":264786014,"lat":48.8429053,"lon":2.3522772,"tags":{"STIF:zone":"1","alt_name":"Place Monge (Jardin des Plantes)","name":"Place Monge","name:ru":"Пляс-Монж","name:zh":"蒙日广场","public_transport":"station","railway":"station","ref:FR:FANTOIR":"75105S335E","ref:FR:RATP":"1788","ref:FR:STIF":"22366","source":"STIF - 12/2016","station":"subway","subway":"yes","type:RATP":"metro","wheelchair":"no","wikidata":"Q177476","wikipedia":"fr:Place Monge (métro de Paris)"}},{"type":"node","id":264789025,"lat":48.8406473,"lon":2.3519334,"tags":{"STIF:zone":"1","name":"Censier - Daubenton","name:ru":"Сансье — Добантон","name:zh":"桑西埃-多邦顿","public_transport":"station","railway":"station","ref:FR:FANTOIR":"75105S076Y","ref:FR:RATP":"1944","ref:FR:STIF":"22391","source":"STIF - 12/2016","station":"subway","subway":"yes","type:RATP":"metro","wheelchair":"no","wikidata":"Q938430","wikipedia":"fr:Censier - Daubenton (métro de Paris)"}},{"type":"node","id":264790337,"lat":48.8356304,"lon":2.3526735,"tags":{"STIF:zone":"1","gtfs:stop_id":"IDFM:22383;IDFM:463216","name":"Les Gobelins","name:ru":"Гобелен","name:zh":"戈布兰","public_transport":"station","railway":"station","ref:FR:FANTOIR":"75113S856L;75113S194S","ref:FR:RATP":"1800","ref:FR:STIF":"22383","source":"STIF - 12/2016","station":"subway","subway":"yes","type:RATP":"metro","wheelchair":"no","wikidata":"Q1783617","wikipedia":"fr:Les Gobelins (métro de Paris)"}},{"type":"node","id":264794354,"lat":48.8818204,"lon":2.3942224,"tags":{"STIF:zone":"1","name":"Danube","name:zh":"多瑙河","public_transport":"station","railway":"station","ref:FR:FANTOIR":"75119S121E","ref:FR:RATP":"1900","ref:FR:STIF":"24687","source":"STIF - 12/2016","station":"subway","subway":"yes","type:RATP":"metro","wheelchair":"no","wikidata":"Q1165108","wikipedia":"fr:Danube (métro de Paris)"}},{"type":"node","id":264796181,"lat":48.8715218,"lon":2.4043104,"tags":{"STIF:zone":"1","name":"Saint-Fargeau","name:zh":"圣法戈","public_transport":"stop_position","railway":"station","ref:FR:FANTOIR":"75120S512A","ref:FR:RATP":"1684","ref:FR:STIF":"21946","source":"STIF - 12/2016","station":"subway","subway":"yes","type:RATP":"metro","wheelchair":"no","wikidata":"Q1576198","wikipedia":"fr:Saint-Fargeau (métro de Paris)"}},{"type":"node","id":264796182,"lat":48.8680997,"lon":2.4013152,"tags":{"STIF:zone":"1","name":"Pelleport","name:zh":"贝勒波尔","public_transport":"stop_position","railway":"station","ref:FR:FANTOIR":"75120S408M","ref:FR:RATP":"1782","ref:FR:STIF":"21948","source":"STIF - 12/2016","station":"subway","subway":"yes","type:RATP":"metro","wheelchair":"no","wikidata":"Q1576190","wikipedia":"fr:Pelleport (métro de Paris)"}},{"type":"node","id":265060052,"lat":48.8927389,"lon":2.3273435,"tags":{"STIF:zone":"1","check_date:wheelchair":"2023-01-18","gtfs:stop_id":"IDFM:22228","name":"Guy Môquet","name:zh":"居伊·莫凯","old_name":"Marcadet – Balagny","public_transport":"station","railway":"station","ref:FR:FANTOIR":"75118S197U","ref:FR:RATP":"1851","ref:FR:STIF":"22228","source":"STIF - 12/2016","station":"subway","subway":"yes","toilets:wheelchair":"no","type:RATP":"metro","wheelchair":"no","wikidata":"Q738879","wikipedia":"fr:Guy Môquet (métro de Paris)"}},{"type":"node","id":265060832,"lat":48.8971558,"lon":2.3288425,"tags":{"STIF:zone":"1","gtfs:stop_id":"IDFM:482080","name":"Porte de Saint-Ouen","name:zh":"圣旺门","public_transport":"station","railway":"station","ref:FR:FANTOIR":"75117S446U;75118S446P","ref:FR:RATP":"1730","ref:FR:STIF":"22220","source":"STIF - 12/2016","station":"subway","subway":"yes","type:RATP":"metro","wikidata":"Q181669","wikipedia":"fr:Porte de Saint-Ouen (métro de Paris)"}},{"type":"node","id":265060965,"lat":48.9057869,"lon":2.3317326,"tags":{"STIF:zone":"1","name":"Garibaldi","name:zh":"加里波第","public_transport":"station","railway":"station","ref:FR:RATP":"1844","ref:FR:STIF":"22244","source":"STIF - 12/2016","station":"subway","subway":"yes","type:RATP":"metro","wheelchair":"no","wikidata":"Q586851","wikipedia":"fr:Garibaldi (métro de Paris)"}},{"type":"node","id":268467197,"lat":48.8260904,"lon":2.3573505,"tags":{"STIF:zone":"1","check_date:wheelchair":"2026-02-07","name":"Tolbiac","name:ru":"Толбиак","name:zh":"托比亚克","public_transport":"station","railway":"station","ref:FR:FANTOIR":"75113S564U","ref:FR:RATP":"1636","ref:FR:STIF":"22370","source":"STIF - 12/2016","station":"subway","subway":"yes","type:RATP":"metro","wheelchair":"no","wikidata":"Q1576648","wikipedia":"fr:Tolbiac (métro de Paris)"}},{"type":"node","id":268467526,"lat":48.8214836,"lon":2.3588859,"tags":{"STIF:zone":"1","layer":"-3","name":"Maison Blanche","name:ru":"Мезон-Бланш","name:zh":"白楼","public_transport":"station","railway":"station","ref:FR:FANTOIR":"75113S318B","ref:FR:RATP":"1820","ref:FR:STIF":"22385","source":"STIF - 12/2016","station":"subway","subway":"yes","type:RATP":"metro","wheelchair":"no","wikidata":"Q1576642","wikipedia":"fr:Maison Blanche (métro de Paris)"}},{"type":"node","id":269337980,"lat":48.9231172,"lon":2.2862019,"tags":{"STIF:zone":"1","name":"Les Agnettes","name:zh":"莱萨涅特","public_transport":"stop_position","railway":"station","ref:FR:RATP":"225436","ref:FR:STIF":"22232","source":"STIF - 12/2016","station":"subway","subway":"yes","type:RATP":"metro","wheelchair":"yes","wikidata":"Q962861","wikipedia":"fr:Les Agnettes (métro de Paris)"}},{"type":"node","id":270244435,"lat":48.9142573,"lon":2.4038072,"tags":{"STIF:zone":"1","name":"Fort d'Aubervilliers","name:zh":"欧贝维利耶堡","public_transport":"station","railway":"station","ref:FR:RATP":"1923","ref:FR:STIF":"22393","station":"subway","subway":"yes","type:RATP":"metro","wheelchair":"no","wikidata":"Q1438901","wikipedia":"fr:Fort d'Aubervilliers (métro de Paris)"}},{"type":"node","id":270244436,"lat":48.9036279,"lon":2.3922499,"tags":{"STIF:zone":"1","alt_name":"Aubervilliers Pantin (4 Chemins)","name":"Aubervilliers - Pantin - Quatre Chemins","name:zh":"欧贝维利耶-庞坦-四路","public_transport":"station","railway":"station","ref:FR:RATP":"1992","ref:FR:STIF":"22394","source":"STIF - 12/2016","station":"subway","subway":"yes","type:RATP":"metro","wheelchair":"no","wikidata":"Q758464","wikipedia":"fr:Aubervilliers - Pantin - Quatre Chemins (métro de Paris)"}},{"type":"node","id":270244850,"lat":48.9207595,"lon":2.410766,"tags":{"STIF:zone":"1","name":"La Courneuve - 8 mai 1945","name:zh":"拉库尔讷沃-1945年5月8日","public_transport":"station","railway":"station","ref:FR:RATP":"1869","ref:FR:STIF":"22395","source":"STIF - 12/2016","station":"subway","subway":"yes","type:RATP":"metro","wikidata":"Q1320288","wikipedia":"fr:La Courneuve - 8 Mai 1945 (métro de Paris)"}},{"type":"node","id":282635141,"lat":48.8674912,"lon":2.3140701,"tags":{"STIF:zone":"1","name":"Champs-Élysées - Clemenceau","name:ar":"الشانزلزيه - كليمانصو","name:ko":"샹젤리제 - 클레망소","name:ru":"Шанз-Элизе — Клемансо","name:zh":"香榭丽舍-克列孟梭","public_transport":"station","railway":"station","ref:FR:FANTOIR":"75108S080K","ref:FR:RATP":"1949","ref:FR:STIF":"22090","source":"STIF - 12/2016","station":"subway","subway":"yes","type:RATP":"metro","wheelchair":"no","wikidata":"Q1061527","wikipedia":"fr:Champs-Élysées - Clemenceau (métro de Paris)"}},{"type":"node","id":300867961,"lat":48.7965908,"lon":2.4493852,"tags":{"STIF:zone":"1","alt_name":"Créteil-L'Échat-(Hopital Henri Mondor)","name":"Créteil-L'Échat","name:zh":"克雷泰伊-莱沙","public_transport":"station","railway":"station","ref:FR:RATP":"1897","ref:FR:STIF":"22211","source":"STIF - 12/2016","station":"subway","subway":"yes","type:RATP":"metro","wheelchair":"no","wikidata":"Q1142525","wikipedia":"fr:Créteil - L'Échat (métro de Paris)"}},{"type":"node","id":300869611,"lat":48.7899004,"lon":2.4505696,"tags":{"STIF:zone":"1","name":"Créteil Université","name:zh":"克雷泰伊大学","operator":"RATP","public_transport":"station","railway":"station","ref:FR:RATP":"1899","ref:FR:STIF":"22212","source":"STIF - 12/2016","station":"subway","subway":"yes","type:RATP":"metro","wheelchair":"no","wikidata":"Q592367","wikipedia":"fr:Créteil - Université (métro de Paris)"}},{"type":"node","id":300870184,"lat":48.8033311,"lon":2.4456085,"tags":{"STIF:zone":"1","gtfs:stop_id":"IDFM:22216","name":"Maisons-Alfort — Les Juilliottes","name:zh":"迈松阿尔福-茹伊奥特","public_transport":"station","railway":"station","ref:FR:RATP":"21583","ref:FR:STIF":"22216","source":"STIF - 12/2016","station":"subway","subway":"yes","type:RATP":"metro","wheelchair":"no","wikidata":"Q766906","wikipedia":"fr:Maisons-Alfort - Les Juilliottes (métro de Paris)"}},{"type":"node","id":300870186,"lat":48.8090371,"lon":2.4347211,"tags":{"STIF:zone":"1","gtfs:stop_id":"IDFM:463225;IDFM:22215","name":"Maisons-Alfort — Stade","name:zh":"迈松阿尔福体育场","public_transport":"station","railway":"station","ref:FR:RATP":"21582","ref:FR:STIF":"22215","source":"STIF - 12/2016","station":"subway","subway":"yes","type:RATP":"metro","wheelchair":"no","wikidata":"Q1405224","wikipedia":"fr:Maisons-Alfort - Stade (métro de Paris)"}},{"type":"node","id":300876896,"lat":48.8150196,"lon":2.4217316,"tags":{"STIF:zone":"1","internet_access":"no","name":"École Vétérinaire de Maisons-Alfort","name:zh":"迈松阿尔福兽医学校","operator":"RATP","public_transport":"station","railway":"station","ref:FR:RATP":"23674","ref:FR:STIF":"22214","source":"STIF - 12/2016","station":"subway","subway":"yes","toilets:wheelchair":"no","type:RATP":"metro","wheelchair":"no","wikidata":"Q273645","wikipedia":"fr:École vétérinaire de Maisons-Alfort (métro de Paris)"}},{"type":"node","id":300877457,"lat":48.8215612,"lon":2.4137829,"tags":{"STIF:zone":"1","name":"Charenton-Écoles","name:zh":"沙朗通学校","public_transport":"station","railway":"station","ref:FR:RATP":"1951","ref:FR:STIF":"22210","source":"STIF - 12/2016","station":"subway","subway":"yes","train":"yes","type:RATP":"metro","wheelchair":"no","wikidata":"Q1063134","wikipedia":"fr:Charenton - Écoles (métro de Paris)"}},{"type":"node","id":318536832,"lat":48.8051317,"lon":2.3637903,"tags":{"STIF:zone":"1","name":"Villejuif - Léo Lagrange","name:zh":"维勒瑞夫-莱奥·拉格朗日","public_transport":"station","railway":"station","ref:FR:RATP":"1650","ref:FR:STIF":"22399","source":"STIF - 12/2016","station":"subway","subway":"yes","type:RATP":"metro","wheelchair":"no","wikidata":"Q476557","wikipedia":"fr:Villejuif - Léo Lagrange (métro de Paris)"}},{"type":"node","id":318536848,"lat":48.7869402,"lon":2.3673857,"tags":{"name":"Villejuif - Louis Aragon","name:zh":"维勒瑞夫-路易·阿拉贡","public_transport":"station","railway":"station","ref:FR:RATP":"1649","ref:FR:STIF":"22400","source":"STIF - 12/2016","station":"subway","subway":"yes","type:RATP":"metro","wheelchair":"yes","wikidata":"Q1267664","wikipedia":"fr:Villejuif - Louis Aragon (métro de Paris)"}},{"type":"node","id":318536943,"lat":48.7961557,"lon":2.3683565,"tags":{"STIF:zone":"3","alt_name":"Villejuif - Paul Vaillant Couturier (Hôpital Paul Brousse)","name":"Villejuif - Paul Vaillant-Couturier","name:zh":"维勒瑞夫-保罗·瓦扬-库蒂里耶","public_transport":"station","railway":"station","ref:FR:RATP":"1651","ref:FR:STIF":"22401","source":"STIF - 12/2016","station":"subway","subway":"yes","type:RATP":"metro","wheelchair":"no","wikidata":"Q961089","wikipedia":"fr:Villejuif - Paul Vaillant-Couturier (métro de Paris)"}},{"type":"node","id":318537042,"lat":48.810328,"lon":2.3622359,"tags":{"STIF:zone":"2","name":"Le Kremlin-Bicêtre","name:zh":"勒克雷姆兰-比塞特尔","operator":"RATP","platforms":"2","public_transport":"station","railway":"station","ref:FR:RATP":"1793","ref:FR:STIF":"22398","source":"STIF - 12/2016","station":"subway","subway":"yes","type:RATP":"metro","wheelchair":"no","wikidata":"Q930284","wikipedia":"fr:Le Kremlin-Bicêtre (métro de Paris)"}},{"type":"node","id":324352448,"lat":48.8511009,"lon":2.3307034,"tags":{"STIF:zone":"1","check_date:wheelchair":"2021-06-22","name":"Saint-Sulpice","name:ko":"생쉴피스","name:zh":"圣叙尔皮斯","network":"Métro de Paris","network:wikidata":"Q50716","operator":"RATP","operator:wikidata":"Q643290","public_transport":"station","railway":"station","ref:FR:FANTOIR":"75106S528K","ref:FR:RATP":"1698","ref:FR:STIF":"22139","source":"STIF - 12/2016","station":"subway","subway":"yes","type:RATP":"metro","wheelchair":"no","wikidata":"Q1783894","wikipedia":"fr:Saint-Sulpice (métro de Paris)"}},{"type":"node","id":326309672,"lat":48.8789087,"lon":2.3624266,"tags":{"STIF:zone":"1","name":"Château Landon","name:ko":"샤토 랑동","name:zh":"朗东堡","public_transport":"station","railway":"station","ref:FR:FANTOIR":"75110S087E","ref:FR:RATP":"1963","ref:FR:STIF":"22367","source":"STIF - 12/2016","station":"subway","subway":"yes","type:RATP":"metro","wheelchair":"no","wikidata":"Q1090315","wikipedia":"fr:Château-Landon (métro de Paris)"}},{"type":"node","id":338930214,"lat":48.8538898,"lon":2.2893811,"tags":{"STIF:zone":"1","alt_name":"Bir-Hakeim (Grenelle)","name":"Bir-Hakeim","name:ko":"비르하켐","name:zh":"比尔哈凯姆","network":"Métro de Paris","network:wikidata":"Q50716","old_name":"Grenelle","operator":"RATP","public_transport":"station","railway":"station","ref:FR:FANTOIR":"75115S042R","ref:FR:RATP":"2007","ref:FR:STIF":"22179","source":"STIF - 12/2016","station":"subway","subway":"yes","type:RATP":"metro","wheelchair":"yes","wikidata":"Q1783899","wikipedia":"fr:Bir-Hakeim (métro de Paris)"}},{"type":"node","id":355153536,"lat":48.8317043,"lon":2.2372367,"tags":{"STIF:zone":"1","name":"Billancourt","name:ar":"بيانكور","name:zh":"比扬古","public_transport":"station","railway":"station","ref:FR:RATP":"2006","ref:FR:STIF":"21939","source":"STIF - 12/2016","station":"subway","subway":"yes","type:RATP":"metro","wheelchair":"no","wikidata":"Q761518","wikipedia":"fr:Billancourt (métro de Paris)"}},{"type":"node","id":370455978,"lat":48.8296692,"lon":2.2308438,"tags":{"STIF:zone":"1","name":"Pont de Sèvres","name:ar":"جسر سيفر","name:zh":"塞夫尔桥","public_transport":"station","railway":"station","ref:FR:RATP":"1710","ref:FR:STIF":"21938","source":"STIF - 12/2016","station":"subway","subway":"yes","type:RATP":"metro","wheelchair":"no","wikidata":"Q1969904","wikipedia":"fr:Pont de Sèvres (métro de Paris)"}},{"type":"node","id":472985883,"lat":48.8201241,"lon":2.3647858,"tags":{"STIF:zone":"1","gtfs:stop_id":"IDFM:463030","name":"Porte de Choisy","name:zh":"舒瓦西门","public_transport":"station","railway":"station","ref:FR:FANTOIR":"75113S433B","ref:FR:RATP":"1724","ref:FR:STIF":"22373","source":"STIF - 12/2016","station":"subway","subway":"yes","type:RATP":"metro","wheelchair":"no","wikidata":"Q953454","wikipedia":"fr:Porte de Choisy (métro de Paris)"}},{"type":"node","id":472985885,"lat":48.8159011,"lon":2.3773455,"tags":{"STIF:zone":"1","check_date:wheelchair":"2023-09-14","gtfs:stop_id":"IDFM:22397;IDFM:463251","name":"Pierre et Marie Curie","name:zh":"居里夫妇","public_transport":"station","railway":"station","ref:FR:RATP":"1786","ref:FR:STIF":"22397","station":"subway","subway":"yes","type:RATP":"metro","wheelchair":"no","wikidata":"Q1784003","wikipedia":"fr:Pierre et Marie Curie (métro de Paris)"}},{"type":"node","id":472985886,"lat":48.8105257,"lon":2.3845877,"tags":{"name":"Mairie d'Ivry","network":"Ligne 7","operator":"RATP","public_transport":"station","railway":"stop","station":"subway","subway":"yes"}},{"type":"node","id":473070143,"lat":48.8491519,"lon":2.3218529,"tags":{"STIF:zone":"1","addr:city":"Paris","name":"Vaneau","name:ko":"바노","name:zh":"瓦诺","public_transport":"station","railway":"station","ref:FR:FANTOIR":"75106S581T;75107S581L","ref:FR:RATP":"1643","ref:FR:STIF":"21977","source":"STIF - 12/2016","station":"subway","subway":"yes","type:RATP":"metro","wheelchair":"no","wikidata":"Q1511414","wikipedia":"fr:Vaneau (métro de Paris)"}},{"type":"node","id":634996117,"lat":48.8757003,"lon":2.3278413,"tags":{"name":"Saint-Lazare","name:ru":"Сен-Лазар","public_transport":"stop_position","railway":"stop","station":"subway","subway":"yes","type:RATP":"metro","wheelchair":"no","wikidata":"Q1519529","wikipedia":"fr:Saint-Lazare (métro de Paris)"}},{"type":"node","id":838533003,"lat":48.8783132,"lon":2.2990737,"tags":{"STIF:zone":"1","check_date:wheelchair":"2023-12-16","name":"Ternes","name:ar":"تارن","name:zh":"泰尔讷","public_transport":"station","railway":"station","ref:FR:FANTOIR":"75108S563K","ref:FR:RATP":"1635","ref:FR:STIF":"22108","source":"cadastre-dgi-fr source : Direction Générale des Impôts - Cadastre. Mise à jour : 2010","station":"subway","subway":"yes","type:RATP":"metro","wheelchair":"no","wikidata":"Q635744","wikipedia":"fr:Ternes (métro de Paris)"}},{"type":"node","id":928458344,"lat":48.7687461,"lon":2.4643793,"tags":{"STIF:zone":"1","name":"Pointe du Lac","name:zh":"湖之角","network":"Métro de Paris","network:wikidata":"Q50716","operator":"RATP","operator:wikidata":"Q643290","public_transport":"station","railway":"station","ref:FR:RATP":"397629","station":"subway","subway":"yes","type:RATP":"metro","wheelchair":"yes","wikidata":"Q935233","wikipedia":"fr:Pointe du Lac (métro de Paris)"}},{"type":"node","id":1224788605,"lat":48.851501,"lon":2.3982195,"tags":{"STIF:zone":"1","check_date:wheelchair":"2023-07-19","gtfs:stop_id":"IDFM:463125","heritage":"3","heritage:operator":"mhs","mhs:inscription_date":"1978","name":"Avron","name:ar":"أفرون","name:zh":"阿夫龙","public_transport":"station","railway":"station","ref:FR:FANTOIR":"75111S017B","ref:FR:RATP":"1995","ref:FR:STIF":"22124","ref:mhs":"PA00086785","source":"STIF - 12/2016","source:heritage":"data.gouv.fr:Ministère de la Culture - 08/2011","station":"subway","subway":"yes","type:RATP":"metro","wheelchair":"no","wikidata":"Q517844","wikipedia":"fr:Avron (métro de Paris)"}},{"type":"node","id":1481147746,"lat":48.8914837,"lon":2.3497296,"tags":{"STIF:zone":"1","check_date:wheelchair":"2024-06-30","name":"Marcadet - Poissonniers","name:zh":"马尔卡代-鱼贩","operator":"RATP","public_transport":"stop_position","railway":"station","ref:FR:RATP":"1828","ref:FR:STIF":"22052","source":"STIF - 12/2016","station":"subway","subway":"yes","type:RATP":"metro","wheelchair":"no","wikidata":"Q1892927","wikipedia":"fr:Marcadet - Poissonniers (métro de Paris)"}},{"type":"node","id":1489806669,"lat":48.8664837,"lon":2.3217522,"tags":{"STIF:zone":"1","name":"Concorde","name:br":"Kornkord","name:de":"Concorde","name:es":"Concorde","name:it":"Concorde","name:pt":"Concorde","name:ru":"Конкорд","operator":"RATP","public_transport":"stop_position","railway":"stop","ref:FR:RATP":"1885","station":"subway","subway":"yes","type:RATP":"metro","wheelchair":"no","wikidata":"Q970075","wikipedia":"fr:Concorde (métro de Paris)"}},{"type":"node","id":1489806675,"lat":48.8603353,"lon":2.3146799,"tags":{"name":"Invalides","name:ru":"Энвалид","public_transport":"stop_position","railway":"stop","station":"subway","subway":"yes","type:RATP":"metro","wheelchair":"no","wikidata":"Q1528456","wikipedia":"fr:Invalides (métro de Paris)"}},{"type":"node","id":1659843199,"lat":48.8456163,"lon":2.3095848,"tags":{"STIF:zone":"1","name":"Sèvres-Lecourbe","name:ko":"세브르르쿠르브","name:zh":"塞夫尔-勒古布","old_name":"Rue de Sèvres","public_transport":"station","railway":"station","ref:FR:FANTOIR":"75115S533Z","ref:FR:RATP":"1633","ref:FR:STIF":"22163","source":"cadastre-dgi-fr source : Direction Générale des Impôts - Cadastre. Mise à jour : 2012","station":"subway","subway":"yes","type:RATP":"metro","wheelchair":"no","wikidata":"Q1969443","wikipedia":"fr:Sèvres - Lecourbe (métro de Paris)"}},{"type":"node","id":1771632724,"lat":48.9060505,"lon":2.4492007,"tags":{"STIF:zone":"1","layer":"-2","name":"Bobigny - Pablo Picasso","public_transport":"stop_position","railway":"stop","ref:FR:RATP":"2010","source":"STIF - 12/2016","station":"subway","subway":"yes","type:RATP":"metro"}},{"type":"node","id":1780486821,"lat":48.8973976,"lon":2.3448521,"tags":{"STIF:zone":"1","name":"Porte de Clignancourt","name:zh":"克利尼昂库尔门","operator":"RATP","public_transport":"stop_position","railway":"station","ref:FR:FANTOIR":"75118S435C","ref:FR:RATP":"1726","ref:FR:STIF":"22141","source":"STIF - 12/2016","station":"subway","subway":"yes","type:RATP":"metro","wheelchair":"no","wikidata":"Q1969480","wikipedia":"fr:Porte de Clignancourt (métro de Paris)"}},{"type":"node","id":1950290431,"lat":48.8490548,"lon":2.3666503,"tags":{"disused:railway":"station","name":"Ancienne station Arsenal","station":"subway","subway":"yes","wikidata":"Q597555","wikipedia":"fr:Arsenal (métro de Paris)"}},{"type":"node","id":1981222779,"lat":48.8787706,"lon":2.3222823,"tags":{"STIF:zone":"1","name":"Europe","name:ko":"외로프","name:zh":"欧洲","network":"Métro de Paris","network:wikidata":"Q50716","note":"\"Simone-Veil\" est un sous-titre, le nom de la station reste \"Europe\"","operator":"RATP","operator:wikidata":"Q643290","public_transport":"station","railway":"station","ref:FR:FANTOIR":"75108S148J","ref:FR:RATP":"1915","ref:FR:STIF":"22032","source":"cadastre-dgi-fr source : Direction Générale des Impôts - Cadastre. Mise à jour : 2012","station":"subway","subway":"yes","type:RATP":"metro","wheelchair":"no","wikidata":"Q766618","wikipedia":"fr:Europe (métro de Paris)"}},{"type":"node","id":1997722983,"lat":48.879514,"lon":2.3885871,"tags":{"STIF:zone":"1","name":"Botzaris","name:zh":"博扎里","public_transport":"stop_position","railway":"station","ref:FR:FANTOIR":"75119S048A","ref:FR:RATP":"2016","ref:FR:STIF":"24686","source":"STIF - 12/2016","station":"subway","subway":"yes","type:RATP":"metro","wheelchair":"no","wikidata":"Q894930","wikipedia":"fr:Botzaris (métro de Paris)"}},{"type":"node","id":1997722992,"lat":48.8825949,"lon":2.3703263,"tags":{"STIF:zone":"1","addr:city":"Paris","name":"Jaurès","name:ar":"جوريس","name:th":"ฌอแร็ส","name:zh":"饶勒斯","old_name":"Rue d’Allemagne","public_transport":"station","railway":"station","ref:FR:FANTOIR":"75119S254Z;75110S254L","ref:FR:RATP":"1861","ref:FR:STIF":"24680","source":"STIF - 12/2016","station":"subway","subway":"yes","type:RATP":"metro","wheelchair":"no","wikidata":"Q568195","wikipedia":"fr:Jaurès (métro de Paris)"}},{"type":"node","id":2023231831,"lat":48.827676,"lon":2.3054796,"tags":{"STIF:zone":"1","name":"Porte de Vanves","name:zh":"旺沃门","public_transport":"station","railway":"station","ref:FR:FANTOIR":"75114S447M","ref:FR:RATP":"1731","ref:FR:STIF":"22221","source":"RATP - 07/2012","station":"subway","subway":"yes","type:RATP":"metro","wheelchair":"no","wikidata":"Q1547535","wikipedia":"fr:Porte de Vanves (métro de Paris)"}},{"type":"node","id":2066461402,"lat":48.8768713,"lon":2.3932057,"tags":{"STIF:zone":"1","name":"Place des Fêtes","name:zh":"节日广场","public_transport":"station","railway":"station","ref:FR:FANTOIR":"75119S417B","ref:FR:RATP":"1792","ref:FR:STIF":"21951","source":"STIF - 12/2016","station":"subway","subway":"yes","type:RATP":"metro","wheelchair":"no","wikidata":"Q1789135","wikipedia":"fr:Place des Fêtes (métro de Paris)"}},{"type":"node","id":2157840444,"lat":48.8851627,"lon":2.3702373,"tags":{"name":"Stalingrad","name:zh":"斯大林格勒","public_transport":"station","railway":"station","station":"subway","subway":"yes","wheelchair":"no"}},{"type":"node","id":2188235051,"lat":48.8179643,"lon":2.3192501,"tags":{"STIF:zone":"1","name":"Mairie de Montrouge","name:zh":"蒙鲁日市政厅","operator":"RATP","platforms":"2","public_transport":"station","railway":"station","ref:FR:STIF":"26602","source":"STIF - 12/2016","start_date":"2013-03-23","station":"subway","subway":"yes","type:RATP":"metro","wheelchair":"yes","wikidata":"Q2270685","wikipedia":"fr:Mairie de Montrouge (métro de Paris)"}},{"type":"node","id":2282582663,"lat":48.8535352,"lon":2.4106565,"tags":{"STIF:zone":"1","name":"Porte de Montreuil","name:zh":"蒙特勒伊门","operator":"RATP Ile de France Mobilités","public_transport":"station","railway":"station","ref:FR:FANTOIR":"75120S442Z","ref:FR:RATP":"1727","ref:FR:STIF":"21913","source":"STIF - 12/2016","station":"subway","subway":"yes","type:RATP":"metro","wheelchair":"no","wikidata":"Q968336","wikipedia":"fr:Porte de Montreuil (métro de Paris)"}},