{"elements":[{"type":"node","id":29452923,"lat":51.2118436,"lon":6.7633511,"tags":{"local_ref":"3","name":"Bilker Kirche","public_transport":"stop_position","railway":"tram_stop","ref":"3","ref:IFOPT":"de:05111:18108:3:3","tram":"yes"}},{"type":"node","id":29452947,"lat":51.218327,"lon":6.7670174,"tags":{"description":"Landtag / Kniebrücke, Gleis 2","local_ref":"2","name":"Landtag / Kniebrücke","public_transport":"stop_position","railway":"tram_stop","ref":"2","tram":"yes","wheelchair":"yes"}},{"type":"node","id":34233948,"lat":51.2564685,"lon":6.7556587,"tags":{"local_ref":"2","name":"Nordpark/Aquazoo","public_transport":"stop_position","railway":"stop","ref":"2","ref:IFOPT":"de:05111:18030:0:2","subway":"yes"}},{"type":"node","id":34233950,"lat":51.2604254,"lon":6.7543983,"tags":{"description":"Messe Ost/Stockumer Kirchstraße, Gleis 2","local_ref":"2","name":"Messe Ost/Stockumer Kirchstraße","public_transport":"stop_position","railway":"stop","ref":"2","ref:IFOPT":"de:05111:18281:0:2","subway":"yes"}},{"type":"node","id":34233954,"lat":51.2661286,"lon":6.7525774,"tags":{"name":"Freiligrathplatz","public_transport":"stop_position","railway":"stop","ref":"4","ref:IFOPT":"de:05111:18028:8:4","subway":"yes"}},{"type":"node","id":34835755,"lat":51.4267544,"lon":6.7554619,"tags":{"local_ref":"2","name":"Platanenhof","public_transport":"stop_position","railway":"stop","ref":"2","ref:IFOPT":"de:05112:16582:0:2","shelter":"yes","subway":"yes","tram":"yes","website":"https://efa.vrr.de/vrrstd/XSLT_TRIP_REQUEST2?language=de&sessionID=0&itdLPxx_transpCompany=vrr&commonMacro=true&name_origin=20016582&type_origin=any&lineRestriction=403","wheelchair":"limited"}},{"type":"node","id":34835763,"lat":51.4259321,"lon":6.7645076,"tags":{"local_ref":"2","name":"Kremerstraße","public_transport":"stop_position","railway":"stop","ref":"2","ref:IFOPT":"de:05112:16066:20:2","subway":"yes","website":"https://efa.vrr.de/vrrstd/XSLT_TRIP_REQUEST2?language=de&sessionID=0&itdLPxx_transpCompany=vrr&commonMacro=true&name_origin=20016066&type_origin=any&lineRestriction=403","wheelchair":"yes"}},{"type":"node","id":34839324,"lat":51.4199955,"lon":6.7677393,"tags":{"local_ref":"2","name":"Karl-Jarres-Straße","public_transport":"stop_position","railway":"stop","ref":"2","ref:IFOPT":"de:05112:16067:20:2","shelter":"yes","subway":"yes","wheelchair":"no"}},{"type":"node","id":34839331,"lat":51.4096081,"lon":6.7681943,"tags":{"local_ref":"2","name":"Grunewald Betriebshof","public_transport":"stop_position","railway":"stop","ref":"2","ref:IFOPT":"de:05112:16992:20:2","subway":"yes","wheelchair":"no"}},{"type":"node","id":34839339,"lat":51.40188,"lon":6.7628998,"tags":{"local_ref":"2","name":"Im Schlenk","public_transport":"stop_position","railway":"stop","ref":"2","ref:IFOPT":"de:05112:16072:20:2","subway":"yes","wheelchair":"no"}},{"type":"node","id":34839345,"lat":51.3931233,"lon":6.7600298,"tags":{"local_ref":"2","name":"Waldfriedhof","note":"zum 12.06.2011 umbenannt","old_name":"Neuer Friedhof","public_transport":"stop_position","railway":"stop","ref":"2","ref:IFOPT":"de:05112:16073:0:2","subway":"yes","wheelchair":"limited"}},{"type":"node","id":34839352,"lat":51.383899,"lon":6.7608952,"tags":{"description":"Münchener Straße U, Gleis 1","layer":"1","level":"1","local_ref":"1","name":"Münchener Straße","public_transport":"stop_position","railway":"stop","ref":"1","ref:IFOPT":"de:05112:16074:21:1","subway":"yes","toilets:wheelchair":"no","wheelchair":"yes"}},{"type":"node","id":34839360,"lat":51.3759224,"lon":6.7598296,"tags":{"description":"Sittardsberg, Steig 1","layer":"-1","level":"-1","local_ref":"1","name":"Sittardsberg","public_transport":"stop_position","railway":"stop","ref":"1","ref:IFOPT":"de:05112:16075:20:1","subway":"yes","wheelchair":"yes"}},{"type":"node","id":34839367,"lat":51.3707768,"lon":6.7565673,"tags":{"local_ref":"2","name":"Am Mühlenkamp","public_transport":"stop_position","railway":"stop","ref":"2","ref:IFOPT":"de:05112:16076:0:2","subway":"yes","wheelchair":"yes"}},{"type":"node","id":34839379,"lat":51.3567521,"lon":6.7465875,"tags":{"name":"Duisburg - Kesselsberg","public_transport":"stop_position","railway":"stop","subway":"yes","website":"https://efa.vrr.de/vrrstd/XSLT_TRIP_REQUEST2?sessionID=0&language=de&commonMacro=true&itdLPxx_transpCompany=vrr&name_origin=20016388&type_origin=any&lineRestriction=403","wheelchair":"yes"}},{"type":"node","id":34839398,"lat":51.3180236,"lon":6.7452188,"tags":{"local_ref":"1","name":"Wittlaer","public_transport":"stop_position","railway":"stop","ref":"1","ref:IFOPT":"de:05111:18151:0:1","subway":"yes","wheelchair":"yes"}},{"type":"node","id":34839402,"lat":51.3129541,"lon":6.7448365,"tags":{"local_ref":"1","name":"Am Mühlenacker","public_transport":"stop_position","railway":"stop","ref":"1","ref:IFOPT":"de:05111:18150:0:1","subway":"yes","wheelchair":"no"}},{"type":"node","id":34839414,"lat":51.3006141,"lon":6.7393051,"tags":{"description":"Klemensplatz, Gleis 1","layer":"1","level":"1","local_ref":"1","name":"Klemensplatz","public_transport":"stop_position","railway":"stop","ref":"1","ref:IFOPT":"de:05111:18203:1:1","subway":"yes","wheelchair":"yes"}},{"type":"node","id":34843590,"lat":51.4129773,"lon":6.7699754,"tags":{"description":"Grunewald, Gleis 1","local_ref":"2","name":"Grunewald","public_transport":"stop_position","railway":"stop","ref":"2","ref:IFOPT":"de:05112:16069:21:2","shelter":"yes","subway":"yes","vending":"tickets","website":"https://efa.vrr.de/vrrstd/XSLT_TRIP_REQUEST2?language=de&sessionID=0&itdLPxx_transpCompany=vrr&commonMacro=true&name_origin=20016069&type_origin=any&lineRestriction=403","wheelchair":"yes"}},{"type":"node","id":34843591,"lat":51.4057015,"lon":6.764793,"tags":{"local_ref":"2","name":"Kulturstraße","public_transport":"stop_position","railway":"stop","ref":"2","ref:IFOPT":"de:05112:16071:20:2","shelter":"yes","subway":"yes","wheelchair":"no"}},{"type":"node","id":34995675,"lat":51.288535,"lon":6.7393687,"tags":{"local_ref":"1","name":"Alte Landstraße","public_transport":"stop_position","railway":"stop","ref":"1","ref:IFOPT":"de:05111:18023:0:1","subway":"yes"}},{"type":"node","id":34995686,"lat":51.2652843,"lon":6.750873,"tags":{"name":"Freiligrathplatz","public_transport":"stop_position","railway":"stop","ref":"2","ref:IFOPT":"de:05111:18028:3:2","subway":"yes"}},{"type":"node","id":35963470,"lat":51.2533214,"lon":6.7589724,"tags":{"local_ref":"2","name":"Reeser Platz","public_transport":"stop_position","railway":"stop","ref:IFOPT":"de:05111:18031:0:2","subway":"yes"}},{"type":"node","id":45107622,"lat":51.305394,"lon":6.5873569,"tags":{"local_ref":"1","name":"Fischeln Rathaus","network":"VRR","operator":"SWK Mobil","operator:wikidata":"Q2208780","public_transport":"stop_position","railway":"tram_stop","ref:IFOPT":"de:5114:21047:1:1","tram":"yes"}},{"type":"node","id":47902298,"lat":51.2390385,"lon":6.7750367,"tags":{"local_ref":"2","name":"ERGO-Platz/Klever Straße","network":"Verkehrsverbund Rhein-Ruhr","network:short":"VRR","operator":"Rheinbahn AG","operator:short":"Rheinbahn","public_transport":"stop_position","railway":"stop","railway:ref":"Kvs","ref":"2","ref:IFOPT":"de:05111:18034:1:2","subway":"yes"}},{"type":"node","id":51806623,"lat":51.2234111,"lon":6.7828145,"tags":{"description":"Steinstraße/Königsallee, Gleis 6","local_ref":"6","name":"Steinstraße/Königsallee","public_transport":"stop_position","railway":"tram_stop","ref":"6","ref:IFOPT":"de:05111:18234:3:6","source":"knowledge","tram":"yes","wheelchair":"yes"}},{"type":"node","id":51878777,"lat":51.2332526,"lon":6.7791545,"tags":{"local_ref":"1","name":"Sternstraße","public_transport":"stop_position","railway":"tram_stop","ref:IFOPT":"de:05111:18017:1:1","tram":"yes","wheelchair":"limited"}},{"type":"node","id":51878845,"lat":51.2436562,"lon":6.786238,"tags":{"name":"Münsterplatz","public_transport":"stop_position","railway":"tram_stop","tram":"yes","wheelchair":"yes"}},{"type":"node","id":59608692,"lat":51.2298982,"lon":6.7978446,"tags":{"description":"Wehrhahn S, Gleis 1","level":"0","local_ref":"1","name":"Wehrhahn S","public_transport":"stop_position","railway":"stop","ref":"1","ref:IFOPT":"de:05111:18019:1:1","subway":"yes","wheelchair":"yes"}},{"type":"node","id":59707035,"lat":51.2644833,"lon":6.7454208,"tags":{"local_ref":"2","name":"Mörikestraße","public_transport":"stop_position","railway":"stop","ref:IFOPT":"de:05111:18027:0:2","subway":"yes"}},{"type":"node","id":59988032,"lat":51.2737408,"lon":6.7816482,"tags":{"local_ref":"1","name":"Am Röttchen","public_transport":"stop_position","railway":"tram_stop","tram":"yes"}},{"type":"node","id":60789309,"lat":51.1947949,"lon":6.8006439,"tags":{"description":"Südpark, Gleis 3","local_ref":"3","name":"Südpark","network":"VRR","operator":"Rheinbahn","public_transport":"stop_position","railway":"stop","ref":"3","ref:IFOPT":"de:05111:18295:0:3","subway":"yes","tram":"yes","wheelchair":"yes"}},{"type":"node","id":80271541,"lat":51.4698228,"lon":6.7346826,"tags":{"name":"Neanderstraße","public_transport":"stop_position","railway":"tram_stop","tram":"yes","wheelchair":"yes"}},{"type":"node","id":124667936,"lat":51.1932122,"lon":6.700715,"tags":{"description":"Stadthalle/Museum Bahnsteig 4","local_ref":"4","name":"Stadthalle/Museum","network":"VRR","network:wikidata":"Q448199","operator":"Rheinbahn AG","public_transport":"stop_position","railway":"tram_stop","ref":"4","ref:IFOPT":"de:05162:20195:2:4","tram":"yes"}},{"type":"node","id":128587523,"lat":51.1986379,"lon":6.7106834,"tags":{"bench":"yes","bin":"yes","local_ref":"2","name":"Stadtpark Neuss","public_transport":"stop_position","railway":"tram_stop","shelter":"yes","tram":"yes"}},{"type":"node","id":133292424,"lat":51.193771,"lon":6.7005652,"tags":{"description":"Stadthalle/Museum, Bahnsteig 5","local_ref":"5","name":"Stadthalle/Museum","network":"VRR","network:wikidata":"Q448199","operator":"Rheinbahn AG","public_transport":"stop_position","railway":"tram_stop","ref":"5","ref:IFOPT":"de:05162:20195:2:5","tram":"yes"}},{"type":"node","id":164788302,"lat":51.2000471,"lon":6.7894208,"tags":{"VRS:gemeinde":"DÜSSELDORF","VRS:ortsteil":"Mitte","VRS:ref":"318236","description":"Uni-Kliniken, Gleis 1","local_ref":"1","name":"Uni-Kliniken","public_transport":"stop_position","railway":"stop","ref":"1","ref:IFOPT":"de:05111:18269:1:1","ref_name":"Uni Kliniken, Düsseldorf","subway":"yes","tram":"yes"}},{"type":"node","id":175641323,"lat":51.4766691,"lon":6.7342517,"tags":{"bus":"yes","name":"Brauerei","public_transport":"stop_position","railway":"tram_stop","tram":"yes"}},{"type":"node","id":193225160,"lat":51.1989688,"lon":6.8118707,"tags":{"local_ref":"2","name":"Provinzialplatz","public_transport":"stop_position","railway":"stop","ref:IFOPT":"de:05111:18092:0:2","subway":"yes"}},{"type":"node","id":193225169,"lat":51.2036047,"lon":6.8107067,"tags":{"local_ref":"2","name":"Kaiserslauterner Straße","public_transport":"stop_position","railway":"stop","ref:IFOPT":"de:05111:18093:0:2","subway":"yes"}},{"type":"node","id":203983200,"lat":51.244792,"lon":6.8538013,"tags":{"description":"Gerresheim Krankenhaus, Steig 1","local_ref":"1","name":"Gerresheim Krankenhaus","public_transport":"stop_position","railway":"tram_stop","ref":"1","ref:IFOPT":"de:05111:18683:2:1","subway":"yes","tram":"yes"}},{"type":"node","id":206279342,"lat":51.2428067,"lon":6.8495722,"tags":{"local_ref":"1","name":"Heinrich-Könn-Straße","public_transport":"stop_position","railway":"tram_stop","ref":"1","ref:IFOPT":"de:05111:18290:0:1","subway":"yes","tram":"yes","wheelchair":"yes"}},{"type":"node","id":206300850,"lat":51.2402864,"lon":6.8440841,"tags":{"light_rail":"yes","local_ref":"1","name":"Auf der Hardt/LVR-Klinikum","public_transport":"stop_position","railway":"stop","ref:IFOPT":"de:05111:18221:0:1","subway":"yes","wheelchair":"yes"}},{"type":"node","id":206339209,"lat":51.2412243,"lon":6.8440315,"tags":{"check_date":"2024-09-11","local_ref":"3","name":"Auf der Hardt/LVR-Klinikum","public_transport":"stop_position","railway":"tram_stop","ref":"3","ref:IFOPT":"de:05111:18221:0:3","source":"survey","subway":"yes","tram":"yes","wheelchair":"yes"}},{"type":"node","id":240270728,"lat":51.2246642,"lon":6.7881452,"tags":{"direction":"N","name":"Klosterstraße","public_transport":"stop_position","railway":"tram_stop","source":"survey","tram":"yes","wheelchair":"no"}},{"type":"node","id":241782951,"lat":51.2273541,"lon":6.8010309,"tags":{"description":"Birkenstraße, Steig 2","local_ref":"2","name":"Birkenstraße","network":"VRR","network:wikidata":"Q448199","operator":"Rheinbahn","public_transport":"stop_position","railway":"tram_stop","ref":"2","ref:IFOPT":"de:05111:18169:0:2","tram":"yes","wheelchair":"no"}},{"type":"node","id":241783200,"lat":51.230291,"lon":6.8015627,"tags":{"local_ref":"8","name":"Uhlandstraße","public_transport":"stop_position","railway":"tram_stop","ref":"de.05111000.uhlandstrasse","tram":"yes","wheelchair":"no"}},{"type":"node","id":241792670,"lat":51.2238821,"lon":6.7955869,"tags":{"local_ref":"4","name":"Worringer Platz","network":"VRR","network:wikidata":"Q448199","operator":"Rheinbahn","public_transport":"stop_position","railway":"tram_stop","ref":"4","ref:IFOPT":"de:05111:18236:3:4","tram":"yes","wheelchair":"yes"}},{"type":"node","id":243461662,"lat":51.199069,"lon":6.7182189,"tags":{"name":"Rheinpark-Center Süd","public_transport":"stop_position","railway":"tram_stop","shelter":"yes","tram":"yes","wheelchair":"limited"}},{"type":"node","id":243754983,"lat":51.1964888,"lon":6.6950999,"tags":{"VRS:gemeinde":"NEUSS","VRS:ortsteil":"Mitte","VRS:ref":"320057","local_ref":"2","name":"Landestheater","network":"VRR","network:wikidata":"Q448199","operator":"Rheinbahn AG","public_transport":"stop_position","railway":"tram_stop","ref":"2","ref:IFOPT":"de:5162:20063:2:2","ref_name":"Landestheater, Neuss","tram":"yes","wheelchair":"limited"}},{"type":"node","id":245446644,"lat":51.2348207,"lon":6.860694,"tags":{"light_rail":"yes","local_ref":"2","name":"Schönaustraße","public_transport":"stop_position","railway":"stop","ref:IFOPT":"de:05111:18219:0:2","subway":"yes","wheelchair":"limited"}},{"type":"node","id":247409835,"lat":51.1704349,"lon":6.8398318,"tags":{"local_ref":"2","name":"Niederheid","public_transport":"stop_position","railway":"stop","ref":"2","ref:IFOPT":"de:05111:18265:1:2","source":"survey","subway":"yes","wheelchair":"no"}},{"type":"node","id":247409837,"lat":51.165973,"lon":6.8471501,"tags":{"local_ref":"1","name":"Am Trippelsberg","public_transport":"stop_position","railway":"tram_stop","ref:IFOPT":"de:05111:18289:0:1","subway":"yes","tram":"yes"}},{"type":"node","id":247923057,"lat":51.2112956,"lon":6.7495338,"tags":{"local_ref":"1","name":"Hemmersbachweg","public_transport":"stop_position","railway":"tram_stop","tram":"yes","wheelchair":"yes"}},{"type":"node","id":248055226,"lat":51.3323912,"lon":6.5827245,"tags":{"name":"Florastraße","public_transport":"stop_position","railway":"tram_stop","tram":"yes"}},{"type":"node","id":249126057,"lat":51.2702488,"lon":6.8304009,"tags":{"light_rail":"yes","local_ref":"1","name":"Hirschweg","public_transport":"stop_position","railway":"stop","ref:IFOPT":"de:05111:18061:0:1","subway":"yes","wheelchair":"yes"}},{"type":"node","id":249858575,"lat":51.2061633,"lon":6.8327428,"tags":{"local_ref":"1","name":"Am Hackenbruch","public_transport":"stop_position","railway":"stop","ref":"1","ref:IFOPT":"de:05111:18085:0:1","subway":"yes","tram":"yes"}},{"type":"node","id":250209995,"lat":51.2092506,"lon":6.7826624,"tags":{"local_ref":"2","name":"Färberstraße","public_transport":"stop_position","railway":"tram_stop","ref:IFOPT":"de:05111:18101:0:2","shelter":"yes","source":"survey","tram":"yes","wheelchair":"yes"}},{"type":"node","id":250350722,"lat":51.2084655,"lon":6.8299535,"tags":{"local_ref":"2","name":"Schlesische Straße","public_transport":"stop_position","railway":"stop","ref":"2","ref:IFOPT":"de:05111:18257:1:2","subway":"yes","tram":"yes"}},{"type":"node","id":250800970,"lat":51.1999653,"lon":6.8432209,"tags":{"local_ref":"2","name":"Alt Eller","public_transport":"stop_position","railway":"stop","ref":"2","ref:IFOPT":"de:05111:18260:1:2","source":"survey","subway":"yes","tram":"yes","wheelchair":"no"}},{"type":"node","id":251451510,"lat":51.1983435,"lon":6.7378267,"tags":{"name":"Josef-Kardinal-Frings-Brücke","public_transport":"stop_position","railway":"tram_stop","tram":"yes","wheelchair":"limited"}},{"type":"node","id":251541182,"lat":51.2309459,"lon":6.7389107,"tags":{"local_ref":"2","name":"Drususstraße","public_transport":"stop_position","railway":"stop","ref":"2","ref:IFOPT":"de:05111:18132:0:2","subway":"yes","tram":"yes"}},{"type":"node","id":252930704,"lat":51.2203079,"lon":6.6982013,"tags":{"description":"Neuss - Am Kaiser","local_ref":"1","name":"Am Kaiser","public_transport":"stop_position","railway":"tram_stop","ref:IFOPT":"de:05162:20390:70:1","subway":"yes","tram":"yes"}},{"type":"node","id":252930726,"lat":51.2288721,"lon":6.6996618,"tags":{"local_ref":"2","name":"Handweiser","network":"VRR","operator":"Rheinbahn","public_transport":"stop_position","railway":"stop","ref":"2","ref:IFOPT":"de:05111:18272:1:2","subway":"yes"}},{"type":"node","id":252930734,"lat":51.2322203,"lon":6.7220005,"tags":{"name":"Nikolaus-Knopp-Platz","network":"VRR","operator":"Rheinbahn AG","public_transport":"stop_position","railway":"stop","ref":"2","ref:IFOPT":"de:05111:18131:0:2","subway":"yes","wheelchair":"yes"}},{"type":"node","id":252930738,"lat":51.2329686,"lon":6.7265704,"tags":{"local_ref":"2","name":"Heerdter Krankenhaus","network":"Verkehrsverbund Rhein-Ruhr","network:short":"VRR","old_name":"Dominikus-Krankenhaus","operator":"Rheinbahn AG","operator:short":"Rheinbahn","public_transport":"stop_position","railway":"stop","ref":"2","ref:IFOPT":"de:05111:18168:0:2","subway":"yes","tram":"yes","wheelchair":"yes"}},{"type":"node","id":252930749,"lat":51.204603,"lon":6.6871038,"tags":{"bench":"yes","bin":"yes","name":"Theodor-Heuss-Platz","public_transport":"stop_position","railway":"tram_stop","ref":"11","shelter":"yes","tram":"yes","wheelchair":"no"}},{"type":"node","id":252931032,"lat":51.2145458,"lon":6.6934193,"tags":{"name":"Blücherstraße","public_transport":"stop_position","railway":"tram_stop","subway":"yes","tram":"yes"}},{"type":"node","id":253277707,"lat":51.2315998,"lon":6.7617477,"tags":{"local_ref":"2","name":"Luegplatz","network":"VRR","operator":"Rheinbahn","public_transport":"stop_position","railway":"stop","ref:IFOPT":"de:05111:18134:2:2","subway":"yes"}},{"type":"node","id":253277715,"lat":51.231779,"lon":6.7472229,"tags":{"local_ref":"6","name":"Belsenplatz","network":"VRR","operator":"Rheinbahn AG","operator:wikidata":"Q316236","public_transport":"stop_position","railway":"stop","ref":"6","ref:IFOPT":"de:05111:18273:1:6","subway":"yes"}},{"type":"node","id":253277728,"lat":51.2383635,"lon":6.733648,"tags":{"local_ref":"2","name":"Prinzenallee","network":"VRR","operator":"Rheinbahn AG","operator:wikidata":"Q316236","public_transport":"stop_position","railway":"stop","ref":"2","ref:IFOPT":"de:05111:18137:0:2","subway":"yes"}},{"type":"node","id":253277733,"lat":51.2446695,"lon":6.7173342,"tags":{"description":"Düsseldorf-Lörick, Steig 2","local_ref":"2","name":"Düsseldorf-Lörick","network":"VRR","operator":"Rheinbahn AG","operator:wikidata":"Q316236","public_transport":"stop_position","railway":"stop","ref":"2","ref:IFOPT":"de:05111:18140:0:2","subway":"yes"}},{"type":"node","id":253277736,"lat":51.2539312,"lon":6.70116,"tags":{"light_rail":"yes","local_ref":"2","name":"Meerbusch-Büderich, Landsknecht","network":"VRR","operator":"Rheinbahn AG","operator:wikidata":"Q316236","public_transport":"stop_position","railway":"stop","railway:ref":"Blk","ref:IFOPT":"de:05162:18280:1:2","subway":"yes"}},{"type":"node","id":253277747,"lat":51.2398622,"lon":6.7291638,"tags":{"local_ref":"2","name":"Lohweg","network":"VRR","operator":"Rheinbahn AG","operator:wikidata":"Q316236","public_transport":"stop_position","railway":"stop","ref:IFOPT":"de:05111:18138:0:2","subway":"yes"}},{"type":"node","id":253277748,"lat":51.2420813,"lon":6.7226113,"tags":{"local_ref":"2","name":"Löricker Straße","network":"VRR","operator":"Rheinbahn AG","operator:wikidata":"Q316236","public_transport":"stop_position","railway":"stop","ref:IFOPT":"de:05111:18139:0:2","subway":"yes"}},{"type":"node","id":253390257,"lat":51.2140482,"lon":6.8225798,"tags":{"local_ref":"1","name":"Lierenfeld Betriebshof","public_transport":"stop_position","railway":"stop","ref:IFOPT":"de:05111:18084:0:1","subway":"yes"}},{"type":"node","id":253587686,"lat":51.2431932,"lon":6.7723195,"tags":{"local_ref":"2","name":"Kennedydamm","network":"Verkehrsverbund Rhein-Ruhr","network:short":"VRR","operator":"Rheinbahn AG","operator:short":"Rheinbahn","public_transport":"stop_position","railway":"stop","railway:ref":"Ken","ref":"2","ref:IFOPT":"de:05111:18033:1:2","subway":"yes"}},{"type":"node","id":253802110,"lat":51.2074469,"lon":6.759832,"tags":{"local_ref":"2","name":"Georg-Schulhoff-Platz","public_transport":"stop_position","railway":"tram_stop","tram":"yes","wheelchair":"limited"}},{"type":"node","id":253872378,"lat":51.211421,"lon":6.7635986,"tags":{"local_ref":"1","name":"Bilker Kirche","public_transport":"stop_position","railway":"tram_stop","ref":"1","ref:IFOPT":"de:05111:18108:1:1","tram":"yes","wheelchair":"no"}},{"type":"node","id":253908439,"lat":51.2316913,"lon":6.7738587,"tags":{"local_ref":"2","name":"Tonhalle/Ehrenhof","public_transport":"stop_position","railway":"stop","railway:ref":"Ton","ref:IFOPT":"de:05111:18565:2:2","subway":"yes"}},{"type":"node","id":254190844,"lat":51.2612232,"lon":6.7361742,"tags":{"local_ref":"3;4","name":"MERKUR SPIEL-ARENA/Messe Nord","note":"exit-only; possible to exit on both sides of the train","public_transport":"stop_position","railway":"stop","ref":"3;4","subway":"yes"}},{"type":"node","id":254919398,"lat":51.2230438,"lon":6.7807957,"tags":{"level":"-2","local_ref":"3","name":"Steinstraße/Königsallee","public_transport":"stop_position","railway":"stop","railway:ref":"Sts","ref":"3","ref:IFOPT":"de:05111:18234:4:3","subway":"yes"}},{"type":"node","id":254919401,"lat":51.2223834,"lon":6.7876359,"tags":{"level":"-2","local_ref":"3","name":"Oststraße","public_transport":"stop_position","railway":"stop","ref:IFOPT":"de:05111:18080:3:3","subway":"yes"}},{"type":"node","id":254919415,"lat":51.2189801,"lon":6.8018571,"tags":{"level":"-2","local_ref":"1","name":"Handelszentrum/Moskauer Straße","public_transport":"stop_position","railway":"stop","ref":"1","ref:IFOPT":"de:05111:18237:1:1","subway":"yes"}},{"type":"node","id":256122215,"lat":51.3398851,"lon":6.6548087,"tags":{"name":"Westpreußenstraße","public_transport":"stop_position","railway":"tram_stop","tram":"yes"}},{"type":"node","id":256328486,"lat":51.1970595,"lon":6.7961732,"tags":{"local_ref":"2","name":"Universität Nord / Christophstraße","network":"Verkehrsverbund-Rhein Ruhr","operator":"Rheinbahn","public_transport":"stop_position","railway":"stop","ref":"2","ref:IFOPT":"de:05111:18099:0:2","ref_name":"Christophstraße, Düsseldorf","subway":"yes","tram":"yes","wheelchair":"yes"}},{"type":"node","id":256328491,"lat":51.1879637,"lon":6.8184161,"tags":{"local_ref":"1","name":"Opladener Straße","public_transport":"stop_position","railway":"stop","ref:IFOPT":"de:05111:18091:0:1","subway":"yes"}},{"type":"node","id":256328607,"lat":51.1845402,"lon":6.8207647,"tags":{"local_ref":"2","name":"Ickerswarder Straße","public_transport":"stop_position","railway":"stop","ref":"2","ref:IFOPT":"de:05111:18267:0:2","subway":"yes"}},{"type":"node","id":256329614,"lat":51.1794404,"lon":6.8275132,"tags":{"local_ref":"2","name":"Elbruchstraße","public_transport":"stop_position","railway":"stop","ref":"2","ref:IFOPT":"de:05111:18090:0:2","subway":"yes"}},{"type":"node","id":256329632,"lat":51.1751699,"lon":6.8330753,"tags":{"local_ref":"3","name":"Holthausen","public_transport":"stop_position","railway":"stop","ref":"3","ref:IFOPT":"de:05111:18266:4:3","ref_name":"Holthausen, Düsseldorf","subway":"yes"}},{"type":"node","id":256332108,"lat":51.1622377,"lon":6.8597257,"tags":{"local_ref":"1","name":"Kappeler Straße","public_transport":"stop_position","railway":"tram_stop","ref":"1","ref:IFOPT":"de:05111:18087:0:1","ref:ibnr":"653633","subway":"yes","wheelchair":"no"}},{"type":"node","id":256332118,"lat":51.1620964,"lon":6.8750215,"tags":{"description":"Urdenbacher Allee, Gleis 1","local_ref":"1","name":"Urdenbacher Allee","public_transport":"stop_position","railway":"tram_stop","ref":"1","ref:IFOPT":"de:05111:18264:0:1","ref:ibnr":"653882","subway":"yes","tram":"yes"}},{"type":"node","id":256332125,"lat":51.1615444,"lon":6.8776177,"tags":{"local_ref":"1","name":"Benrath S","network":"VRR","network:short":"VRR","network:wikidata":"Q448199","public_transport":"stop_position","railway":"stop","ref":"1","ref:IFOPT":"de:05111:18263:1:1","subway":"yes"}},{"type":"node","id":256890291,"lat":51.1907756,"lon":6.800066,"tags":{"local_ref":"2","name":"Universität Ost/Botanischer Garten","network":"VRR","operator":"Rheinbahn","public_transport":"stop_position","railway":"stop","ref:IFOPT":"de:05111:18296:0:2","ref_name":"Universität Ost/Botanischer Garten, Düsseldorf","subway":"yes","tram":"yes"}},{"type":"node","id":257547960,"lat":51.2085332,"lon":6.808215,"tags":{"description":"Oberbilk S","local_ref":"2","name":"Oberbilk S","public_transport":"stop_position","railway":"stop","ref":"2","ref:IFOPT":"de:05111:18094:2:2","subway":"yes"}},{"type":"node","id":257840676,"lat":51.2250449,"lon":6.7882862,"tags":{"name":"Klosterstraße","public_transport":"stop_position","railway":"tram_stop","tram":"yes"}},{"type":"node","id":257840678,"lat":51.2224713,"lon":6.7905262,"tags":{"local_ref":"1;2","name":"Charlottenstraße/Oststraße","public_transport":"stop_position","railway":"tram_stop","tram":"yes","wheelchair":"yes"}},{"type":"node","id":259501608,"lat":51.340477,"lon":6.5584247,"tags":{"name":"Drießendorfer Straße","public_transport":"stop_position","railway":"tram_stop","tram":"yes","wheelchair":"no"}},{"type":"node","id":259501609,"lat":51.3400753,"lon":6.558761,"tags":{"name":"Drießendorfer Straße","public_transport":"stop_position","railway":"tram_stop","tram":"yes","wheelchair":"no"}},{"type":"node","id":259804261,"lat":51.1904106,"lon":6.7657088,"tags":{"local_ref":"1","name":"Krahkampweg","public_transport":"stop_position","railway":"tram_stop","ref:IFOPT":"de:05111:18278:0:1","subway":"yes","wheelchair":"no"}},{"type":"node","id":259804706,"lat":51.1899032,"lon":6.7654703,"tags":{"name":"Krahkampweg","public_transport":"stop_position","railway":"tram_stop","ref:IFOPT":"de:05111:18278:0:2","subway":"yes","tram":"yes","wheelchair":"no"}},{"type":"node","id":260094096,"lat":51.2384078,"lon":6.73577,"tags":{"local_ref":"4","name":"Prinzenallee","network":"VRR","operator":"Rheinbahn AG","operator:wikidata":"Q316236","public_transport":"stop_position","railway":"stop","ref":"4","ref:IFOPT":"de:05111:18137:0:4","subway":"yes"}},{"type":"node","id":260094104,"lat":51.2414026,"lon":6.7378342,"tags":{"name":"Am Seestern","network":"VRR","operator":"Rheinbahn AG","operator:wikidata":"Q316236","public_transport":"stop_position","railway":"stop","ref:IFOPT":"de:05111:18829:1:3;de:05111:18829:1:4","subway":"yes","wheelchair":"yes"}},{"type":"node","id":260119376,"lat":51.2167546,"lon":6.8184086,"tags":{"local_ref":"1","name":"Ronsdorfer Straße","public_transport":"stop_position","railway":"stop","ref":"1","ref:IFOPT":"de:05111:18240:0:1","subway":"yes"}},{"type":"node","id":262702684,"lat":51.5671877,"lon":6.7371982,"tags":{"description":"Dinslaken","name":"Dinslaken Bahnhof","public_transport":"stop_position","railway":"tram_stop","ref:IFOPT":"36259\tDinslaken Bahnhof\tDinslaken\t4b\t903 Ausstieg\tde:05170:36259:3:4b","tactile_paving":"yes","tram":"yes","wheelchair":"limited"}},{"type":"node","id":264789024,"lat":51.2240085,"lon":6.8111023,"tags":{"local_ref":"1","name":"Stadtwerke/Düsselstrand","public_transport":"stop_position","railway":"tram_stop","tram":"yes","wheelchair":"yes"}},{"type":"node","id":266221718,"lat":51.1923445,"lon":6.8139617,"tags":{"description":"Werstener Dorfstraße, Bahnsteig 4","local_ref":"4","name":"Werstener Dorfstraße","public_transport":"stop_position","railway":"stop","ref":"4","ref:IFOPT":"de:05111:18268:3:4","subway":"yes"}},{"type":"node","id":266624193,"lat":51.222703,"lon":6.8651631,"tags":{"light_rail":"yes","local_ref":"2","name":"Morper Straße","public_transport":"stop_position","railway":"stop","ref:IFOPT":"de:05111:18218:4:2","subway":"yes","wheelchair":"yes"}},{"type":"node","id":266889693,"lat":51.2756336,"lon":6.7871597,"tags":{"bus":"yes","description":"Unterrath S, Steig 3","local_ref":"3","name":"Unterrath S","network":"VRR","network:wikidata":"Q448199","public_transport":"stop_position","railway":"tram_stop","ref:IFOPT":"de:05111:18206:3:3","tram":"yes"}},{"type":"node","id":266938876,"lat":51.2365186,"lon":6.8597747,"tags":{"description":"Gerresheim Rathaus, Gleis 2","light_rail":"yes","local_ref":"2","name":"Gerresheim Rathaus","public_transport":"stop_position","railway":"stop","ref":"2","ref:IFOPT":"de:05111:18220:0:2","subway":"yes","wheelchair":"limited"}},{"type":"node","id":267173204,"lat":51.281811,"lon":6.8362137,"tags":{"light_rail":"yes","local_ref":"1","name":"Ratingen, Felderhof","public_transport":"stop_position","railway":"stop","ref:IFOPT":"de:05158:18059:0:1","shelter":"yes","subway":"yes","wheelchair":"yes"}},{"type":"node","id":267173279,"lat":51.2907066,"lon":6.8398378,"tags":{"light_rail":"yes","local_ref":"1","name":"Europaring","public_transport":"stop_position","railway":"stop","ref:IFOPT":"de:05158:19848:1:1","subway":"yes","wheelchair":"yes"}},{"type":"node","id":267401069,"lat":51.2377628,"lon":6.8525677,"tags":{"light_rail":"yes","local_ref":"2","name":"Von-Gahlen-Straße","public_transport":"stop_position","railway":"stop","ref:IFOPT":"de:05111:18069:0:2","subway":"yes","wheelchair":"yes"}},{"type":"node","id":267854450,"lat":51.2387787,"lon":6.8488463,"tags":{"light_rail":"yes","local_ref":"2","name":"Friedingstraße","public_transport":"stop_position","railway":"stop","ref:IFOPT":"de:05111:18070:0:2","subway":"yes","wheelchair":"yes"}},{"type":"node","id":267960270,"lat":51.4265998,"lon":6.8624462,"tags":{"name":"Königstraße","network":"VRR","operator":"Ruhrbahn","public_transport":"stop_position","railway":"tram_stop","shelter":"yes","tactile_paving":"yes","tram":"yes","website":"https://www.haltestellen-suche.de/93747/M%C3%BClheim_Ruhr/K%C3%B6nigstrasse.html","wheelchair":"yes"}},{"type":"node","id":268247067,"lat":51.4281188,"lon":6.8802582,"tags":{"description":"Stadtmitte, Gleis 2","local_ref":"2","name":"Stadtmitte","network":"VRR","operator":"Ruhrbahn","public_transport":"stop_position","railway":"stop","ref":"2","tram":"yes","website":"https://www.haltestellen-suche.de/170103/M%C3%BClheim_Ruhr/Stadtmitte.html"}},{"type":"node","id":268247084,"lat":51.4266088,"lon":6.8728615,"tags":{"description":"Schloß Broich, Gleis 2","layer":"-2","level":"-2","local_ref":"2","name":"Schloß Broich","public_transport":"stop_position","railway":"stop","tram":"yes","website":"https://www.haltestellen-suche.de/159325/M%C3%BClheim_Ruhr/Schlo%C3%9F%20Broich.html"}},{"type":"node","id":268557295,"lat":51.4326299,"lon":6.824893,"tags":{"name":"Raffelberg","network":"VRR","operator":"Ruhrbahn","public_transport":"stop_position","railway":"tram_stop","tram":"yes"}},{"type":"node","id":268557299,"lat":51.4328802,"lon":6.8197363,"tags":{"name":"Monning","network":"VRR","operator":"Ruhrbahn","public_transport":"stop_position","railway":"tram_stop","ref:IFOPT":"de:5117:15400:1:2","tram":"yes"}},{"type":"node","id":268557308,"lat":51.4331628,"lon":6.8038938,"tags":{"name":"Zoo/Uni","public_transport":"stop_position","railway":"tram_stop","ref:ibnr":"661767","tram":"yes"}},{"type":"node","id":269991282,"lat":51.2123781,"lon":6.7849183,"tags":{"local_ref":"2","name":"Fürstenplatz","public_transport":"stop_position","railway":"tram_stop","ref:IFOPT":"de:05111:18103:0:2","tram":"yes","wheelchair":"yes"}},{"type":"node","id":277248722,"lat":51.2947674,"lon":6.8465963,"tags":{"light_rail":"yes","local_ref":"1","name":"Ratingen Mitte","public_transport":"stop_position","railway":"stop","ref":"1","subway":"yes","wheelchair":"yes"}},{"type":"node","id":281247746,"lat":51.2105416,"lon":6.8016459,"tags":{"name":"Gangelplatz","public_transport":"stop_position","railway":"tram_stop","tram":"yes","wheelchair":"no"}},{"type":"node","id":281321220,"lat":51.21849,"lon":6.806624,"tags":{"local_ref":"1","name":"Fichtenstraße","public_transport":"stop_position","railway":"tram_stop","ref":"1","ref:IFOPT":"de:05111:18008:1:1","tram":"yes","wheelchair":"no"}},{"type":"node","id":281322589,"lat":51.2192678,"lon":6.8072066,"tags":{"local_ref":"2","name":"Fichtenstraße","public_transport":"stop_position","railway":"tram_stop","ref:IFOPT":"de:05111:18008:2:2","tram":"yes"}},{"type":"node","id":281324326,"lat":51.1990309,"lon":6.7821717,"tags":{"local_ref":"1","name":"Moorenstraße","network":"VRR","network:wikidata":"Q448199","operator":"Rheinbahn","public_transport":"stop_position","railway":"tram_stop","ref":"1","ref:IFOPT":"de:05111:18001:1:1","tram":"yes","wheelchair":"yes"}},{"type":"node","id":281418095,"lat":51.3353899,"lon":6.6354222,"tags":{"name":"Burg Linn","network":"VRR","operator":"SWK Mobil","public_transport":"stop_position","railway":"tram_stop","tram":"yes","wheelchair":"yes"}},{"type":"node","id":281418246,"lat":51.3374957,"lon":6.6504429,"tags":{"name":"Am Steinacker","public_transport":"stop_position","railway":"tram_stop","tram":"yes"}},{"type":"node","id":281433955,"lat":51.2624456,"lon":6.6767348,"tags":{"light_rail":"yes","name":"Forsthaus","network":"VRR","operator":"Rheinbahn AG","operator:wikidata":"Q316236","public_transport":"stop_position","railway":"stop","railway:ref":"Foh","subway":"yes"}},{"type":"node","id":281433969,"lat":51.2713844,"lon":6.6367423,"tags":{"light_rail":"yes","name":"Kamperweg","network":"VRR","operator":"Rheinbahn AG","operator:wikidata":"Q316236","public_transport":"stop_position","railway":"stop","railway:ref":"Kaw","subway":"yes"}},{"type":"node","id":281437689,"lat":51.299269,"lon":6.5544402,"tags":{"local_ref":"1","name":"Edelstahlwerk Tor 3","network":"VRR","operator":"SWK Mobil","operator:wikidata":"Q2208780","public_transport":"stop_position","railway":"tram_stop","ref:IFOPT":"de:5114:21523:1:1","tram":"yes"}},{"type":"node","id":281440499,"lat":51.3468151,"lon":6.5450987,"tags":{"name":"Weyerhofstraße","public_transport":"stop_position","railway":"tram_stop","tram":"yes","wheelchair":"no"}},{"type":"node","id":281441333,"lat":51.354287,"lon":6.5335329,"tags":{"name":"Grabeskirche/Kapuzinerkloster","old_name":"Grabeskirche Inrath","public_transport":"stop_position","railway":"tram_stop","ref":"2","tram":"yes"}},{"type":"node","id":281441571,"lat":51.3639521,"lon":6.5186324,"tags":{"name":"Am Schützenhof","public_transport":"stop_position","railway":"tram_stop","tram":"yes"}},{"type":"node","id":281542632,"lat":51.3258563,"lon":6.5683523,"tags":{"description":"Krefeld Hauptbahnhof, Gleis 4","local_ref":"4","name":"Krefeld Hbf","public_transport":"stop_position","railway":"tram_stop","ref":"4","tram":"yes","wheelchair":"yes"}},{"type":"node","id":281761051,"lat":51.3157721,"lon":6.5894536,"tags":{"light_rail":"yes","name":"Königshof","network":"VRR","operator":"Rheinbahn AG","operator:wikidata":"Q316236","public_transport":"stop_position","railway":"stop","subway":"yes"}},{"type":"node","id":281761116,"lat":51.2999153,"lon":6.6018495,"tags":{"light_rail":"yes","local_ref":"4","name":"Grundend","network":"VRR","operator":"Rheinbahn AG","operator:wikidata":"Q316236","public_transport":"stop_position","railway":"stop","railway:ref":"Gnd","ref:IFOPT":"de:5114:21102:2:4","subway":"yes","wheelchair":"limited"}},{"type":"node","id":281761117,"lat":51.299973,"lon":6.6015542,"tags":{"local_ref":"1","name":"Grundend","network":"VRR","operator":"SWK Mobil","public_transport":"stop_position","railway":"tram_stop","ref:IFOPT":"de:5114:21102:1:1","tram":"yes","wheelchair":"limited"}},{"type":"node","id":281762284,"lat":51.3111522,"lon":6.5545591,"tags":{"local_ref":"1","name":"Oberschlesienstraße","network":"VRR","network:wikidata":"Q448199","operator":"SWK Mobil","operator:wikidata":"Q2208780","public_transport":"stop_position","railway":"tram_stop","ref:IFOPT":"de:5114:21039:1:1","tram":"yes","wheelchair":"yes"}},{"type":"node","id":281762413,"lat":51.3074148,"lon":6.5544757,"tags":{"local_ref":"1","name":"Thyssenstraße","network":"VRR","network:wikidata":"Q448199","operator":"SWK Mobil","operator:wikidata":"Q2208780","public_transport":"stop_position","railway":"tram_stop","ref:IFOPT":"de:5114:21521:1:1","tram":"yes"}},{"type":"node","id":281977585,"lat":51.3286366,"lon":6.5750235,"tags":{"name":"Voltastraße","network":"VRR","operator":"SWK Mobil","public_transport":"stop_position","railway":"tram_stop","ref":"1","tram":"yes","wheelchair":"yes"}},{"type":"node","id":282212348,"lat":51.3337959,"lon":6.5882625,"tags":{"name":"Großmarkt","public_transport":"stop_position","railway":"tram_stop","tram":"yes"}},{"type":"node","id":282218269,"lat":51.3504124,"lon":6.6325498,"tags":{"name":"Oldenburger Weg","network":"VRR","operator":"SWK Mobil","public_transport":"stop_position","railway":"tram_stop","tram":"yes"}},{"type":"node","id":282218990,"lat":51.3566232,"lon":6.6461956,"tags":{"description":"Uerdingen Bahnhof, Gleis 1","name":"Uerdingen Bahnhof","public_transport":"stop_position","railway":"tram_stop","ref":"1","tram":"yes","wheelchair":"yes"}},{"type":"node","id":282220424,"lat":51.3367983,"lon":6.5612245,"tags":{"name":"Friedrichsplatz","public_transport":"stop_position","railway":"tram_stop","ref":"1","tram":"yes","wheelchair":"no"}},{"type":"node","id":282221020,"lat":51.3447918,"lon":6.5488509,"tags":{"name":"Moritzplatz","network":"VRR","network:wikidata":"Q448199","operator":"SWK Mobil","public_transport":"stop_position","railway":"tram_stop","ref":"1","tram":"yes","wheelchair":"no"}},{"type":"node","id":282221159,"lat":51.350611,"lon":6.5391905,"tags":{"name":"Schroersdyk","public_transport":"stop_position","railway":"tram_stop","ref":"2","tram":"yes"}},{"type":"node","id":282222454,"lat":51.3671328,"lon":6.5154061,"tags":{"name":"Steeger Dyk","public_transport":"stop_position","railway":"tram_stop","ref":"1;2","tram":"yes","wheelchair":"no"}},{"type":"node","id":282222456,"lat":51.3600365,"lon":6.524541,"tags":{"name":"Kützhofweg","public_transport":"stop_position","railway":"tram_stop","tram":"yes"}},{"type":"node","id":282223854,"lat":51.3692349,"lon":6.5129555,"tags":{"name":"Hüls Betriebshof","public_transport":"stop_position","railway":"tram_stop","toilets:wheelchair":"no","tram":"yes","wheelchair":"limited"}},{"type":"node","id":282223855,"lat":51.3570277,"lon":6.5292177,"tags":{"name":"Inrath Siedlung","public_transport":"stop_position","railway":"tram_stop","tram":"yes"}},{"type":"node","id":282241335,"lat":51.330307,"lon":6.5674515,"tags":{"name":"Dreikönigenstraße","public_transport":"stop_position","railway":"tram_stop","tram":"yes"}},{"type":"node","id":282241347,"lat":51.3306107,"lon":6.5669519,"tags":{"name":"Dreikönigenstraße","public_transport":"stop_position","railway":"tram_stop","tram":"yes","wheelchair":"no"}},{"type":"node","id":282255697,"lat":51.4317885,"lon":6.7772004,"tags":{"description":"Duisburg Hbf","layer":"-3","level":"-3","local_ref":"4","name":"Duisburg Hauptbahnhof U","public_transport":"stop_position","railway":"stop","ref":"4","subway":"no","tram":"yes","website":"https://efa.vrr.de/vrrstd/XSLT_TRIP_REQUEST2?language=de&sessionID=0&itdLPxx_transpCompany=vrr&commonMacro=true&name_origin=20016032&type_origin=any&lineRestriction=403","wheelchair":"limited"}},{"type":"node","id":282256463,"lat":51.4658533,"lon":6.772799,"tags":{"description":"Auf dem Damm","layer":"-2","name":"Auf dem Damm","public_transport":"stop_position","railway":"stop","ref":"2","ref:IFOPT":"de:05112:16484:20:2","shelter":"yes","subway":"yes","tram":"yes","wheelchair":"yes"}},{"type":"node","id":282259298,"lat":51.219822,"lon":6.7937626,"tags":{"description":"Düsseldorf Hauptbahnhof U-Bahn, Gleis 1","local_ref":"1","name":"Düsseldorf Hauptbahnhof","public_transport":"stop_position","railway":"stop","ref":"1","ref:IFOPT":"de:05111:18235:6:1","subway":"yes"}},{"type":"node","id":282357766,"lat":51.3052402,"lon":6.5976633,"tags":{"image":"File:Bahnhof Fischeln Einfahrt der U76 aus Düsseldorf 20090607.jpg","light_rail":"yes","name":"Fischeln","network":"VRR","operator":"Rheinbahn AG","operator:wikidata":"Q316236","public_transport":"stop_position","railway":"stop","subway":"yes"}},{"type":"node","id":282725580,"lat":51.431916,"lon":6.7597936,"tags":{"layer":"-2","name":"Steinsche Gasse","public_transport":"stop_position","railway":"stop","subway":"no","tram":"yes","website":"https://efa.vrr.de/vrrstd/XSLT_TRIP_REQUEST2?language=de&sessionID=0&itdLPxx_transpCompany=vrr&commonMacro=true&name_origin=20016581&type_origin=any&lineRestriction=403","wheelchair":"no"}},{"type":"node","id":282725868,"lat":51.4393221,"lon":6.7829389,"tags":{"local_ref":"2","name":"Duissern","public_transport":"stop_position","railway":"stop","ref":"2","ref:IFOPT":"de:05112:16580:20:2","subway":"yes","tram":"yes","wheelchair":"yes"}},{"type":"node","id":282726174,"lat":51.4676002,"lon":6.7790005,"tags":{"description":"Duisburg-Meiderich Bf, Gleis 2","layer":"-1","level":"-1","local_ref":"2","name":"Duisburg-Meiderich Bf","public_transport":"stop_position","railway":"stop","ref":"2","ref:IFOPT":"de:05112:16056:20:2","shelter":"yes","subway":"yes","tram":"yes","wheelchair":"yes"}},{"type":"node","id":282726598,"lat":51.434543,"lon":6.7619126,"tags":{"name":"Rathaus","public_transport":"stop_position","tram":"yes","website":"https://efa.vrr.de/vrrstd/XSLT_TRIP_REQUEST2?language=de&sessionID=0&itdLPxx_transpCompany=vrr&commonMacro=true&name_origin=20016584&type_origin=any&lineRestriction=403"}},{"type":"node","id":282758113,"lat":51.5001455,"lon":6.7532377,"tags":{"name":"Wilfriedstraße","public_transport":"stop_position","tram":"yes"}},{"type":"node","id":282768046,"lat":51.2754538,"lon":6.6274334,"tags":{"light_rail":"yes","name":"Hoterheide","network":"VRR","operator":"Rheinbahn AG","operator:wikidata":"Q316236","public_transport":"stop_position","railway":"stop","railway:ref":"Hot","ref":"2","ref:IFOPT":"de:05162:19700:1:2","subway":"yes"}},{"type":"node","id":282768260,"lat":51.2659238,"lon":6.6688788,"tags":{"light_rail":"yes","local_ref":"2","name":"Haus Meer","network":"VRR","operator":"Rheinbahn AG","operator:wikidata":"Q316236","public_transport":"stop_position","railway":"stop","railway:ref":"Hsm","ref":"2","ref:IFOPT":"de:05162:18141:0:2","subway":"yes"}},{"type":"node","id":282768835,"lat":51.2315667,"lon":6.7543449,"tags":{"local_ref":"2","name":"Barbarossaplatz","public_transport":"stop_position","railway":"stop","ref:IFOPT":"de:05111:18133:0:2","subway":"yes"}},{"type":"node","id":283423471,"lat":51.336954,"lon":6.5800452,"tags":{"name":"Moltkestraße","public_transport":"stop_position","railway":"tram_stop","tram":"yes","wheelchair":"no"}},{"type":"node","id":283855706,"lat":51.2323067,"lon":6.8088114,"tags":{"local_ref":"4","name":"Lindemannstraße","public_transport":"stop_position","railway":"tram_stop","ref":"4","ref:IFOPT":"de:05111:18225:3:4","tram":"yes","wheelchair":"no"}},{"type":"node","id":283855708,"lat":51.2315741,"lon":6.8089784,"tags":{"local_ref":"3","name":"Lindemannstraße","public_transport":"stop_position","railway":"tram_stop","ref":"3","ref:IFOPT":"de:05111:18225:4:3","shelter":"yes","tram":"yes","wheelchair":"no"}},{"type":"node","id":285499322,"lat":51.2254509,"lon":6.6984931,"tags":{"local_ref":"1","name":"Vogesenstraße","network":"VRR","operator":"Rheinbahn","public_transport":"stop_position","railway":"stop","ref:IFOPT":"de:05111:18128:1:1","subway":"yes"}},{"type":"node","id":285499330,"lat":51.2318834,"lon":6.7137247,"tags":{"local_ref":"2","name":"Heesenstraße","network":"VRR","operator":"Rheinbahn","public_transport":"stop_position","railway":"stop","ref:IFOPT":"de:05111:18288:0:2","subway":"yes","wheelchair":"no"}},{"type":"node","id":285708878,"lat":51.2106648,"lon":6.7746427,"tags":{"description":"Bilk S, Steig 4","local_ref":"4","name":"Bilker Allee/Friedrichstraße","public_transport":"stop_position","railway":"tram_stop","tram":"yes","wheelchair":"no"}},{"type":"node","id":285708917,"lat":51.2108002,"lon":6.7770716,"tags":{"local_ref":"3","name":"Bilker Allee/Friedrichstraße","public_transport":"stop_position","railway":"tram_stop","ref:IFOPT":"de:05111:18757:0:3","tram":"yes","wheelchair":"no"}},{"type":"node","id":286408926,"lat":51.216707,"lon":6.8030459,"tags":{"local_ref":"1","name":"Oberbilker Markt/Warschauer Straße","public_transport":"stop_position","railway":"stop","ref":"1","ref:IFOPT":"de:05111:18254:6:1","subway":"yes"}},{"type":"node","id":286409209,"lat":51.213834,"lon":6.8056899,"tags":{"description":"Ellerstraße, Gleis 2","local_ref":"2","name":"Ellerstraße","public_transport":"stop_position","railway":"stop","ref":"2","ref:IFOPT":"de:05111:18255:1:2","subway":"yes"}},{"type":"node","id":286481381,"lat":51.1934958,"lon":6.8144291,"tags":{"description":"Werstener Dorfstraße, Bahnsteig 2","local_ref":"2","name":"Werstener Dorfstraße","public_transport":"stop_position","railway":"stop","ref:IFOPT":"de:05111:18268:1:2","subway":"yes"}},{"type":"node","id":286889571,"lat":51.2309979,"lon":6.859924,"tags":{"light_rail":"yes","local_ref":"2","name":"Dörpfeldstraße","public_transport":"stop_position","railway":"stop","ref:IFOPT":"de:05111:18067:0:2","subway":"yes","wheelchair":"no"}},{"type":"node","id":286889666,"lat":51.2267576,"lon":6.8619175,"tags":{"light_rail":"yes","local_ref":"1","name":"Hardenbergstraße","public_transport":"stop_position","railway":"stop","ref:IFOPT":"de:05111:18066:0:1","subway":"yes"}},{"type":"node","id":286890159,"lat":51.2414591,"lon":6.8267913,"tags":{"local_ref":"1","name":"Staufenplatz","public_transport":"stop_position","railway":"stop","ref:IFOPT":"de:05111:18277:1:1","subway":"yes","tram":"yes"}},{"type":"node","id":287583057,"lat":51.2634044,"lon":6.8188994,"tags":{"description":"Rath S, Gleis","name":"Rath S","public_transport":"stop_position","railway":"tram_stop","ref":"1","ref:IFOPT":"de:05111:18209:1:1","subway":"yes","tram":"yes","wheelchair":"limited"}},{"type":"node","id":288750279,"lat":51.5347797,"lon":6.7412292,"tags":{"name":"Fasanenstraße","public_transport":"stop_position","railway":"tram_stop","ref":"1","tram":"yes"}},{"type":"node","id":288750731,"lat":51.553173,"lon":6.7310291,"tags":{"bench":"yes","departures_board":"timetable","local_ref":"2","name":"Pollenkamp","passenger_information_display":"realtime","public_transport":"stop_position","railway":"tram_stop","ref:IFOPT":"de:05170:36570:2:2","shelter":"yes","tactile_paving":"yes","tram":"yes","wheelchair":"yes"}},{"type":"node","id":288750947,"lat":51.558245,"lon":6.7338163,"tags":{"name":"Trabrennbahn","public_transport":"stop_position","railway":"tram_stop","tram":"yes","wheelchair":"yes"}},{"type":"node","id":288758772,"lat":51.5067304,"lon":6.7860867,"tags":{"name":"Obermarxloh Schleife","public_transport":"stop_position","railway":"tram_stop","tram":"yes","wheelchair":"yes"}},{"type":"node","id":288765738,"lat":51.397575,"lon":6.7507902,"tags":{"name":"Rheintörchenstraße","operator":"DVG","public_transport":"stop_position","railway":"tram_stop","ref":"903","shelter":"yes","tram":"yes","wheelchair":"limited"}},{"type":"node","id":288765905,"lat":51.3819155,"lon":6.7390834,"tags":{"name":"Rheinstahl","public_transport":"stop_position","railway":"tram_stop","tram":"yes","wheelchair":"limited"}},{"type":"node","id":288766135,"lat":51.3730235,"lon":6.7328823,"tags":{"name":"Mannesmann Tor 1","public_transport":"stop_position","railway":"tram_stop","tram":"yes","wheelchair":"yes"}},{"type":"node","id":288766482,"lat":51.3770876,"lon":6.7353021,"tags":{"name":"Tiger & Turtle","public_transport":"stop_position","railway":"tram_stop","tram":"yes"}},{"type":"node","id":288766513,"lat":51.3683824,"lon":6.729454,"tags":{"description":"Mannesmann Tor 2, Gleis 1","name":"Mannesmann Tor 2","public_transport":"stop_position","railway":"tram_stop","ref":"1","tram":"yes","wheelchair":"yes"}},{"type":"node","id":288796256,"lat":51.2207727,"lon":6.8663036,"tags":{"description":"Gerresheim S, Steig 1","light_rail":"yes","local_ref":"1","name":"Gerresheim S","public_transport":"stop_position","railway":"stop","ref":"1","ref:IFOPT":"de:05111:18217:2:1","subway":"yes","wheelchair":"no"}},{"type":"node","id":288797402,"lat":51.2733883,"lon":6.8337146,"tags":{"light_rail":"yes","local_ref":"1","name":"Düsseldorf-Hubertushain","public_transport":"stop_position","railway":"stop","ref:IFOPT":"de:05111:18060:0:1","subway":"yes","wheelchair":"yes"}},{"type":"node","id":288917697,"lat":51.2041632,"lon":6.7851966,"tags":{"description":"Auf'm Hennekamp, Gleis 3","local_ref":"3","name":"Auf'm Hennekamp","public_transport":"stop_position","railway":"tram_stop","ref":"3","ref:IFOPT":"de:05111:18004:3:3","shelter":"yes","tram":"yes","wheelchair":"no"}},{"type":"node","id":288939982,"lat":51.2175159,"lon":6.7901397,"tags":{"local_ref":"1","name":"Mintropplatz","public_transport":"stop_position","railway":"tram_stop","ref:IFOPT":"de:05111:18241:0:1","tram":"yes","wheelchair":"no"}},{"type":"node","id":288952194,"lat":51.2327866,"lon":6.7794467,"tags":{"local_ref":"2","name":"Sternstraße","public_transport":"stop_position","railway":"tram_stop","ref:IFOPT":"de:05111:18017:2:2","tram":"yes","wheelchair":"yes"}},{"type":"node","id":288954070,"lat":51.2354553,"lon":6.7783658,"tags":{"local_ref":"3","name":"Nordstraße","public_transport":"stop_position","railway":"tram_stop","ref:IFOPT":"de:05111:18029:1:3","tram":"yes","wheelchair":"yes"}},{"type":"node","id":288957552,"lat":51.250086,"lon":6.7999171,"tags":{"description":"Heinrichstraße, Gleis 3","local_ref":"3","name":"Heinrichstraße","public_transport":"stop_position","railway":"tram_stop","ref:IFOPT":"de:05111:18211:3:3","subway":"yes","tram":"yes","wheelchair":"yes"}},{"type":"node","id":288959742,"lat":51.2319626,"lon":6.7862664,"tags":{"local_ref":"2","name":"Schloss Jägerhof","public_transport":"stop_position","railway":"tram_stop","ref":"2","ref:IFOPT":"de:05111:18229:0:2","tram":"yes","wheelchair":"yes"}},{"type":"node","id":288963090,"lat":51.2543808,"lon":6.7801323,"tags":{"description":"Johannstraße, Gleis 2","local_ref":"2","name":"Johannstraße","public_transport":"stop_position","railway":"tram_stop","ref:IFOPT":"de:05111:18208:0:2","tram":"yes","wheelchair":"limited"}},{"type":"node","id":289402007,"lat":51.2134231,"lon":6.7753531,"tags":{"local_ref":"1","name":"Kirchplatz","public_transport":"stop_position","railway":"stop","ref":"1","ref:IFOPT":"de:05111:18250:2:1","subway":"yes"}},{"type":"node","id":289402600,"lat":51.2255983,"lon":6.777973,"tags":{"local_ref":"5","name":"Heinrich-Heine-Allee","network":"VRR","note":"Rheinbahn Netzumstellung 2016","opening_date":"2016-02-21","operator":"Rheinbahn AG","public_transport":"stop_position","railway":"stop","ref":"5","ref:IFOPT":"de:05111:18036:4:5","subway":"yes"}},{"type":"node","id":289403282,"lat":51.2266732,"lon":6.7837494,"tags":{"layer":"-2","level":"-3","local_ref":"1","name":"Schadowstraße","note":"Rheinbahn Netzumstellung 2016","opening_date":"2016-02-21","public_transport":"stop_position","railway":"stop","railway:ref":"Sco","ref":"1","ref:IFOPT":"de:05111:18230:1:1","subway":"yes"}},{"type":"node","id":290353007,"lat":51.2317667,"lon":6.8082769,"tags":{"local_ref":"2","name":"Düsseldorf Lindemannstraße","public_transport":"stop_position","railway":"tram_stop","ref":"2","ref:IFOPT":"de:05111:18225:2:2","subway":"yes","tram":"yes"}},{"type":"node","id":290354405,"lat":51.2320574,"lon":6.8093801,"tags":{"local_ref":"1","name":"Düsseldorf Lindemannstraße","public_transport":"stop_position","railway":"tram_stop","ref":"1","ref:IFOPT":"de:05111:18225:1:1","subway":"yes","tram":"yes"}},{"type":"node","id":290354406,"lat":51.2332182,"lon":6.8142798,"tags":{"local_ref":"1","name":"Düsseldorf Engerstraße","public_transport":"stop_position","railway":"tram_stop","ref":"1","ref:IFOPT":"de:05111:18224:1:1","subway":"yes","tram":"yes","wheelchair":"no"}},{"type":"node","id":291129734,"lat":51.2078335,"lon":6.8297418,"tags":{"local_ref":"4","name":"Schlesische Straße","public_transport":"stop_position","railway":"tram_stop","ref":"4","ref:IFOPT":"de:05111:18257:3:4","tram":"yes","wheelchair":"limited"}},{"type":"node","id":294139834,"lat":51.2012564,"lon":6.838505,"tags":{"local_ref":"2","name":"Eller Mitte S","public_transport":"stop_position","railway":"stop","ref":"2","ref:IFOPT":"de:05111:18259:2:2","subway":"yes","tram":"yes"}},{"type":"node","id":294696049,"lat":51.2474225,"lon":6.7947355,"tags":{"description":"Derendorf S, Steig 1","local_ref":"1","name":"Derendorf S","public_transport":"stop_position","railway":"tram_stop","ref":"1","ref:IFOPT":"de:05111:18285:1:1","tram":"yes","wheelchair":"yes"}},{"type":"node","id":296937455,"lat":51.23784,"lon":6.8021709,"tags":{"name":"Brehmplatz","public_transport":"stop_position","railway":"tram_stop","ref":"2","ref:IFOPT":"de:05111:18212:2:2","subway":"yes","tram":"yes"}},{"type":"node","id":301169922,"lat":51.2075316,"lon":6.8310954,"tags":{"local_ref":"1","name":"Schlesische Straße","public_transport":"stop_position","railway":"stop","ref":"1","ref:IFOPT":"de:05111:18257:2:1","subway":"yes","tram":"yes","wheelchair":"no"}},{"type":"node","id":302253053,"lat":51.2286827,"lon":6.7914698,"tags":{"local_ref":"3","name":"Pempelforter Straße","public_transport":"stop_position","railway":"tram_stop","ref:IFOPT":"de:05111:18227:3:3","tram":"yes","wheelchair":"no"}},{"type":"node","id":302255790,"lat":51.2283529,"lon":6.7918495,"tags":{"local_ref":"4","name":"Pempelforter Straße","public_transport":"stop_position","railway":"tram_stop","ref:IFOPT":"de:05111:18227:4:4","tram":"yes","wheelchair":"no"}},{"type":"node","id":302263139,"lat":51.2282133,"lon":6.7908031,"tags":{"local_ref":"1","name":"Pempelforter Straße","public_transport":"stop_position","railway":"stop","ref":"1","ref:IFOPT":"de:05111:18227:1:1","subway":"yes"}},{"type":"node","id":302264335,"lat":51.2226917,"lon":6.7755872,"tags":{"local_ref":"1","name":"Benrather Straße U","public_transport":"stop_position","railway":"stop","railway:ref":"Bes","ref":"1","ref:IFOPT":"de:05111:18287:1:1","subway":"yes"}},{"type":"node","id":302264727,"lat":51.2182642,"lon":6.7754326,"tags":{"local_ref":"1","name":"Graf-Adolf-Platz","name:etymology:wikidata":"Q92234","name:etymology:wikipedia":"de:Adolf V. (Berg)","public_transport":"stop_position","railway":"stop","ref:IFOPT":"de:05111:18243:1:1","subway":"yes"}},{"type":"node","id":303146259,"lat":51.2170201,"lon":6.7832142,"tags":{"local_ref":"4","name":"Luisenstraße","network":"VRR","network:wikidata":"Q448199","operator":"Rheinbahn","public_transport":"stop_position","railway":"tram_stop","ref":"4","shelter":"yes","tram":"yes","wheelchair":"yes"}},{"type":"node","id":304080570,"lat":51.2661006,"lon":6.8272771,"tags":{"light_rail":"yes","local_ref":"1","name":"Oberrath","public_transport":"stop_position","railway":"stop","ref":"1","ref:IFOPT":"de:05111:18062:0:1","subway":"yes","wheelchair":"yes"}},{"type":"node","id":307694114,"lat":51.4792912,"lon":6.792579,"tags":{"name":"Landschaftspark Nord","network":"VRR","network:wikidata":"Q448199","public_transport":"stop_position","railway":"tram_stop","ref":"1","shelter":"yes","tram":"yes","wheelchair":"yes"}},{"type":"node","id":308980120,"lat":51.303533,"lon":6.5544382,"tags":{"local_ref":"1","name":"Outokumpu Nirosta","network":"VRR","network:wikidata":"Q448199","operator":"SWK Mobil","operator:wikidata":"Q448199","public_transport":"stop_position","railway":"tram_stop","ref:IFOPT":"de:5114:21522:1:1","tram":"yes"}},{"type":"node","id":310824365,"lat":51.2087623,"lon":6.8084718,"tags":{"description":"Oberbilk S, Gleis 4","local_ref":"4","name":"Oberbilk S","public_transport":"stop_position","railway":"tram_stop","ref":"4","ref:IFOPT":"de:05111:18094:6:4","tram":"yes","wheelchair":"no"}},{"type":"node","id":313403296,"lat":51.2548456,"lon":6.8032378,"tags":{"name":"Haeselerstraße","public_transport":"stop_position","railway":"tram_stop","ref":"1","ref:IFOPT":"de:05111:19702:1:1","subway":"yes","tram":"yes"}},{"type":"node","id":314078834,"lat":51.2003637,"lon":6.7706205,"tags":{"local_ref":"1","name":"Südring","public_transport":"stop_position","railway":"tram_stop","ref:IFOPT":"de:05111:18105:0:1","subway":"yes","wheelchair":"no"}},{"type":"node","id":315523450,"lat":51.2442186,"lon":6.7829233,"tags":{"local_ref":"2","name":"Essener Straße","public_transport":"stop_position","railway":"tram_stop","ref:IFOPT":"de:05111:18042:0:2","tram":"yes","wheelchair":"no"}},{"type":"node","id":316975125,"lat":51.2454911,"lon":6.7894885,"tags":{"local_ref":"2","name":"Rather Straße/Hochschule HSD","public_transport":"stop_position","railway":"tram_stop","ref:IFOPT":"de:05111:18048:2:2","tram":"yes","wheelchair":"yes"}},{"type":"node","id":316975126,"lat":51.2457299,"lon":6.7901864,"tags":{"local_ref":"1","name":"Rather Straße/Hochschule HSD","public_transport":"stop_position","railway":"tram_stop","ref:IFOPT":"de:05111:18048:1:1","tram":"yes","wheelchair":"yes"}},{"type":"node","id":317215652,"lat":51.2502406,"lon":6.7863817,"tags":{"local_ref":"1","name":"Merziger Straße","public_transport":"stop_position","railway":"tram_stop","ref:IFOPT":"de:05111:18045:0:1","tram":"yes","wheelchair":"no"}},{"type":"node","id":317232247,"lat":51.2514531,"lon":6.7870048,"tags":{"local_ref":"1","name":"Straßburger Straße","public_transport":"stop_position","railway":"tram_stop","ref:IFOPT":"de:05111:18046:0:1","tram":"yes","wheelchair":"no"}},{"type":"node","id":323996858,"lat":51.3048646,"lon":6.7429282,"tags":{"description":"Kalkumer, Schloßallee, Gleis 1","local_ref":"1","name":"Kalkumer Schloßallee","public_transport":"stop_position","railway":"stop","ref":"1","ref:IFOPT":"de:05111:18201:2:1","subway":"yes","wheelchair":"yes"}},{"type":"node","id":325125293,"lat":51.4096864,"lon":6.7520747,"tags":{"description":"Hochfeld Süd Bf/Rheinpark, Gleis 1","name":"Hochfeld Süd Bf / Rheinpark","operator":"DVG","public_transport":"stop_position","railway":"tram_stop","ref":"1","tram":"yes"}},{"type":"node","id":325125854,"lat":51.4143659,"lon":6.7529203,"tags":{"amenity":"vending_machine","name":"Marienhospital","operator":"DVG","public_transport":"stop_position","railway":"tram_stop","shelter":"yes","tram":"yes","vending":"public_transport_tickets","wheelchair":"limited"}},{"type":"node","id":331314774,"lat":51.2113893,"lon":6.7826944,"tags":{"local_ref":"2","name":"Morsestraße","network":"VRR","network:wikidata":"Q448199","operator":"Rheinbahn","public_transport":"stop_position","railway":"tram_stop","ref":"2","ref:IFOPT":"de:05111:18102:0:2","tram":"yes"}},{"type":"node","id":331316209,"lat":51.2168537,"lon":6.7826785,"tags":{"local_ref":"2","name":"Luisenstraße","public_transport":"stop_position","railway":"tram_stop","shelter":"yes","tram":"yes","wheelchair":"yes"}},{"type":"node","id":331319775,"lat":51.2630101,"lon":6.8161684,"tags":{"name":"Rotdornstraße","public_transport":"stop_position","railway":"tram_stop","ref":"1","ref:IFOPT":"de:05111:18056:1:1","subway":"yes","tram":"yes"}},{"type":"node","id":331319780,"lat":51.2585554,"lon":6.806885,"tags":{"name":"Am Schein","public_transport":"stop_position","railway":"tram_stop","ref":"1","ref:IFOPT":"de:05111:18055:1:1","subway":"yes","tram":"yes"}},{"type":"node","id":331330196,"lat":51.215839,"lon":6.7679045,"tags":{"local_ref":"3","name":"Polizeipräsidium","network":"VRR","network:wikidata":"Q448199","operator":"Rheinbahn","public_transport":"stop_position","railway":"tram_stop","ref:IFOPT":"de:05111:18247:0:3","tram":"yes"}},{"type":"node","id":331330199,"lat":51.216029,"lon":6.7644267,"tags":{"description":"Stadttor, Gleis 2+5","local_ref":"2","name":"Stadttor","public_transport":"stop_position","railway":"tram_stop","ref":"2","ref:IFOPT":"de:05111:18202:0:2","tram":"yes","wheelchair":"yes"}},{"type":"node","id":331330200,"lat":51.2148623,"lon":6.7636879,"tags":{"description":"Stadttor, Gleis 1","local_ref":"1","name":"Stadttor","public_transport":"stop_position","railway":"tram_stop","ref":"1","ref:IFOPT":"de:05111:18202:0:1","tram":"yes","wheelchair":"yes"}},{"type":"node","id":331330201,"lat":51.2239699,"lon":6.7956433,"tags":{"local_ref":"5","name":"Worringer Platz","network":"VRR","network:wikidata":"Q448199","operator":"Rheinbahn","public_transport":"stop_position","railway":"tram_stop","ref":"5","ref:IFOPT":"de:05111:18236:4:5","tram":"yes","wheelchair":"yes"}},{"type":"node","id":332059230,"lat":51.2353681,"lon":6.8065628,"tags":{"local_ref":"2","name":"Düsseldorf Schumannstraße","public_transport":"stop_position","railway":"tram_stop","tram":"yes"}},{"type":"node","id":332059234,"lat":51.229173,"lon":6.8103814,"tags":{"name":"Lindenstraße","public_transport":"stop_position","railway":"tram_stop","ref":"1","ref:IFOPT":"de:05111:18238:1:1","shelter":"yes","tram":"yes"}},{"type":"node","id":332059235,"lat":51.2267667,"lon":6.8115405,"tags":{"local_ref":"1","name":"Flingern S","public_transport":"stop_position","railway":"tram_stop","ref":"1","ref:IFOPT":"de:05111:18010:4:1","tram":"yes","wheelchair":"yes"}},{"type":"node","id":332059236,"lat":51.2212869,"lon":6.8094134,"tags":{"local_ref":"3","name":"Kettwiger Straße","public_transport":"stop_position","railway":"tram_stop","ref":"3","shelter":"yes","tram":"yes","wheelchair":"yes"}},{"type":"node","id":332059238,"lat":51.2145788,"lon":6.8006295,"tags":{"local_ref":"1","name":"Flügelstraße","public_transport":"stop_position","railway":"tram_stop","ref:IFOPT":"de:05111:18253:1:1","tram":"yes","wheelchair":"yes"}},{"type":"node","id":332059239,"lat":51.2149526,"lon":6.8011173,"tags":{"local_ref":"2","name":"Flügelstraße","public_transport":"stop_position","railway":"tram_stop","ref:IFOPT":"de:05111:18253:2:2","tram":"yes","wheelchair":"yes"}},{"type":"node","id":332059240,"lat":51.2116416,"lon":6.7966832,"tags":{"name":"Kruppstraße","public_transport":"stop_position","railway":"tram_stop","shelter":"yes","tram":"yes","wheelchair":"no"}},{"type":"node","id":332059241,"lat":51.2111776,"lon":6.7951452,"tags":{"local_ref":"4","name":"Kruppstraße","public_transport":"stop_position","railway":"tram_stop","tram":"yes"}},{"type":"node","id":332061059,"lat":51.2087927,"lon":6.7931225,"tags":{"local_ref":"1","name":"Volksgarten S","public_transport":"stop_position","railway":"tram_stop","ref:IFOPT":"de:05111:18006:2:1","tram":"yes"}},{"type":"node","id":332061060,"lat":51.2056436,"lon":6.787951,"tags":{"name":"Redinghovenstraße","public_transport":"stop_position","railway":"tram_stop","tram":"yes","wheelchair":"yes"}},{"type":"node","id":332064505,"lat":51.2020349,"lon":6.7807773,"tags":{"name":"Kopernikusstraße","public_transport":"stop_position","railway":"tram_stop","ref":"3","ref:IFOPT":"de:05111:18003:3:3","ref_name":"Kopernikusstraße, Düsseldorf","tram":"yes","wheelchair":"no"}},{"type":"node","id":332064508,"lat":51.1985687,"lon":6.7777531,"tags":{"local_ref":"1","name":"Merowingerplatz","public_transport":"stop_position","railway":"tram_stop","ref:IFOPT":"de:05111:18270:1:1","tram":"yes"}},{"type":"node","id":332064510,"lat":51.200337,"lon":6.7776887,"tags":{"name":"Merowingerstraße","public_transport":"stop_position","railway":"tram_stop","ref":"3","ref:IFOPT":"de:05111:18653:3:3","tram":"yes","wheelchair":"no"}},{"type":"node","id":332064515,"lat":51.2353866,"lon":6.7831102,"tags":{"local_ref":"1","name":"Marienhospital","public_transport":"stop_position","railway":"tram_stop","ref:IFOPT":"de:05111:18015:0:1","tram":"yes","wheelchair":"no"}},{"type":"node","id":332719770,"lat":51.2396414,"lon":6.8352621,"tags":{"local_ref":"1","name":"Pöhlenweg","public_transport":"stop_position","railway":"tram_stop","ref":"1","ref:IFOPT":"de:05111:18072:0:1","subway":"yes","tram":"yes","wheelchair":"yes"}},{"type":"node","id":332784349,"lat":51.2239641,"lon":6.7957194,"tags":{"local_ref":"6","name":"Worringer Platz","network":"VRR","network:wikidata":"Q448199","operator":"Rheinbahn","public_transport":"stop_position","railway":"tram_stop","ref":"6","ref:IFOPT":"de:05111:18236:4:6","tram":"yes","wheelchair":"yes"}},{"type":"node","id":332784353,"lat":51.2238859,"lon":6.7955107,"tags":{"local_ref":"3","name":"Worringer Platz","network":"VRR","network:wikidata":"Q448199","operator":"Rheinbahn","public_transport":"stop_position","railway":"tram_stop","ref":"3","ref:IFOPT":"de:05111:18236:3:3","tram":"yes","wheelchair":"yes"}},{"type":"node","id":333179264,"lat":51.3035773,"lon":6.5891446,"tags":{"bus":"yes","description:de":"Temporäre Ersatzhaltestelle für SEV U76 (U) Fischeln","local_ref":"2","name":"Clemensstraße","network":"VRR","network:wikidata":"Q448199","operator":"SWK Mobil","operator:wikidata":"Q2208780","public_transport":"stop_position","railway":"tram_stop","ref:IFOPT":"de:5114:21048:0:2","tram":"yes"}},{"type":"node","id":333768045,"lat":51.2348137,"lon":6.7831127,"tags":{"local_ref":"3","name":"Marienhospital","public_transport":"stop_position","railway":"tram_stop","ref:IFOPT":"de:05111:18015:0:3","tram":"yes","wheelchair":"no"}},{"type":"node","id":333768049,"lat":51.2403031,"lon":6.7824789,"tags":{"local_ref":"3","name":"Dreieck","public_transport":"stop_position","railway":"tram_stop","ref":"3","ref:IFOPT":"de:05111:18043:22:3","tram":"yes","wheelchair":"no"}},{"type":"node","id":333768051,"lat":51.2472978,"lon":6.7835557,"tags":{"name":"Spichernplatz","public_transport":"stop_position","railway":"tram_stop","tram":"yes","wheelchair":"limited"}},{"type":"node","id":333768054,"lat":51.251094,"lon":6.7816944,"tags":{"name":"Tannenstraße","public_transport":"stop_position","railway":"tram_stop","tram":"yes","wheelchair":"no"}},{"type":"node","id":333768058,"lat":51.2535138,"lon":6.7803462,"tags":{"departures_board":"realtime","description":"Johannstraße, Gleis 1","local_ref":"1","name":"Johannstraße","network":"VRR","network:wikidata":"Q448199","operator":"Rheinbahn","public_transport":"stop_position","railway":"tram_stop","ref":"1","ref:IFOPT":"de:05111:18208:0:1","tram":"yes","wheelchair":"limited"}},{"type":"node","id":333768061,"lat":51.2631041,"lon":6.775749,"tags":{"local_ref":"1","name":"An der Piwipp","public_transport":"stop_position","railway":"tram_stop","tram":"yes","wheelchair":"no"}},{"type":"node","id":333768065,"lat":51.2602478,"lon":6.7773664,"tags":{"name":"Großmarkt","public_transport":"stop_position","railway":"tram_stop","ref":"2","tram":"yes","wheelchair":"no"}},{"type":"node","id":333768068,"lat":51.2678318,"lon":6.7743692,"tags":{"bus":"yes","name":"Elsässer Straße","public_transport":"stop_position","railway":"tram_stop","tram":"yes","wheelchair":"no"}},{"type":"node","id":333768070,"lat":51.2716832,"lon":6.7738111,"tags":{"description":"Eckenerstraße, Steig 2","local_ref":"2","name":"Eckenerstraße","public_transport":"stop_position","railway":"tram_stop","ref":"2","tram":"yes","wheelchair":"limited"}},{"type":"node","id":333768074,"lat":51.2720892,"lon":6.7742922,"tags":{"description":"Eckenerstraße, Steig 1","local_ref":"1","name":"Eckenerstraße","public_transport":"stop_position","railway":"tram_stop","ref":"1","tram":"yes","wheelchair":"no"}},{"type":"node","id":339258708,"lat":51.2151829,"lon":6.7877302,"tags":{"local_ref":"1","name":"Helmholtzstraße","public_transport":"stop_position","railway":"tram_stop","ref:IFOPT":"de:05111:18252:0:1","toilets:wheelchair":"no","tram":"yes"}},{"type":"node","id":344650322,"lat":51.2610712,"lon":6.7364447,"tags":{"local_ref":"1","name":"MERKUR SPIEL-ARENA/Messe Nord","public_transport":"stop_position","railway":"stop","ref":"1","ref:IFOPT":"de:05111:18075:0:1","subway":"yes"}},{"type":"node","id":348148542,"lat":51.2931165,"lon":6.8422881,"tags":{"light_rail":"yes","name":"Weststraße","public_transport":"stop_position","railway":"stop","ref:IFOPT":"de:05158:18214:1:1","subway":"yes","wheelchair":"yes"}},{"type":"node","id":348213443,"lat":51.206525,"lon":6.8255841,"tags":{"name":"Am Stufstock","public_transport":"stop_position","railway":"tram_stop","tram":"yes","wheelchair":"yes"}},{"type":"node","id":353911024,"lat":51.1991955,"lon":6.8459881,"tags":{"local_ref":"2","name":"Vennhauser Allee","note":"exit-only","public_transport":"stop_position","railway":"stop","ref":"2","ref:IFOPT":"de:05111:18261:5:2","subway":"yes","tram":"yes"}},{"type":"node","id":353911026,"lat":51.1986906,"lon":6.8462792,"tags":{"local_ref":"7","name":"Vennhauser Allee","public_transport":"stop_position","railway":"tram_stop","ref":"7","ref:IFOPT":"de:05111:18261:6:7","tram":"yes","wheelchair":"limited"}},{"type":"node","id":353911028,"lat":51.1986452,"lon":6.8463404,"tags":{"local_ref":"8","name":"Vennhauser Allee","public_transport":"stop_position","railway":"stop","ref":"8","ref:IFOPT":"de:05111:18261:4:8","subway":"yes","tram":"yes","wheelchair":"no"}},{"type":"node","id":354639692,"lat":51.2001856,"lon":6.8422832,"tags":{"local_ref":"1","name":"Alt Eller","public_transport":"stop_position","railway":"stop","ref":"1","ref:IFOPT":"de:05111:18260:1:1","subway":"yes","tram":"yes","wheelchair":"no"}},{"type":"node","id":354640031,"lat":51.2038226,"lon":6.8350278,"tags":{"local_ref":"1","name":"Jägerstraße","public_transport":"stop_position","railway":"stop","ref":"1","ref:IFOPT":"de:05111:18258:0:1","source":"survey","subway":"yes","tram":"yes"}},{"type":"node","id":354640071,"lat":51.2055181,"lon":6.8332887,"tags":{"local_ref":"2","name":"Am Hackenbruch","public_transport":"stop_position","railway":"stop","ref":"2","ref:IFOPT":"de:05111:18085:0:2","source":"survey","subway":"yes","tram":"yes"}},{"type":"node","id":359113755,"lat":51.5302475,"lon":6.7427693,"tags":{"name":"Walsum Betriebshof","public_transport":"stop_position","railway":"tram_stop","ref":"1","tram":"yes","wheelchair":"yes"}},{"type":"node","id":363995529,"lat":51.2274694,"lon":6.7875216,"tags":{"local_ref":"2","name":"Jacobistraße","public_transport":"stop_position","railway":"tram_stop","ref":"2","ref:IFOPT":"de:05111:18228:2:2","tram":"yes","wheelchair":"no"}},{"type":"node","id":364789208,"lat":51.2461231,"lon":6.7685855,"tags":{"local_ref":"1","name":"Golzheimer Platz","public_transport":"stop_position","railway":"stop","ref":"1","ref:IFOPT":"de:05111:18282:0:1","subway":"yes","wheelchair":"no"}},{"type":"node","id":364789210,"lat":51.2470588,"lon":6.7676005,"tags":{"local_ref":"2","name":"Golzheimer Platz","public_transport":"stop_position","railway":"stop","ref":"2","ref:IFOPT":"de:05111:18282:0:2","subway":"yes"}},{"type":"node","id":364789212,"lat":51.2495835,"lon":6.7653416,"tags":{"local_ref":"2","name":"Theodor-Heuss-Brücke","network":"VRR","network:wikidata":"Q448199","operator":"Rheinbahn AG","operator:short":"Rheinbahn","operator:wikidata":"Q316236","public_transport":"stop_position","railway":"stop","ref":"2","ref:IFOPT":"de:05111:18205:2:2","subway":"yes","wheelchair":"no"}},{"type":"node","id":364789213,"lat":51.2503778,"lon":6.7643414,"tags":{"local_ref":"1","name":"Theodor-Heuss-Brücke","network":"VRR","network:wikidata":"Q448199","operator":"Rheinbahn AG","operator:short":"Rheinbahn","operator:wikidata":"Q316236","public_transport":"stop_position","railway":"stop","ref":"1","ref:IFOPT":"de:05111:18205:1:1","subway":"yes"}},{"type":"node","id":364851106,"lat":51.2733347,"lon":6.7807665,"tags":{"local_ref":"2","name":"Am Röttchen","public_transport":"stop_position","railway":"tram_stop","tram":"yes","wheelchair":"no"}},{"type":"node","id":364851131,"lat":51.2549065,"lon":6.8223601,"tags":{"light_rail":"yes","local_ref":"1","name":"Rather Broich","public_transport":"stop_position","railway":"stop","ref":"1","ref:IFOPT":"de:05111:18215:1:1","subway":"yes","wheelchair":"yes"}},{"type":"node","id":364851132,"lat":51.2513777,"lon":6.8221994,"tags":{"light_rail":"yes","local_ref":"1","name":"Mörsenbroicher Weg","public_transport":"stop_position","railway":"stop","ref:IFOPT":"de:05111:18216:0:1","subway":"yes","wheelchair":"yes"}},{"type":"node","id":365181812,"lat":51.2634205,"lon":6.8253872,"tags":{"light_rail":"yes","local_ref":"1","name":"Rather Waldstadion","public_transport":"stop_position","railway":"stop","ref:IFOPT":"de:05111:18063:0:1","subway":"yes","wheelchair":"yes"}},{"type":"node","id":365182441,"lat":51.2878027,"lon":6.8400501,"tags":{"light_rail":"yes","local_ref":"1","name":"Gerhardstraße","public_transport":"stop_position","railway":"stop","ref:IFOPT":"de:05158:18058:0:1","shelter":"yes","subway":"yes","wheelchair":"yes"}},{"type":"node","id":365403123,"lat":51.3182245,"lon":6.7453918,"tags":{"local_ref":"2","name":"Wittlaer","public_transport":"stop_position","railway":"stop","ref":"2","ref:IFOPT":"de:05111:18151:0:2","subway":"yes","wheelchair":"yes"}},{"type":"node","id":369753622,"lat":51.2229661,"lon":6.8650388,"tags":{"light_rail":"yes","local_ref":"1","name":"Morper Straße","public_transport":"stop_position","railway":"stop","ref:IFOPT":"de:05111:18218:4:1","subway":"yes","wheelchair":"no"}},{"type":"node","id":385190777,"lat":51.2270588,"lon":6.8098843,"tags":{"local_ref":"4","name":"Flingern S","public_transport":"stop_position","railway":"tram_stop","ref":"4","ref:IFOPT":"de:05111:18010:2:4","tram":"yes","wheelchair":"yes"}},{"type":"node","id":385190782,"lat":51.2333799,"lon":6.817075,"tags":{"name":"Engerstraße","public_transport":"stop_position","railway":"tram_stop","ref":"4","tram":"yes","wheelchair":"no"}},{"type":"node","id":387418961,"lat":51.2209139,"lon":6.8663009,"tags":{"description":"Gerresheim S, Steig 2","light_rail":"yes","local_ref":"2","name":"Gerresheim S","note":"exit-only","public_transport":"stop_position","railway":"stop","ref":"2","ref:IFOPT":"de:05111:18217:2:2","subway":"yes"}},{"type":"node","id":387419042,"lat":51.2453291,"lon":6.853473,"tags":{"description":"Gerresheim Krankenhaus, Gleis 3","local_ref":"3","name":"Gerresheim Krankenhaus","note":"exit-only","public_transport":"stop_position","railway":"tram_stop","ref":"3","subway":"yes","tram":"yes","wheelchair":"yes"}},{"type":"node","id":387524792,"lat":51.2089142,"lon":6.8075506,"tags":{"description":"Oberbilk S, Gleis 3","local_ref":"3","name":"Oberbilk S","public_transport":"stop_position","railway":"tram_stop","ref":"3","ref:IFOPT":"de:05111:18094:5:3","tram":"yes","wheelchair":"no"}},{"type":"node","id":401890836,"lat":51.2332342,"lon":6.8141154,"tags":{"bench":"yes","bin":"yes","bus":"yes","check_date:shelter":"2026-05-05","highway":"bus_stop","lit":"yes","local_ref":"1","name":"Düsseldorf Engerstraße","network":"VRR","network:wikidata":"Q448199","public_transport":"platform","ref":"1","ref:IFOPT":"de:05111:18224:1:1","shelter":"yes","tactile_paving":"no"}},{"type":"node","id":431326261,"lat":51.3199852,"lon":6.4974758,"tags":{"name":"Wilhelmplatz","public_transport":"stop_position","railway":"tram_stop","tram":"yes","wheelchair":"yes"}},{"type":"node","id":438050259,"lat":51.3681737,"lon":6.7291239,"tags":{"description":"Mannesmann Tor 2, Gleis 2","name":"Mannesmann Tor 2","public_transport":"stop_position","railway":"tram_stop","ref":"2","tram":"yes","wheelchair":"yes"}},{"type":"node","id":442907639,"lat":51.4329068,"lon":6.7892465,"tags":{"name":"Lutherplatz","public_transport":"stop_position","railway":"tram_stop","tram":"yes","wheelchair":"yes"}},{"type":"node","id":449087907,"lat":51.2508841,"lon":6.7877398,"tags":{"local_ref":"2","name":"Straßburger Straße","public_transport":"stop_position","railway":"tram_stop","ref:IFOPT":"de:05111:18046:0:2","tram":"yes","wheelchair":"no"}},{"type":"node","id":452456300,"lat":51.2470024,"lon":6.7834754,"tags":{"name":"Spichernplatz","public_transport":"stop_position","railway":"tram_stop","tram":"yes","wheelchair":"limited"}},{"type":"node","id":461603735,"lat":51.5032522,"lon":6.76759,"tags":{"name":"Lohstraße","public_transport":"stop_position","railway":"tram_stop","tram":"yes","wheelchair":"yes"}},{"type":"node","id":461603737,"lat":51.5020477,"lon":6.7721031,"tags":{"name":"Morian-Stift","public_transport":"stop_position","railway":"tram_stop","tram":"yes","wheelchair":"yes"}},{"type":"node","id":477842683,"lat":51.1609073,"lon":6.8848449,"tags":{"local_ref":"2","name":"Benrath Betriebshof","public_transport":"stop_position","railway":"stop","ref":"2","ref:IFOPT":"de:05111:18262:0:2","shelter":"yes","source":"survey","subway":"yes"}},{"type":"node","id":485673616,"lat":51.4830055,"lon":6.7944237,"tags":{"name":"Theodor-Heuss-Straße","public_transport":"stop_position","railway":"tram_stop","tram":"yes","wheelchair":"yes"}},{"type":"node","id":485686627,"lat":51.4870514,"lon":6.7901646,"tags":{"local_ref":"1","name":"Amsterdamer Straße","operator":"DVG","public_transport":"stop_position","railway":"tram_stop","ref":"1","ref:IFOPT":"de:5112:16051:1:1","tram":"yes"}},{"type":"node","id":492064604,"lat":51.3858319,"lon":6.747037,"tags":{"check_date":"2022-12-03","name":"Ehinger Straße","public_transport":"stop_position","railway":"tram_stop","tram":"yes","wheelchair":"limited"}},{"type":"node","id":493177719,"lat":51.2208506,"lon":6.7925832,"tags":{"description":"Düsseldorf Hauptbahnhof","local_ref":"7","name":"Düsseldorf Hauptbahnhof","public_transport":"stop_position","railway":"tram_stop","ref:IFOPT":"de:05111:18235:5:7","tram":"yes","wheelchair":"limited"}},{"type":"node","id":493177720,"lat":51.2208975,"lon":6.7924838,"tags":{"description":"Düsseldorf Hauptbahnhof","local_ref":"8","name":"Düsseldorf Hauptbahnhof","public_transport":"stop_position","railway":"tram_stop","ref:IFOPT":"de:05111:18235:5:8","tram":"yes","wheelchair":"no"}},{"type":"node","id":493177721,"lat":51.2208029,"lon":6.7927015,"tags":{"description":"Düsseldorf Hauptbahnhof","local_ref":"5","name":"Düsseldorf Hauptbahnhof","public_transport":"stop_position","railway":"tram_stop","ref":"5","ref:IFOPT":"de:05111:18235:5:5","tram":"yes","wheelchair":"no"}},{"type":"node","id":493177722,"lat":51.2208386,"lon":6.7926202,"tags":{"description":"Düsseldorf Hauptbahnhof","local_ref":"6","name":"Düsseldorf Hauptbahnhof","public_transport":"stop_position","railway":"tram_stop","ref:IFOPT":"de:05111:18235:5:6","tram":"yes","wheelchair":"no"}},{"type":"node","id":494190954,"lat":51.2757199,"lon":6.7865964,"tags":{"description":"Unterrath S, Steig 2","local_ref":"2","name":"Unterrath S","network":"VRR","network:wikidata":"Q448199","public_transport":"stop_position","railway":"tram_stop","ref:IFOPT":"de:05111:18206:2:2","tram":"yes"}},{"type":"node","id":494190956,"lat":51.2380393,"lon":6.7796659,"tags":{"local_ref":"2","name":"Venloer Straße","public_transport":"stop_position","railway":"tram_stop","ref":"2","ref:IFOPT":"de:05111:18035:2:2","tram":"yes","wheelchair":"yes"}},{"type":"node","id":494329141,"lat":51.2310908,"lon":6.8010792,"tags":{"name":"Uhlandstraße","public_transport":"stop_position","railway":"tram_stop","ref":"3;4","subway":"yes","tram":"yes","wheelchair":"yes"}},{"type":"node","id":494329142,"lat":51.2108295,"lon":6.7699703,"tags":{"local_ref":"1","name":"Kronprinzenstraße","public_transport":"stop_position","railway":"tram_stop","ref:IFOPT":"de:05111:18107:0:1","tram":"yes","wheelchair":"no"}},{"type":"node","id":494329143,"lat":51.2108274,"lon":6.7693602,"tags":{"local_ref":"2","name":"Kronprinzenstraße","public_transport":"stop_position","railway":"tram_stop","ref:IFOPT":"de:05111:18107:0:2","tram":"yes"}},{"type":"node","id":494329144,"lat":51.2121476,"lon":6.7585202,"tags":{"local_ref":"1","name":"Wupperstraße","public_transport":"stop_position","railway":"tram_stop","ref:IFOPT":"de:05111:18109:0:1","tram":"yes"}},{"type":"node","id":494329145,"lat":51.2121399,"lon":6.7583039,"tags":{"local_ref":"2","name":"Wupperstraße","public_transport":"stop_position","railway":"tram_stop","ref:IFOPT":"de:05111:18109:0:2","tactile_paving":"yes","tram":"yes","wheelchair":"no"}},{"type":"node","id":496841434,"lat":51.3481345,"lon":6.6218863,"tags":{"name":"Gertrudisstraße","public_transport":"stop_position","railway":"tram_stop","tram":"yes","wheelchair":"no"}},{"type":"node","id":498735754,"lat":51.5027845,"lon":6.7836103,"tags":{"name":"Hamborn Betriebshof","public_transport":"stop_position","railway":"tram_stop","tram":"yes","wheelchair":"yes"}},{"type":"node","id":502040734,"lat":51.3518961,"lon":6.6397384,"tags":{"name":"Lange Straße","public_transport":"stop_position","railway":"tram_stop","ref":"2","tram":"yes","wheelchair":"no"}},{"type":"node","id":537141607,"lat":51.3322963,"lon":6.5542132,"tags":{"name":"Stadtgarten","public_transport":"stop_position","railway":"tram_stop","tram":"yes"}},{"type":"node","id":538191469,"lat":51.2945975,"lon":6.738738,"tags":{"local_ref":"1","name":"Kittelbachstraße","public_transport":"stop_position","railway":"stop","ref":"1","ref:IFOPT":"de:05111:18022:0:1","subway":"yes","wheelchair":"no"}},{"type":"node","id":540147189,"lat":51.4332841,"lon":6.7970107,"tags":{"local_ref":"2","name":"Schweizer Straße","public_transport":"stop_position","railway":"tram_stop","ref:IBNR":"661766","ref:IFOPT":"de:05112:16035:20:2","shelter":"yes","tram":"yes","uic_ref":"661766","wheelchair":"yes"}},{"type":"node","id":559925240,"lat":51.2280121,"lon":6.7873006,"tags":{"local_ref":"1","name":"Jacobistraße","public_transport":"stop_position","railway":"tram_stop","ref":"1","ref:IFOPT":"de:05111:18228:1:1","tram":"yes","wheelchair":"no"}},{"type":"node","id":583012598,"lat":51.4998107,"lon":6.7524686,"tags":{"name":"Wilfriedstraße","public_transport":"stop_position","railway":"tram_stop","tram":"yes"}},{"type":"node","id":583012601,"lat":51.5017989,"lon":6.7564895,"tags":{"description":"Marxloh Pollmann, Steig 3","name":"Marxloh Pollmann","public_transport":"stop_position","railway":"tram_stop","ref":"3","tram":"yes","wheelchair":"yes"}},{"type":"node","id":583012670,"lat":51.5004928,"lon":6.7820589,"tags":{"name":"Kampstraße","public_transport":"stop_position","railway":"tram_stop","tram":"yes","wheelchair":"yes"}},{"type":"node","id":583012671,"lat":51.5049706,"lon":6.7850869,"tags":{"name":"Kopernikusstraße","public_transport":"stop_position","railway":"tram_stop","tram":"yes","wheelchair":"yes"}},{"type":"node","id":583012673,"lat":51.5068198,"lon":6.7860991,"tags":{"name":"Obermarxloh Schleife","public_transport":"stop_position","railway":"tram_stop","tram":"yes","wheelchair":"yes"}},{"type":"node","id":583015597,"lat":51.4720685,"lon":6.7341501,"tags":{"bus":"yes","name":"Stockumer Straße","public_transport":"stop_position","railway":"tram_stop","tram":"yes","wheelchair":"yes"}},{"type":"node","id":583018750,"lat":51.4407925,"lon":6.7524111,"tags":{"name":"Kaßlerfelder Straße","public_transport":"stop_position","railway":"tram_stop","ref:IFOPT":"de:5112:16652:0:2","tram":"yes","wheelchair":"yes"}},{"type":"node","id":583018752,"lat":51.4429301,"lon":6.7474268,"tags":{"name":"Albertstraße","public_transport":"stop_position","railway":"tram_stop","tram":"yes","wheelchair":"no"}},{"type":"node","id":583018778,"lat":51.4507743,"lon":6.739149,"tags":{"name":"Tausendfensterhaus","public_transport":"stop_position","railway":"tram_stop","tram":"yes","wheelchair":"yes"}},{"type":"node","id":583321814,"lat":51.3367362,"lon":6.6426056,"tags":{"name":"Danziger Platz","public_transport":"stop_position","railway":"tram_stop","tram":"yes","wheelchair":"yes"}},{"type":"node","id":588962463,"lat":51.4556939,"lon":6.7348867,"tags":{"description":"Friedrichsplatz, Gleis 1","local_ref":"1","name":"Ruhrort Friedrichsplatz","public_transport":"stop_position","railway":"tram_stop","ref":"1","shelter":"yes","tram":"yes","wheelchair":"no"}},{"type":"node","id":590549497,"lat":51.393246,"lon":6.7531263,"tags":{"name":"Neuenhofstraße","public_transport":"stop_position","tram":"yes","wheelchair":"limited"}},{"type":"node","id":590549508,"lat":51.3837138,"lon":6.7426741,"tags":{"name":"Heiligenbaumstraße","public_transport":"stop_position","railway":"tram_stop","tram":"yes","wheelchair":"limited"}},{"type":"node","id":590574721,"lat":51.421352,"lon":6.7542907,"tags":{"name":"Siechenhausstraße","network":"VRR","network:wikidata":"Q448199","public_transport":"stop_position","railway":"tram_stop","toilets:wheelchair":"no","tram":"yes","wheelchair":"yes"}},{"type":"node","id":591876660,"lat":51.5044426,"lon":6.7533555,"tags":{"name":"Wolfstraße","public_transport":"stop_position","railway":"tram_stop","tram":"yes","wheelchair":"yes"}},{"type":"node","id":591876663,"lat":51.5024921,"lon":6.7565015,"tags":{"description":"Marxloh Pollmann, Steig 2","name":"Marxloh Pollmann","public_transport":"stop_position","railway":"tram_stop","ref":"2","tram":"yes","wheelchair":"yes"}},{"type":"node","id":591887455,"lat":51.5079474,"lon":6.7483013,"tags":{"name":"Heckmann","public_transport":"stop_position","railway":"tram_stop","tram":"yes","wheelchair":"yes"}},{"type":"node","id":591887460,"lat":51.5269532,"lon":6.7427265,"tags":{"description":"Walsum Rathaus, Gleis 1","name":"Walsum Rathaus","public_transport":"stop_position","railway":"tram_stop","ref":"1","ref:IFOPT":"de:5112:16041:1:1","tram":"yes","wheelchair":"yes"}},{"type":"node","id":591887463,"lat":51.5230685,"lon":6.7428481,"tags":{"name":"Sonnenstraße","public_transport":"stop_position","railway":"tram_stop","ref:IFOPT":"de:5112:16042:0:1","tram":"yes","wheelchair":"yes"}},{"type":"node","id":591887467,"lat":51.5175309,"lon":6.741124,"tags":{"name":"Schwan","public_transport":"stop_position","railway":"tram_stop","tram":"yes","wheelchair":"yes"}},{"type":"node","id":591887472,"lat":51.5144,"lon":6.7418084,"tags":{"name":"Striepweg","public_transport":"stop_position","railway":"tram_stop","tram":"yes","wheelchair":"yes"}},{"type":"node","id":591908213,"lat":51.5482631,"lon":6.7316147,"tags":{"bench":"yes","bin":"yes","departures_board":"timetable","local_ref":"1","name":"Bärenstraße","passenger_information_display":"yes","public_transport":"stop_position","railway":"tram_stop","ref:IFOPT":"de:05170:36534:2:1","shelter":"yes","tactile_paving":"yes","tram":"yes","wheelchair":"yes"}},{"type":"node","id":591908220,"lat":51.5434522,"lon":6.7366645,"tags":{"name":"Watereck","public_transport":"stop_position","railway":"tram_stop","ref":"1","tram":"yes","wheelchair":"yes"}},{"type":"node","id":591908226,"lat":51.5381945,"lon":6.7388063,"tags":{"name":"Vierlinden","public_transport":"stop_position","railway":"tram_stop","ref":"1","tram":"yes","wheelchair":"yes"}},{"type":"node","id":598497421,"lat":51.2004753,"lon":6.6883532,"tags":{"local_ref":"3","name":"Niedertor","network":"VRR","network:short":"VRR","network:wikidata":"Q448199","operator":"Rheinbahn AG","operator:short":"Rheinbahn","public_transport":"stop_position","railway":"tram_stop","ref:IFOPT":"de:05162:20177:2:3","tram":"yes","wheelchair":"no"}},{"type":"node","id":637662800,"lat":51.3349886,"lon":6.6318111,"tags":{"name":"Linn Bahnhof","public_transport":"stop_position","railway":"tram_stop","shelter":"yes","tram":"yes","wheelchair":"yes"}},{"type":"node","id":667451415,"lat":51.364883,"lon":6.752587,"tags":{"local_ref":"2","name":"St.-Anna-Krankenhaus","public_transport":"stop_position","railway":"stop","ref":"2","ref:IFOPT":"de:05112:16077:20:2","subway":"yes"}},{"type":"node","id":697285490,"lat":51.2742053,"lon":6.7478882,"tags":{"local_ref":"1","name":"Lohausen","public_transport":"stop_position","railway":"stop","ref":"1","ref:IFOPT":"de:05111:18204:0:1","subway":"yes"}},{"type":"node","id":697343200,"lat":51.1964727,"lon":6.796566,"tags":{"name":"Universität Nord / Christophstraße","public_transport":"stop_position","railway":"tram_stop","ref:IFOPT":"de:05111:18099:3:3","tram":"yes","wheelchair":"no"}},{"type":"node","id":697343203,"lat":51.2283724,"lon":6.8142249,"tags":{"local_ref":"2","name":"Hoffeldstraße","public_transport":"stop_position","railway":"tram_stop","tram":"yes","wheelchair":"no"}},{"type":"node","id":716830462,"lat":51.2633727,"lon":6.8189133,"tags":{"description":"Rath S, Gleis","name":"Rath S","public_transport":"stop_position","railway":"tram_stop","ref":"2","ref:IFOPT":"de:05111:18209:2:2","subway":"yes","tram":"yes","wheelchair":"limited"}},{"type":"node","id":752552326,"lat":51.2122877,"lon":6.7913936,"tags":{"local_ref":"2","name":"Sonnenstraße","network":"VRR","network:wikidata":"Q448199","operator":"Rheinbahn","public_transport":"stop_position","railway":"tram_stop","ref":"2","ref:IFOPT":"de:05111:18097:0:2","tram":"yes"}},{"type":"node","id":768555200,"lat":51.2362979,"lon":6.7964125,"tags":{"name":"Zoo S","network":"VRR","operator":"Rheinbahn","public_transport":"stop_position","railway":"tram_stop","ref":"1","tram":"yes","wheelchair":"no"}},{"type":"node","id":861417298,"lat":51.4266553,"lon":6.8624514,"tags":{"name":"Königstraße","network":"VRR","operator":"Ruhrbahn","public_transport":"stop_position","railway":"tram_stop","shelter":"yes","tactile_paving":"yes","tram":"yes","wheelchair":"yes"}},{"type":"node","id":914692558,"lat":51.1951481,"lon":6.8023734,"tags":{"description":"Südpark, Gleis 2+9","local_ref":"2;9","name":"Südpark","network":"VRR","operator":"Rheinbahn","public_transport":"stop_position","railway":"stop","ref:IFOPT":"de:05111:18295:0:2;de:05111:18295:0:9","subway":"yes","wheelchair":"yes"}},{"type":"node","id":949747901,"lat":51.1623443,"lon":6.8553165,"tags":{"bench":"no","bin":"yes","bus":"yes","highway":"bus_stop","lit":"yes","local_ref":"1","name":"Schöne Aussicht","public_transport":"platform","ref:IFOPT":"de:05111:18088:0:1","ref:ibnr":"653821","ref_name":"Schöne Aussicht, Düsseldorf","shelter":"no","tactile_paving":"no","wheelchair":"no"}},{"type":"node","id":958293520,"lat":51.354126,"lon":6.6161576,"tags":{"local_ref":"2","name":"Bockum Friedhof","network":"Verkehrsverbund Rhein-Ruhr","operator":"SWK MOBIL GmbH","public_transport":"stop_position","railway":"tram_stop","ref:IFOPT":"de:05114:21076:1:2","tram":"yes"}},{"type":"node","id":958293681,"lat":51.3581382,"lon":6.6139278,"tags":{"local_ref":"2","name":"Werner-Voß-Straße","network":"Verkehrsverbund Rhein-Ruhr","operator":"SWK MOBIL GmbH","public_transport":"stop_position","railway":"tram_stop","ref:IFOPT":"de:05114:21077:1:2","tram":"yes"}},{"type":"node","id":1069028679,"lat":51.3503747,"lon":6.53958,"tags":{"name":"Schroersdyk","public_transport":"stop_position","railway":"tram_stop","ref":"1","tram":"yes"}},{"type":"node","id":1069028684,"lat":51.3371979,"lon":6.5601394,"tags":{"name":"Friedrichsplatz","public_transport":"stop_position","railway":"tram_stop","ref":"2","tram":"yes","wheelchair":"no"}},{"type":"node","id":1069028691,"lat":51.3542826,"lon":6.5334859,"tags":{"name":"Grabeskirche/Kapuzinerkloster","old_name":"Grabeskirche Inrath","public_transport":"stop_position","railway":"tram_stop","ref":"1","tram":"yes"}},{"type":"node","id":1069028706,"lat":51.3464365,"lon":6.5457276,"tags":{"name":"Weyerhofstraße","network":"VRR","network:wikidata":"Q448199","operator":"SWK Mobil","public_transport":"stop_position","railway":"tram_stop","tram":"yes"}},{"type":"node","id":1118643961,"lat":51.3267728,"lon":6.5698166,"tags":{"description":"Krefeld Hauptbahnhof, Gleis 1","local_ref":"1","name":"Krefeld Hbf","public_transport":"stop_position","railway":"tram_stop","ref":"1","subway":"yes","tram":"yes","wheelchair":"yes"}},{"type":"node","id":1140764455,"lat":51.3645863,"lon":6.5180804,"tags":{"name":"Am Schützenhof","public_transport":"stop_position","railway":"tram_stop","tram":"yes"}},{"type":"node","id":1175137175,"lat":51.3706796,"lon":6.6155746,"tags":{"local_ref":"2","name":"Haus Rath","network":"VRR","network:wikidata":"Q448199","operator":"SWK MOBIL GmbH","public_transport":"stop_position","railway":"tram_stop","ref:IFOPT":"de:05114:21084:1:2","tram":"yes","wheelchair":"yes"}},{"type":"node","id":1218198387,"lat":51.3389979,"lon":6.7513538,"tags":{"local_ref":"1","name":"Froschenteich","public_transport":"stop_position","railway":"stop","ref":"1","ref:IFOPT":"de:05111:18152:0:1","subway":"yes"}},{"type":"node","id":1232158464,"lat":51.1622562,"lon":6.8683888,"tags":{"local_ref":"1","name":"Schloss Benrath","public_transport":"stop_position","railway":"tram_stop","ref":"1","ref:IFOPT":"de:05111:18086:0:1","subway":"yes","wheelchair":"limited","wheelchair:description":"Die niederflurige Straßenbahn U72 hält mit Abstand zum Bordstein, sodass man zuerst auf die Straße und dann wieder auf dn Bordstein muss. Keine Bordsteinabsenkung im unmittelbaren Bereich der Haltestelle"}},{"type":"node","id":1251920954,"lat":51.326605,"lon":6.5797882,"tags":{"light_rail":"yes","local_ref":"2","name":"Dießem","network":"Verkehrsverbund Rhein-Ruhr","network:short":"VRR","operator":"Rheinbahn AG","operator:short":"Rheinbahn","operator:wikidata":"Q316236","public_transport":"stop_position","railway":"stop","ref:IFOPT":"de:05114:21984:1:2","subway":"yes"}},{"type":"node","id":1260287002,"lat":51.1655299,"lon":6.8479944,"tags":{"local_ref":"2","name":"Am Trippelsberg","public_transport":"stop_position","railway":"stop","ref:IFOPT":"de:05111:18289:0:2","subway":"yes"}},{"type":"node","id":1260287259,"lat":51.1997301,"lon":6.7705543,"tags":{"local_ref":"2","name":"Südring","public_transport":"stop_position","railway":"tram_stop","ref:IFOPT":"de:05111:18105:0:2","subway":"yes","wheelchair":"no"}},{"type":"node","id":1278966435,"lat":51.4572467,"lon":6.7351982,"tags":{"bus":"yes","description":"Ruhrort Bf, Steig 6","local_ref":"6","name":"Ruhrort Bf","public_transport":"stop_position","railway":"tram_stop","ref":"6","ref:IFOPT":"de:5112:16021:20:2","tram":"yes","wheelchair":"no"}},{"type":"node","id":1316371976,"lat":51.4534385,"lon":6.7369233,"tags":{"name":"Karlstraße","network":"VRR","operator":"DVG","public_transport":"stop_position","railway":"tram_stop","ref":"901","tram":"yes","wheelchair":"no"}},{"type":"node","id":1343637682,"lat":51.2205602,"lon":6.809765,"tags":{"description":"Kettwiger Straße, Gleis 1","level":"-2","local_ref":"1","name":"Kettwiger Straße","public_transport":"stop_position","railway":"stop","ref":"1","subway":"yes"}},{"type":"node","id":1352811673,"lat":51.3491529,"lon":6.6264973,"tags":{"name":"Fasanenstraße","public_transport":"stop_position","railway":"tram_stop","tram":"yes"}},{"type":"node","id":1369159281,"lat":51.2164179,"lon":6.8040454,"tags":{"local_ref":"3","name":"Oberbilker Markt U","public_transport":"stop_position","railway":"tram_stop","ref:IFOPT":"de:05111:18254:1:3","shelter":"yes","tram":"yes","wheelchair":"yes"}},{"type":"node","id":1418439424,"lat":51.3416141,"lon":6.6590249,"tags":{"name":"Rheinhafen","public_transport":"stop_position","railway":"tram_stop","tram":"yes","wheelchair":"no"}},{"type":"node","id":1423166381,"lat":51.2288435,"lon":6.699678,"tags":{"local_ref":"1","name":"Handweiser","network":"VRR","operator":"Rheinbahn","public_transport":"stop_position","railway":"stop","ref":"1","ref:IFOPT":"de:05111:18272:1:1","subway":"yes","tram":"yes"}},{"type":"node","id":1436740913,"lat":51.312992,"lon":6.7448921,"tags":{"local_ref":"2","name":"Am Mühlenacker","public_transport":"stop_position","railway":"stop","ref":"2","ref:IFOPT":"de:05111:18150:0:2","subway":"yes","wheelchair":"no"}},{"type":"node","id":1436740915,"lat":51.3056842,"lon":6.7436628,"tags":{"description":"Kalkumer, Schloßallee, Gleis 2","local_ref":"2","name":"Kalkumer Schloßallee","public_transport":"stop_position","railway":"stop","ref":"2","ref:IFOPT":"de:05111:18201:2:2","subway":"yes","wheelchair":"yes"}},{"type":"node","id":1436740916,"lat":51.2953099,"lon":6.7388307,"tags":{"local_ref":"2","name":"Kittelbachstraße","public_transport":"stop_position","railway":"stop","ref":"2","ref:IFOPT":"de:05111:18022:0:2","subway":"yes","wheelchair":"yes"}},{"type":"node","id":1436740917,"lat":51.3006044,"lon":6.7393554,"tags":{"description":"Klemensplatz, Gleis 2","layer":"1","level":"1","local_ref":"2","name":"Klemensplatz","public_transport":"stop_position","railway":"stop","ref":"2","ref:IFOPT":"de:05111:18203:1:2","subway":"yes","wheelchair":"yes"}},{"type":"node","id":1436784514,"lat":51.3707653,"lon":6.7566125,"tags":{"local_ref":"1","name":"Am Mühlenkamp","public_transport":"stop_position","railway":"stop","ref":"1","ref:IFOPT":"de:05112:16076:0:1","subway":"yes","wheelchair":"yes"}},{"type":"node","id":1436784515,"lat":51.3567418,"lon":6.7466362,"tags":{"name":"Duisburg - Kesselsberg","public_transport":"stop_position","railway":"stop","subway":"yes","website":"https://efa.vrr.de/vrrstd/XSLT_TRIP_REQUEST2?sessionID=0&language=de&commonMacro=true&itdLPxx_transpCompany=vrr&name_origin=20016388&type_origin=any&lineRestriction=403","wheelchair":"yes"}},{"type":"node","id":1436784516,"lat":51.3390023,"lon":6.7514099,"tags":{"local_ref":"2","name":"Froschenteich","public_transport":"stop_position","railway":"stop","ref":"2","ref:IFOPT":"de:05111:18152:0:2","subway":"yes"}},{"type":"node","id":1436784606,"lat":51.3759199,"lon":6.7598775,"tags":{"description":"Sittardsberg, Steig 2","layer":"-1","level":"-1","local_ref":"2","name":"Sittardsberg","public_transport":"stop_position","railway":"stop","ref":"2","ref:IFOPT":"de:05112:16075:21:2","subway":"yes","wheelchair":"yes"}},{"type":"node","id":1436784607,"lat":51.3648703,"lon":6.7526347,"tags":{"local_ref":"1","name":"St.-Anna-Krankenhaus","public_transport":"stop_position","railway":"stop","ref":"1","ref:IFOPT":"de:05112:16077:20:1","subway":"yes"}},{"type":"node","id":1436803710,"lat":51.4095907,"lon":6.7682809,"tags":{"local_ref":"1","name":"Grunewald Betriebshof","public_transport":"stop_position","railway":"stop","ref":"1","ref:IFOPT":"de:05112:16992:20:1","subway":"yes","wheelchair":"no"}},{"type":"node","id":1436803714,"lat":51.401859,"lon":6.7630138,"tags":{"local_ref":"1","name":"Im Schlenk","public_transport":"stop_position","railway":"stop","ref":"1","ref:IFOPT":"de:05112:16072:20:1","subway":"yes","wheelchair":"no"}},{"type":"node","id":1436803728,"lat":51.4056912,"lon":6.7648328,"tags":{"local_ref":"1","name":"Kulturstraße","public_transport":"stop_position","railway":"stop","ref":"1","ref:IFOPT":"de:05112:16071:20:1","shelter":"yes","subway":"yes","wheelchair":"no"}},{"type":"node","id":1436803734,"lat":51.3838983,"lon":6.7609444,"tags":{"description":"Münchener Straße U, Gleis 2","layer":"1","level":"1","local_ref":"2","name":"Münchener Straße","public_transport":"stop_position","railway":"stop","ref":"2","ref:IFOPT":"de:05112:16074:20:2","subway":"yes","wheelchair":"yes"}},{"type":"node","id":1436803954,"lat":51.3931407,"lon":6.7601253,"tags":{"local_ref":"1","name":"Waldfriedhof","public_transport":"stop_position","railway":"stop","ref":"1","ref:IFOPT":"de:05112:16073:0:1","subway":"yes"}},{"type":"node","id":1436852233,"lat":51.2894417,"lon":6.7389084,"tags":{"local_ref":"2","name":"Alte Landstraße","public_transport":"stop_position","railway":"stop","ref":"2","ref:IFOPT":"de:05111:18023:0:2","subway":"yes"}},{"type":"node","id":1436852234,"lat":51.2661131,"lon":6.75252,"tags":{"name":"Freiligrathplatz","public_transport":"stop_position","railway":"stop","ref":"3","ref:IFOPT":"de:05111:18028:7:3","subway":"yes"}},{"type":"node","id":1436852274,"lat":51.274212,"lon":6.7479479,"tags":{"local_ref":"2","name":"Lohausen","public_transport":"stop_position","railway":"stop","ref":"2","ref:IFOPT":"de:05111:18204:0:2","subway":"yes"}},