{"elements":[{"type":"node","id":25455896,"lat":51.2791274,"lon":12.3960975,"tags":{"bus":"yes","name":"Markkleeberg, Virchowstraße","network":"Mitteldeutscher Verkehrsverbund","network:short":"MDV","network:wikidata":"Q1742463","operator":"Leipziger Verkehrsbetriebe","public_transport":"stop_position","railway":"tram_stop","ref":"0181","ref_name":"Virchowstr., Markkleeberg","tactile_paving":"no","tram":"yes","wheelchair":"no"}},{"type":"node","id":26080888,"lat":51.3401739,"lon":12.349587,"tags":{"name":"Sportforum Süd","network":"Mitteldeutscher Verkehrsverbund","network:short":"MDV","network:wikidata":"Q1742463","passenger_information_display":"yes","passenger_information_display:speech_output":"no","public_transport":"stop_position","railway":"tram_stop","ref":"0246","tram":"yes","wheelchair":"yes"}},{"type":"node","id":26080893,"lat":51.3378378,"lon":12.3408778,"tags":{"name":"Angerbrücke, Straßenbahnhof","network":"Mitteldeutscher Verkehrsverbund","network:short":"MDV","network:wikidata":"Q1742463","passenger_information_display":"yes","passenger_information_display:speech_output":"no","public_transport":"stop_position","railway":"tram_stop","ref":"0247","tram":"yes","wheelchair":"yes"}},{"type":"node","id":26819468,"lat":51.3427477,"lon":12.4142629,"tags":{"name":"Edlichstraße","network":"Mitteldeutscher Verkehrsverbund","network:short":"MDV","network:wikidata":"Q1742463","operator":"Leipziger Verkehrsbetriebe","public_transport":"stop_position","railway":"tram_stop","ref":"0074","shelter":"yes","tram":"yes","wheelchair":"no"}},{"type":"node","id":29862550,"lat":51.3484731,"lon":12.4202241,"tags":{"name":"Volksgarten","network":"Mitteldeutscher Verkehrsverbund","network:short":"MDV","network:wikidata":"Q1742463","public_transport":"stop_position","railway":"tram_stop","ref":"0051","tram":"yes","wheelchair":"yes"}},{"type":"node","id":59843729,"lat":51.3498896,"lon":12.3776953,"tags":{"name":"Wilhelm-Liebknecht-Platz","network":"Mitteldeutscher Verkehrsverbund","network:short":"MDV","network:wikidata":"Q1742463","public_transport":"stop_position","railway":"tram_stop","ref":"0013","tram":"yes","wheelchair":"yes"}},{"type":"node","id":59958337,"lat":51.3246955,"lon":12.294759,"tags":{"name":"Parkallee","network":"Mitteldeutscher Verkehrsverbund","network:short":"MDV","network:wikidata":"Q1742463","public_transport":"stop_position","railway":"tram_stop","ref":"0285","tram":"yes","wheelchair":"yes"}},{"type":"node","id":59958382,"lat":51.323038,"lon":12.2885817,"tags":{"name":"Schönauer Ring","network":"Mitteldeutscher Verkehrsverbund","network:short":"MDV","network:wikidata":"Q1742463","operator":"Leipziger Verkehrsbetriebe","public_transport":"stop_position","railway":"tram_stop","tram":"yes","wheelchair":"yes"}},{"type":"node","id":59962958,"lat":51.3795866,"lon":12.4254736,"tags":{"description":"Steig A","name":"Thekla, Tauchaer Straße","network":"Mitteldeutscher Verkehrsverbund","network:short":"MDV","network:wikidata":"Q1742463","operator":"Leipziger Verkehrsbetriebe","public_transport":"stop_position","railway":"tram_stop","ref":"0026","tactile_paving":"yes","tram":"yes","wheelchair":"yes"}},{"type":"node","id":60822530,"lat":51.3748725,"lon":12.4127538,"tags":{"name":"Mockau, Post","network":"Mitteldeutscher Verkehrsverbund","network:short":"MDV","network:wikidata":"Q1742463","public_transport":"stop_position","railway":"tram_stop","ref":"0023","tram":"yes","wheelchair":"limited"}},{"type":"node","id":105897405,"lat":51.3233481,"lon":12.3963082,"tags":{"name":"Deutsche Nationalbibliothek","network":"Mitteldeutscher Verkehrsverbund","network:short":"MDV","network:wikidata":"Q1742463","operator":"Leipziger Verkehrsbetriebe","public_transport":"stop_position","railway":"tram_stop","ref":"0141","tactile_paving":"no","tram":"yes","wheelchair":"no"}},{"type":"node","id":117167856,"lat":51.2957083,"lon":12.3965163,"tags":{"name":"Lößnig","network":"Mitteldeutscher Verkehrsverbund","network:short":"MDV","network:wikidata":"Q1742463","operator":"Leipziger Verkehrsbetriebe","public_transport":"stop_position","railway":"tram_stop","ref":"0159","tram":"yes","wheelchair":"yes"}},{"type":"node","id":118087121,"lat":51.3248322,"lon":12.3736515,"tags":{"name":"Südplatz","network":"Mitteldeutscher Verkehrsverbund","network:short":"MDV","network:wikidata":"Q1742463","operator":"LVB","public_transport":"stop_position","railway":"tram_stop","ref":"0169","tram":"yes","wheelchair":"yes"}},{"type":"node","id":130106007,"lat":51.3538059,"lon":12.4302822,"tags":{"name":"Schwantesstraße","network":"Mitteldeutscher Verkehrsverbund","network:short":"MDV","network:wikidata":"Q1742463","public_transport":"stop_position","railway":"tram_stop","ref":"0164","tram":"yes","wheelchair":"yes"}},{"type":"node","id":175939899,"lat":51.335856,"lon":12.3755928,"tags":{"bus":"yes","name":"Wilhelm-Leuschner-Platz","network":"Mitteldeutscher Verkehrsverbund","network:short":"MDV","network:wikidata":"Q1742463","passenger_information_display":"yes","public_transport":"stop_position","railway":"tram_stop","ref":"0007","tram":"yes","wheelchair":"yes"}},{"type":"node","id":178505962,"lat":51.3356195,"lon":12.3785563,"tags":{"name":"Roßplatz","network":"Mitteldeutscher Verkehrsverbund","network:short":"MDV","network:wikidata":"Q1742463","passenger_information_display":"yes","public_transport":"stop_position","railway":"tram_stop","ref":"0008","shelter":"yes","tram":"yes","wheelchair":"yes"}},{"type":"node","id":178856492,"lat":51.3748803,"lon":12.3784417,"tags":{"name":"Gohlis-Nord","network":"Mitteldeutscher Verkehrsverbund","network:short":"MDV","network:wikidata":"Q1742463","operator":"Leipziger Verkehrsbetriebe","public_transport":"stop_position","railway":"tram_stop","ref":"0361","tram":"yes","wheelchair":"no"}},{"type":"node","id":178860143,"lat":51.3683126,"lon":12.3860801,"tags":{"name":"Eutritzscher Markt","network":"Mitteldeutscher Verkehrsverbund","network:short":"MDV","network:wikidata":"Q1742463","operator":"Leipziger Verkehrsbetriebe","public_transport":"stop_position","railway":"tram_stop","ref":"0407","tram":"yes","wheelchair":"yes"}},{"type":"node","id":203474049,"lat":51.3604051,"lon":12.469118,"tags":{"name":"Paunsdorf-Nord","network":"Mitteldeutscher Verkehrsverbund","network:short":"MDV","network:wikidata":"Q1742463","operator":"Leipziger Verkehrsbetriebe","public_transport":"stop_position","railway":"tram_stop","ref":"0087","tram":"yes","wheelchair":"yes"}},{"type":"node","id":203479458,"lat":51.3646416,"lon":12.4647039,"tags":{"name":"Heisenbergstraße","network":"Mitteldeutscher Verkehrsverbund","network:short":"MDV","network:wikidata":"Q1742463","public_transport":"stop_position","railway":"tram_stop","ref":"0058","tram":"yes","wheelchair":"yes"}},{"type":"node","id":205292202,"lat":51.3464523,"lon":12.4579103,"tags":{"name":"Paunsdorf, Straßenbahnhof","network":"Mitteldeutscher Verkehrsverbund","network:short":"MDV","network:wikidata":"Q1742463","operator":"Leipziger Verkehrsbetriebe","public_transport":"stop_position","railway":"tram_stop","ref":"0083","tram":"yes","wheelchair":"yes"}},{"type":"node","id":205293551,"lat":51.3524037,"lon":12.4589645,"tags":{"name":"Am Vorwerk","network":"Mitteldeutscher Verkehrsverbund","network:short":"MDV","network:wikidata":"Q1742463","operator":"Leipziger Verkehrsbetriebe","public_transport":"stop_position","railway":"tram_stop","ref":"0085","tram":"yes","wheelchair":"yes"}},{"type":"node","id":206251443,"lat":51.3229983,"lon":12.3937994,"tags":{"name":"Deutsche Nationalbibliothek","network":"Mitteldeutscher Verkehrsverbund","network:short":"MDV","network:wikidata":"Q1742463","operator":"Leipziger Verkehrsbetriebe","public_transport":"stop_position","railway":"tram_stop","ref":"0141","shelter":"yes","tram":"yes","wheelchair":"yes"}},{"type":"node","id":206251460,"lat":51.3179074,"lon":12.3947459,"tags":{"name":"An den Tierkliniken","network":"Mitteldeutscher Verkehrsverbund","network:short":"MDV","network:wikidata":"Q1742463","public_transport":"stop_position","railway":"tram_stop","ref":"0155","tram":"yes","wheelchair":"yes"}},{"type":"node","id":211244023,"lat":51.3390985,"lon":12.3629202,"tags":{"name":"Westplatz","network":"Mitteldeutscher Verkehrsverbund","network:short":"MDV","network:wikidata":"Q1742463","public_transport":"stop_position","railway":"tram_stop","ref":"0205","shelter":"yes","tram":"yes","wheelchair":"yes"}},{"type":"node","id":211253842,"lat":51.3649959,"lon":12.3844913,"tags":{"name":"Eutritzscher Zentrum","network":"Mitteldeutscher Verkehrsverbund","network:short":"MDV","network:wikidata":"Q1742463","operator":"Leipziger Verkehrsbetriebe","public_transport":"stop_position","railway":"tram_stop","ref":"0396","tactile_paving":"yes","tram":"yes","wheelchair":"yes"}},{"type":"node","id":229417493,"lat":51.3375909,"lon":12.33386,"tags":{"bus":"yes","name":"Lindenauer Markt","network":"Mitteldeutscher Verkehrsverbund","network:short":"MDV","network:wikidata":"Q1742463","operator":"LVB","public_transport":"stop_position","railway":"tram_stop","ref":"0278","tram":"yes","wheelchair":"yes"}},{"type":"node","id":243879325,"lat":51.3213986,"lon":12.4040955,"tags":{"bus":"yes","name":"Altes Messegelände","network":"Mitteldeutscher Verkehrsverbund","network:short":"MDV","network:wikidata":"Q1742463","public_transport":"stop_position","railway":"tram_stop","ref":"0124","tram":"yes","wheelchair":"yes"}},{"type":"node","id":243879340,"lat":51.3318794,"lon":12.3955445,"tags":{"name":"Ostplatz","network":"Mitteldeutscher Verkehrsverbund","network:short":"MDV","network:wikidata":"Q1742463","operator":"Leipziger Verkehrsbetriebe","public_transport":"stop_position","railway":"tram_stop","ref":"0121","shelter":"yes","tram":"yes","wheelchair":"yes"}},{"type":"node","id":248036131,"lat":51.3271497,"lon":12.3890812,"tags":{"name":"Johannisallee","public_transport":"stop_position","railway":"tram_stop","tram":"yes","wheelchair":"yes"}},{"type":"node","id":248048202,"lat":51.3347018,"lon":12.3915172,"tags":{"name":"Gutenbergplatz","network":"Mitteldeutscher Verkehrsverbund","network:short":"MDV","network:wikidata":"Q1742463","public_transport":"stop_position","railway":"tram_stop","ref":"0120","shelter":"yes","tram":"yes","wheelchair":"yes"}},{"type":"node","id":248052217,"lat":51.3433473,"lon":12.3656142,"tags":{"name":"Leibnizstraße","network":"Mitteldeutscher Verkehrsverbund","network:short":"MDV","network:wikidata":"Q1742463","network:wikipedia":"de:Mitteldeutscher Verkehrsverbund","operator":"Leipziger Verkehrsbetriebe","passenger_information_display":"yes","passenger_information_display:speech_output":"no","public_transport":"stop_position","railway":"tram_stop","ref":"0244","source:name":"survey","source:ref":"survey","tram":"yes","wheelchair":"yes"}},{"type":"node","id":248455299,"lat":51.3433853,"lon":12.3839231,"tags":{"alt_name":"Wintergartenstraße/Hauptbahnhof Gleis 7","local_ref":"G","name":"Hauptbahnhof, Wintergartenstraße","network":"Mitteldeutscher Verkehrsverbund","network:short":"MDV","network:wikidata":"Q1742463","old_name":"Wintergartenstraße/Hauptbahnhof","operator":"Leipziger Verkehrsbetriebe","passenger_information_display":"yes","public_transport":"stop_position","railway":"tram_stop","ref":"0010","source:ref":"survey","tram":"yes","uic_ref":"955524","wheelchair":"yes"}},{"type":"node","id":248738849,"lat":51.3650222,"lon":12.3857257,"tags":{"bus":"yes","name":"Eutritzscher Zentrum","network":"Mitteldeutscher Verkehrsverbund","operator":"Leipziger Verkehrsbetriebe","public_transport":"stop_position","railway":"tram_stop","tactile_paving":"yes","tram":"yes"}},{"type":"node","id":249279868,"lat":51.3278677,"lon":12.3085065,"tags":{"name":"Saarländer Straße","network":"Mitteldeutscher Verkehrsverbund","network:short":"MDV","network:wikidata":"Q1742463","public_transport":"stop_position","railway":"tram_stop","ref":"0502","source:name":"survey","source:ref":"survey","tram":"yes","wheelchair":"yes"}},{"type":"node","id":250534982,"lat":51.3013824,"lon":12.3962741,"tags":{"name":"Moritz Hof","network":"Mitteldeutscher Verkehrsverbund","network:short":"MDV","network:wikidata":"Q1742463","operator":"Leipziger Verkehrsbetriebe","public_transport":"stop_position","railway":"tram_stop","ref":"0158","tram":"yes","wheelchair":"yes"}},{"type":"node","id":250535860,"lat":51.3138444,"lon":12.3946274,"tags":{"name":"Richard-Lehmann-/Zwickauer Straße","network":"Mitteldeutscher Verkehrsverbund","network:short":"MDV","network:wikidata":"Q1742463","operator":"Leipziger Verkehrsbetriebe","public_transport":"stop_position","railway":"tram_stop","ref":"0144","tram":"yes","wheelchair":"yes"}},{"type":"node","id":250544028,"lat":51.3356302,"lon":12.3709363,"tags":{"bus":"yes","name":"Neues Rathaus","network":"Mitteldeutscher Verkehrsverbund","network:short":"MDV","network:wikidata":"Q1742463","network:wikipedia":"de:Mitteldeutscher Verkehrsverbund","operator":"Leipziger Verkehrsbetriebe","public_transport":"stop_position","railway":"tram_stop","ref":"0005","tram":"yes","wheelchair":"yes"}},{"type":"node","id":250566446,"lat":51.3087675,"lon":12.2710293,"tags":{"name":"Krakauer Straße","network":"Mitteldeutscher Verkehrsverbund","network:short":"MDV","network:wikidata":"Q1742463","operator":"Leipziger Verkehrsbetriebe","public_transport":"stop_position","railway":"tram_stop","ref":"0220","tram":"yes"}},{"type":"node","id":250566452,"lat":51.3115561,"lon":12.2819539,"tags":{"name":"Ratzelbogen","network":"Mitteldeutscher Verkehrsverbund","network:short":"MDV","network:wikidata":"Q1742463","public_transport":"stop_position","railway":"tram_stop","ref":"0218","tram":"yes","wheelchair":"yes"}},{"type":"node","id":250566457,"lat":51.3133065,"lon":12.2933519,"tags":{"name":"Stuttgarter Allee","network":"Mitteldeutscher Verkehrsverbund","network:short":"MDV","network:wikidata":"Q1742463","public_transport":"stop_position","railway":"tram_stop","ref":"0217","source:name":"survey","source:ref":"survey","tram":"yes","wheelchair":"yes"}},{"type":"node","id":250734121,"lat":51.3091963,"lon":12.39632,"tags":{"name":"Triftweg","network":"Mitteldeutscher Verkehrsverbund","network:short":"MDV","network:wikidata":"Q1742463","operator":"LVB","public_transport":"stop_position","railway":"tram_stop","ref":"0156","tram":"yes","wheelchair":"yes"}},{"type":"node","id":250734125,"lat":51.3057206,"lon":12.3963446,"tags":{"name":"An der Märchenwiese","network":"Mitteldeutscher Verkehrsverbund","network:short":"MDV","network:wikidata":"Q1742463","operator":"Leipziger Verkehrsbetriebe","public_transport":"stop_position","railway":"tram_stop","ref":"0157","tram":"yes","wheelchair":"yes"}},{"type":"node","id":251009612,"lat":51.3203206,"lon":12.3296178,"tags":{"bus":"yes","highway":"bus_stop","name":"Adler","network":"Mitteldeutscher Verkehrsverbund","network:short":"MDV","network:wikidata":"Q1742463","operator":"Leipziger Verkehrsbetriebe","public_transport":"stop_position","railway":"tram_stop","ref":"0211","tram":"yes","wheelchair":"yes"}},{"type":"node","id":251427519,"lat":51.314077,"lon":12.3014677,"tags":{"name":"Schönauer/Ratzelstraße","network":"Mitteldeutscher Verkehrsverbund","network:short":"MDV","network:wikidata":"Q1742463","operator":"Leipziger Verkehrsbetriebe","public_transport":"stop_position","railway":"tram_stop","ref":"0216","source:name":"survey","source:ref":"survey","tram":"yes","wheelchair":"yes"}},{"type":"node","id":256534730,"lat":51.3391362,"lon":12.3956671,"tags":{"name":"Gerichtsweg","network":"Mitteldeutscher Verkehrsverbund","network:short":"MDV","network:wikidata":"Q1742463","operator":"LVB","public_transport":"stop_position","railway":"tram_stop","ref":"0071","tram":"yes","wheelchair":"yes"}},{"type":"node","id":261705980,"lat":51.3462282,"lon":12.4447223,"tags":{"name":"Theodor-Heuss-Straße","network":"Mitteldeutscher Verkehrsverbund","network:short":"MDV","network:wikidata":"Q1742463","operator":"Leipziger Verkehrsbetriebe","public_transport":"stop_position","railway":"tram_stop","ref":"0081","tram":"yes","wheelchair":"yes"}},{"type":"node","id":266201683,"lat":51.3391909,"lon":12.3821455,"tags":{"name":"Augustusplatz","network":"Mitteldeutscher Verkehrsverbund","network:short":"MDV","network:wikidata":"Q1742463","operator":"Leipziger Verkehrsbetriebe","passenger_information_display":"yes","passenger_information_display:speech_output":"no","public_transport":"stop_position","railway":"tram_stop","shelter":"yes","tram":"yes","wheelchair":"yes"}},{"type":"node","id":268638888,"lat":51.320956,"lon":12.3734857,"tags":{"bench":"yes","name":"Karl-Liebknecht-/Kurt-Eisner-Straße","network":"Mitteldeutscher Verkehrsverbund","network:short":"MDV","network:wikidata":"Q1742463","operator":"LVB","public_transport":"stop_position","railway":"tram_stop","ref":"0170","shelter":"yes","tram":"yes","wheelchair":"yes"}},{"type":"node","id":269189409,"lat":51.3349264,"lon":12.3691389,"tags":{"bus":"yes","name":"Neues Rathaus","network":"Mitteldeutscher Verkehrsverbund","network:short":"MDV","network:wikidata":"Q1742463","network:wikipedia":"de:Mitteldeutscher Verkehrsverbund","public_transport":"stop_position","railway":"tram_stop","ref":"0005","tram":"yes","wheelchair":"yes"}},{"type":"node","id":269328294,"lat":51.3152704,"lon":12.3783018,"tags":{"name":"Arthur-Hoffmann-/Richard-Lehmann-Straße","network":"Mitteldeutscher Verkehrsverbund","network:short":"MDV","network:wikidata":"Q1742463","public_transport":"stop_position","railway":"tram_stop","ref":"0152","route_ref":"9;N9","tram":"yes","wheelchair":"limited"}},{"type":"node","id":269594494,"lat":51.3400678,"lon":12.3712347,"tags":{"name":"Thomaskirche","network":"Mitteldeutscher Verkehrsverbund","network:short":"MDV","network:wikidata":"Q1742463","public_transport":"stop_position","railway":"tram_stop","ref":"0004","tram":"yes","wheelchair":"no"}},{"type":"node","id":269599544,"lat":51.3549005,"lon":12.3908316,"tags":{"name":"Apelstraße, Historischer Straßenbahnhof","network":"Mitteldeutscher Verkehrsverbund","network:short":"MDV","network:wikidata":"Q1742463","public_transport":"stop_position","railway":"tram_stop","ref":"0015","tram":"yes"}},{"type":"node","id":269600058,"lat":51.3591813,"lon":12.3962507,"tags":{"name":"Hamburger Straße","network":"Mitteldeutscher Verkehrsverbund","network:short":"MDV","network:wikidata":"Q1742463","public_transport":"stop_position","railway":"tram_stop","ref":"0016","tram":"yes","wheelchair":"yes"}},{"type":"node","id":270952456,"lat":51.3559362,"lon":12.3767669,"tags":{"name":"Chausseehaus","network":"Mitteldeutscher Verkehrsverbund","network:short":"MDV","network:wikidata":"Q1742463","public_transport":"stop_position","railway":"tram_stop","ref":"0364","tram":"yes","wheelchair":"yes"}},{"type":"node","id":270952931,"lat":51.3610454,"lon":12.3806863,"tags":{"name":"Wilhelminenstraße","network":"Mitteldeutscher Verkehrsverbund","network:short":"MDV","network:wikidata":"Q1742463","operator":"Leipziger Verkehrsbetriebe","public_transport":"stop_position","railway":"tram_stop","ref":"0405","tram":"yes","wheelchair":"yes"}},{"type":"node","id":270955283,"lat":51.3724073,"lon":12.3857304,"tags":{"name":"Mosenthinstraße","network":"Mitteldeutscher Verkehrsverbund","network:short":"MDV","network:wikidata":"Q1742463","operator":"Leipziger Verkehrsbetriebe","public_transport":"stop_position","railway":"tram_stop","ref":"0408","tactile_paving":"yes","tram":"yes","wheelchair":"yes"}},{"type":"node","id":270955451,"lat":51.3767292,"lon":12.3853506,"tags":{"name":"Delitzscher/Essener Straße","network":"Mitteldeutscher Verkehrsverbund","operator":"Leipziger Verkehrsbetriebe","public_transport":"stop_position","railway":"tram_stop","ref":"0409","tactile_paving":"yes","tram":"yes","wheelchair":"yes"}},{"type":"node","id":270956345,"lat":51.3843152,"lon":12.3810848,"tags":{"name":"Klinikum St. Georg","network":"Mitteldeutscher Verkehrsverbund","network:short":"MDV","network:wikidata":"Q1742463","operator":"Leipziger Verkehrsbetriebe","public_transport":"stop_position","railway":"tram_stop","ref":"0411","tactile_paving":"yes","tram":"yes","wheelchair":"yes"}},{"type":"node","id":270958870,"lat":51.3899854,"lon":12.3773358,"tags":{"bus":"yes","local_ref":"0413","name":"Dachauer Straße","network":"MDV","public_transport":"stop_position","railway":"tram_stop","tram":"yes","wheelchair":"yes"}},{"type":"node","id":270960853,"lat":51.3933842,"lon":12.3760678,"tags":{"name":"Wiederitzsch-Mitte","network":"Mitteldeutscher Verkehrsverbund","network:short":"MDV","network:wikidata":"Q1742463","operator":"Leipziger Verkehrsbetriebe","public_transport":"stop_position","railway":"tram_stop","ref":"0414","tram":"yes","wheelchair":"yes"}},{"type":"node","id":270960971,"lat":51.3961328,"lon":12.3893384,"tags":{"bin":"yes","name":"S-Bahnhof Messe","network":"MDV","public_transport":"stop_position","railway":"tram_stop","ref":"0416","ref_name":"Leipzig, S-Bahnhof Messe (Tram/Bus)","shelter":"yes","tactile_paving":"yes","tram":"yes","wheelchair":"yes"}},{"type":"node","id":270966482,"lat":51.3599293,"lon":12.443192,"tags":{"name":"Hohentichelnstraße","network":"Mitteldeutscher Verkehrsverbund","network:short":"MDV","network:wikidata":"Q1742463","operator":"Leipziger Verkehrsbetriebe","public_transport":"stop_position","railway":"tram_stop","ref":"0066","tram":"yes","wheelchair":"yes"}},{"type":"node","id":270966785,"lat":51.3616767,"lon":12.4468523,"tags":{"name":"Arcus Park","network":"MDV","public_transport":"stop_position","railway":"tram_stop","ref":"0055","tram":"yes","wheelchair":"no"}},{"type":"node","id":270966893,"lat":51.3642788,"lon":12.4523093,"tags":{"name":"Heiterblick, Teslastraße","network":"Mitteldeutscher Verkehrsverbund","network:short":"MDV","network:wikidata":"Q1742463","public_transport":"stop_position","railway":"tram_stop","ref":"0056","tram":"yes","wheelchair":"yes"}},{"type":"node","id":270967243,"lat":51.3672389,"lon":12.4602214,"tags":{"alt_name":"Portitzer Allee/Bf. Heiterblick","name":"Portitzer Allee, S-Bahnhof Heiterblick","network":"Mitteldeutscher Verkehrsverbund","network:short":"MDV","network:wikidata":"Q1742463","operator":"Leipziger Verkehrsbetriebe","public_transport":"stop_position","railway":"tram_stop","ref":"0057","tram":"yes","wheelchair":"yes"}},{"type":"node","id":270967505,"lat":51.3727192,"lon":12.4754334,"tags":{"name":"Taucha, Otto-Schmidt-Straße","network":"Mitteldeutscher Verkehrsverbund","network:short":"MDV","network:wikidata":"Q1742463","operator":"Leipziger Verkehrsbetriebe","public_transport":"stop_position","railway":"tram_stop","ref":"0060","tram":"yes","wheelchair":"yes"}},{"type":"node","id":270968281,"lat":51.3750699,"lon":12.4819241,"tags":{"name":"Taucha, Theodor-Körner-Straße","network":"Mitteldeutscher Verkehrsverbund","network:short":"MDV","network:wikidata":"Q1742463","operator":"Leipziger Verkehrsbetriebe","public_transport":"stop_position","railway":"tram_stop","ref":"0061","tram":"yes","wheelchair":"no"}},{"type":"node","id":270968385,"lat":51.3764414,"lon":12.485762,"tags":{"name":"Taucha, Freiligrathstraße","network":"Mitteldeutscher Verkehrsverbund","network:short":"MDV","network:wikidata":"Q1742463","operator":"Leipziger Verkehrsbetriebe","public_transport":"stop_position","railway":"tram_stop","ref":"0062","tram":"yes","wheelchair":"no"}},{"type":"node","id":270968739,"lat":51.3792106,"lon":12.4915045,"tags":{"name":"Taucha, An der Bürgerruhe","network":"Mitteldeutscher Verkehrsverbund","network:short":"MDV","network:wikidata":"Q1742463","operator":"Leipziger Verkehrsbetriebe","public_transport":"stop_position","railway":"tram_stop","ref":"0063","tactile_paving":"no","tram":"yes","wheelchair":"no"}},{"type":"node","id":270970773,"lat":51.3589701,"lon":12.4733332,"tags":{"name":"Hermelinstraße","network":"Mitteldeutscher Verkehrsverbund","network:short":"MDV","network:wikidata":"Q1742463","operator":"LVB","public_transport":"stop_position","railway":"tram_stop","ref":"0088","tram":"yes","wheelchair":"yes"}},{"type":"node","id":270971169,"lat":51.3486857,"lon":12.4790855,"tags":{"name":"Paunsdorf Center","network":"Mitteldeutscher Verkehrsverbund","network:short":"MDV","network:wikidata":"Q1742463","public_transport":"stop_position","railway":"tram_stop","ref":"0091","tram":"yes"}},{"type":"node","id":270971266,"lat":51.3466777,"lon":12.4789601,"tags":{"name":"Sommerfeld","network":"Mitteldeutscher Verkehrsverbund","network:short":"MDV","network:wikidata":"Q1742463","public_transport":"stop_position","railway":"tram_stop","tram":"yes","wheelchair":"yes"}},{"type":"node","id":272781982,"lat":51.3279266,"lon":12.3996746,"tags":{"name":"Witzgallstraße","network":"Mitteldeutscher Verkehrsverbund","network:short":"MDV","network:wikidata":"Q1742463","operator":"Leipziger Verkehrsbetriebe","public_transport":"stop_position","railway":"tram_stop","ref":"0122","tram":"yes","wheelchair":"yes"}},{"type":"node","id":276021506,"lat":51.314279,"lon":12.3154909,"tags":{"name":"Kurt-Kresse-Straße","network":"Mitteldeutscher Verkehrsverbund","network:short":"MDV","network:wikidata":"Q1742463","public_transport":"stop_position","railway":"tram_stop","ref":"0214","tram":"yes","wheelchair":"yes"}},{"type":"node","id":276022917,"lat":51.3070901,"lon":12.2652832,"tags":{"name":"Zschampertaue","network":"Mitteldeutscher Verkehrsverbund","network:short":"MDV","network:wikidata":"Q1742463","operator":"Leipziger Verkehrsbetriebe","public_transport":"stop_position","railway":"tram_stop","ref":"0221","tram":"yes"}},{"type":"node","id":276027981,"lat":51.3177791,"lon":12.4081357,"tags":{"name":"Naunhofer Straße","name:ja":"ナウンホーファー通り","network":"Mitteldeutscher Verkehrsverbund","network:short":"MDV","network:wikidata":"Q1742463","operator":"Leipziger Verkehrsbetriebe","public_transport":"stop_position","railway":"tram_stop","ref":"0125","tram":"yes","wheelchair":"yes"}},{"type":"node","id":276038047,"lat":51.3143561,"lon":12.4122368,"tags":{"name":"Völkerschlachtdenkmal","network":"Mitteldeutscher Verkehrsverbund","network:short":"MDV","network:wikidata":"Q1742463","public_transport":"stop_position","railway":"tram_stop","ref":"0126","tram":"yes","wheelchair":"yes"}},{"type":"node","id":276038355,"lat":51.3114015,"lon":12.4168233,"tags":{"name":"Südfriedhof","network":"Mitteldeutscher Verkehrsverbund","network:short":"MDV","network:wikidata":"Q1742463","public_transport":"stop_position","railway":"tram_stop","ref":"0127","tram":"yes","wheelchair":"yes"}},{"type":"node","id":276049863,"lat":51.2974996,"lon":12.4354811,"tags":{"name":"Roseggerstraße","network":"Mitteldeutscher Verkehrsverbund","network:short":"MDV","network:wikidata":"Q1742463","operator":"Leipziger Verkehrsbetriebe","public_transport":"stop_position","railway":"tram_stop","ref":"0131","tram":"yes","wheelchair":"yes"}},{"type":"node","id":276053918,"lat":51.3005038,"lon":12.4311594,"tags":{"name":"Franzosenallee","network":"Mitteldeutscher Verkehrsverbund","network:short":"MDV","network:wikidata":"Q1742463","operator":"Leipziger Verkehrsbetriebe","public_transport":"stop_position","railway":"tram_stop","ref":"0130","tram":"yes","wheelchair":"yes"}},{"type":"node","id":276281920,"lat":51.3671433,"lon":12.3758701,"tags":{"name":"Virchow-/Coppistraße","network":"Mitteldeutscher Verkehrsverbund (MDV)","operator":"Leipziger Verkehrsbetriebe","public_transport":"stop_position","railway":"tram_stop","ref":"0603","tram":"yes","wheelchair":"no"}},{"type":"node","id":276282220,"lat":51.3691161,"lon":12.3764755,"tags":{"name":"Gottschallstraße","network":"Mitteldeutscher Verkehrsverbund (MDV)","operator":"Leipziger Verkehrsbetriebe","public_transport":"stop_position","railway":"tram_stop","ref":"0360","shelter":"yes","tram":"yes","wheelchair":"limited"}},{"type":"node","id":276292568,"lat":51.324444,"lon":12.2624248,"tags":{"bench":"yes","name":"Miltitz","network":"MDV","operator":"LVB","public_transport":"stop_position","railway":"tram_stop","ref":"0302","shelter":"yes","tram":"yes","wheelchair":"yes"}},{"type":"node","id":276292922,"lat":51.3232444,"lon":12.2647354,"tags":{"bench":"yes","name":"Saturnstraße","network":"Mitteldeutscher Verkehrsverbund","network:short":"MDV","network:wikidata":"Q1742463","operator":"LVB","public_transport":"stop_position","railway":"tram_stop","ref":"0301","shelter":"yes","tram":"yes","wheelchair":"yes"}},{"type":"node","id":276293241,"lat":51.3215423,"lon":12.2675396,"tags":{"name":"Jupiterstraße","network":"Mitteldeutscher Verkehrsverbund","network:short":"MDV","network:wikidata":"Q1742463","operator":"Leipziger Verkehrsbetriebe","public_transport":"stop_position","railway":"tram_stop","ref":"0300","tactile_paving":"yes","tram":"yes","wheelchair":"yes"}},{"type":"node","id":276293558,"lat":51.3176137,"lon":12.2679158,"tags":{"name":"Plovdiver Straße","network":"Mitteldeutscher Verkehrsverbund","network:short":"MDV","network:wikidata":"Q1742463","operator":"LVB","public_transport":"stop_position","railway":"tram_stop","ref":"0299","tram":"yes","wheelchair":"yes"}},{"type":"node","id":276293866,"lat":51.3186158,"lon":12.275273,"tags":{"name":"Kiewer Straße","network":"Mitteldeutscher Verkehrsverbund","network:short":"MDV","network:wikidata":"Q1742463","public_transport":"stop_position","railway":"tram_stop","ref":"0298","tram":"yes","wheelchair":"yes"}},{"type":"node","id":276294711,"lat":51.3203495,"lon":12.2824878,"tags":{"name":"Am Kirschberg","network":"Mitteldeutscher Verkehrsverbund","network:short":"MDV","network:wikidata":"Q1742463","public_transport":"stop_position","railway":"tram_stop","ref":"0297","tram":"yes","wheelchair":"yes"}},{"type":"node","id":276295716,"lat":51.3257126,"lon":12.3017781,"tags":{"name":"Grünauer Allee","network":"Mitteldeutscher Verkehrsverbund","network:short":"MDV","network:wikidata":"Q1742463","public_transport":"stop_position","railway":"tram_stop","ref":"0284","tram":"yes","wheelchair":"yes"}},{"type":"node","id":276302617,"lat":51.3253722,"lon":12.4008905,"tags":{"name":"Technisches Rathaus","network":"Mitteldeutscher Verkehrsverbund","network:short":"MDV","network:wikidata":"Q1742463","public_transport":"stop_position","railway":"tram_stop","ref":"0123","tram":"yes","wheelchair":"yes"}},{"type":"node","id":276361157,"lat":51.3801556,"lon":12.384251,"tags":{"name":"Hornbach Baumarkt","network":"Mitteldeutscher Verkehrsverbund","network:short":"MDV","network:wikidata":"Q1742463","operator":"Leipziger Verkehrsbetriebe","public_transport":"stop_position","railway":"tram_stop","ref":"0410","tactile_paving":"yes","tram":"yes","wheelchair":"yes"}},{"type":"node","id":277529705,"lat":51.3321634,"lon":12.3506896,"tags":{"name":"Klingerweg","network":"Mitteldeutscher Verkehrsverbund","network:short":"MDV","network:wikidata":"Q1742463","public_transport":"stop_position","railway":"tram_stop","ref":"0207","tram":"yes","wheelchair":"yes"}},{"type":"node","id":307720580,"lat":51.2965049,"lon":12.3961557,"tags":{"name":"Lößnig","network":"Mitteldeutscher Verkehrsverbund","network:short":"MDV","network:wikidata":"Q1742463","operator":"Leipziger Verkehrsbetriebe","public_transport":"stop_position","railway":"tram_stop","ref":"0159","tram":"yes","wheelchair":"yes"}},{"type":"node","id":331333407,"lat":51.3182014,"lon":12.407215,"tags":{"bus":"yes","name":"Naunhofer Straße","network":"Mitteldeutscher Verkehrsverbund","network:short":"MDV","network:wikidata":"Q1742463","operator":"Leipziger Verkehrsbetriebe","public_transport":"stop_position","railway":"tram_stop","ref":"0125","tram":"yes"}},{"type":"node","id":332297670,"lat":51.3462051,"lon":12.4458408,"tags":{"name":"Theodor-Heuss-Straße","network":"Mitteldeutscher Verkehrsverbund","network:short":"MDV","network:wikidata":"Q1742463","operator":"Leipziger Verkehrsbetriebe","public_transport":"stop_position","railway":"tram_stop","ref":"0081","tram":"yes","wheelchair":"yes"}},{"type":"node","id":344269614,"lat":51.3383756,"lon":12.38174,"tags":{"name":"Augustusplatz","network":"Mitteldeutscher Verkehrsverbund","network:short":"MDV","network:wikidata":"Q1742463","operator":"Leipziger Verkehrsbetriebe","passenger_information_display":"yes","public_transport":"stop_position","railway":"tram_stop","shelter":"yes","tram":"yes","wheelchair":"yes"}},{"type":"node","id":355363380,"lat":51.3858601,"lon":12.3811072,"tags":{"name":"Klinikum St. Georg","network":"Mitteldeutscher Verkehrsverbund","old_name":"Eutritzsch, Krankenhaus","operator":"Leipziger Verkehrsbetriebe","public_transport":"stop_position","railway":"tram_stop","ref":"0412","tram":"yes"}},{"type":"node","id":412129945,"lat":51.343534,"lon":12.3857812,"tags":{"name":"Hofmeisterstraße","network":"Mitteldeutscher Verkehrsverbund","network:short":"MDV","network:wikidata":"Q1742463","note":"weiterhin keine Bedienung durch Linie 8","public_transport":"stop_position","railway":"tram_stop","ref":"0030","tram":"yes","wheelchair":"limited"}},{"type":"node","id":417308205,"lat":51.3274464,"lon":12.3887179,"tags":{"name":"Johannisallee","public_transport":"stop_position","railway":"tram_stop","tram":"yes","wheelchair":"yes"}},{"type":"node","id":470327463,"lat":51.3416965,"lon":12.3562672,"tags":{"name":"Waldplatz","network":"Mitteldeutscher Verkehrsverbund","network:short":"MDV","network:wikidata":"Q1742463","passenger_information_display":"yes","passenger_information_display:speech_output":"no","public_transport":"stop_position","railway":"tram_stop","ref":"0245","tram":"yes","wheelchair":"yes"}},{"type":"node","id":470327476,"lat":51.3379559,"lon":12.38528,"tags":{"name":"Johannisplatz","network":"Mitteldeutscher Verkehrsverbund","network:short":"MDV","network:wikidata":"Q1742463","public_transport":"stop_position","railway":"tram_stop","ref":"0070","source:name":"survey","source:ref":"survey","tram":"yes","wheelchair":"yes"}},{"type":"node","id":470327482,"lat":51.3382343,"lon":12.3855512,"tags":{"name":"Johannisplatz","network":"Mitteldeutscher Verkehrsverbund","network:short":"MDV","network:wikidata":"Q1742463","public_transport":"stop_position","railway":"tram_stop","ref":"0070","source:name":"survey","source:ref":"survey","tram":"yes","wheelchair":"yes"}},{"type":"node","id":470327503,"lat":51.3386504,"lon":12.403363,"tags":{"name":"Reudnitz, Koehlerstraße","network":"Mitteldeutscher Verkehrsverbund","network:short":"MDV","network:wikidata":"Q1742463","operator":"Leipziger Verkehrsbetriebe GmbH","public_transport":"stop_position","railway":"tram_stop","ref":"0072","tactile_paving":"no","tram":"yes","wheelchair":"no"}},{"type":"node","id":503704817,"lat":51.3041888,"lon":12.4255256,"tags":{"bus":"yes","name":"Probstheida","network":"Mitteldeutscher Verkehrsverbund","network:short":"MDV","network:wikidata":"Q1742463","operator":"Leipziger Verkehrsbetriebe","public_transport":"stop_position","railway":"tram_stop","ref":"0129","tram":"yes","wheelchair":"yes"}},{"type":"node","id":628655042,"lat":51.3201113,"lon":12.3784866,"tags":{"name":"Kurt-Eisner-/Arthur-Hoffmann-Straße","network":"Mitteldeutscher Verkehrsverbund","network:short":"MDV","network:wikidata":"Q1742463","operator":"Leipziger Verkehrsbetriebe","public_transport":"stop_position","railway":"tram_stop","ref":"0151","route_ref":"9","tactile_paving":"no","tram":"yes","wheelchair":"no"}},{"type":"node","id":857693314,"lat":51.3394457,"lon":12.3711747,"tags":{"name":"Thomaskirche","network":"Mitteldeutscher Verkehrsverbund","network:short":"MDV","network:wikidata":"Q1742463","public_transport":"stop_position","railway":"tram_stop","ref":"0004","tram":"yes","wheelchair":"no"}},{"type":"node","id":880386657,"lat":51.355669,"lon":12.434259,"tags":{"name":"Bautzner Straße","network":"Mitteldeutscher Verkehrsverbund","network:short":"MDV","network:wikidata":"Q1742463","operator":"Leipziger Verkehrsbetriebe","public_transport":"stop_position","railway":"tram_stop","ref":"0053","tram":"yes","wheelchair":"yes"}},{"type":"node","id":880386676,"lat":51.355466,"lon":12.4337579,"tags":{"name":"Bautzner Straße","network":"Mitteldeutscher Verkehrsverbund","network:short":"MDV","network:wikidata":"Q1742463","operator":"Leipziger Verkehrsbetriebe","public_transport":"stop_position","railway":"tram_stop","ref":"0053","tram":"yes","wheelchair":"yes"}},{"type":"node","id":914652682,"lat":51.3439326,"lon":12.4215463,"tags":{"name":"Annenstraße","network":"Mitteldeutscher Verkehrsverbund","network:short":"MDV","network:wikidata":"Q1742463","public_transport":"stop_position","railway":"tram_stop","ref":"0078","tram":"yes","wheelchair":"no"}},{"type":"node","id":942275067,"lat":51.3516793,"lon":12.4258996,"tags":{"name":"Permoser-/Torgauer Straße","network":"Mitteldeutscher Verkehrsverbund","network:short":"MDV","network:wikidata":"Q1742463","public_transport":"stop_position","railway":"tram_stop","ref":"0052","tram":"yes","wheelchair":"yes"}},{"type":"node","id":942275077,"lat":51.3540301,"lon":12.4308214,"tags":{"name":"Schwantesstraße","network":"Mitteldeutscher Verkehrsverbund","network:short":"MDV","network:wikidata":"Q1742463","public_transport":"stop_position","railway":"tram_stop","ref":"0164","tram":"yes","wheelchair":"yes"}},{"type":"node","id":943248028,"lat":51.3387438,"lon":12.3629055,"tags":{"name":"Westplatz","network":"Mitteldeutscher Verkehrsverbund","network:short":"MDV","network:wikidata":"Q1742463","public_transport":"stop_position","railway":"tram_stop","ref":"0205","tram":"yes","wheelchair":"yes"}},{"type":"node","id":945163727,"lat":51.3440145,"lon":12.3802727,"tags":{"bus":"yes","departures_board":"realtime","description":"Hauptbahnhof, Steig B","highway":"bus_stop","local_ref":"B","name":"Hauptbahnhof","name:ja":"中央駅","network":"Mitteldeutscher Verkehrsverbund","network:short":"MDV","network:wikidata":"Q1742463","network:wikipedia":"de:Mitteldeutscher Verkehrsverbund","operator":"LVB","passenger_information_display":"yes","public_transport":"stop_position","railway":"tram_stop","ref":"B","tram":"yes","uic_ref":"956291","wheelchair":"yes"}},{"type":"node","id":966225395,"lat":51.320318,"lon":12.3735152,"tags":{"name":"Karl-Liebknecht-/Kurt-Eisner-Straße","network":"Mitteldeutscher Verkehrsverbund","network:short":"MDV","network:wikidata":"Q1742463","public_transport":"stop_position","railway":"tram_stop","ref":"0170","tram":"yes","wheelchair":"yes"}},{"type":"node","id":995749893,"lat":51.3152155,"lon":12.3733341,"tags":{"name":"Richard-Lehmann-Straße, HTWK","network":"Mitteldeutscher Verkehrsverbund","network:short":"MDV","network:wikidata":"Q1742463","operator":"LVB","public_transport":"stop_position","railway":"tram_stop","ref":"0171","tram":"yes","wheelchair":"yes"}},{"type":"node","id":995771853,"lat":51.3428156,"lon":12.3830902,"tags":{"alt_name":"Wintergartenstraße/Hauptbahnhof Gleis 8","local_ref":"H","name":"Hauptbahnhof, Wintergartenstraße","network":"Mitteldeutscher Verkehrsverbund","network:short":"MDV","network:wikidata":"Q1742463","old_name":"Wintergartenstraße/Hauptbahnhof","passenger_information_display":"yes","public_transport":"stop_position","railway":"tram_stop","ref":"0010","source:ref":"survey","tram":"yes","uic_ref":"955524","wheelchair":"yes"}},{"type":"node","id":1014465989,"lat":51.366529,"lon":12.3757434,"tags":{"name":"Virchow-/Coppistraße","network":"Mitteldeutscher Verkehrsverbund (MDV)","operator":"Leipziger Verkehrsbetriebe","public_transport":"stop_position","railway":"tram_stop","ref":"0603","tram":"yes","wheelchair":"no"}},{"type":"node","id":1101764146,"lat":51.3448527,"lon":12.4196192,"tags":{"name":"Geißlerstraße, Bülowviertel","network":"Mitteldeutscher Verkehrsverbund","network:short":"MDV","network:wikidata":"Q1742463","public_transport":"stop_position","railway":"tram_stop","ref":"0077","tram":"yes","wheelchair":"no"}},{"type":"node","id":1101764148,"lat":51.344851,"lon":12.4187958,"tags":{"name":"Geißlerstraße, Bülowviertel","name:ja":"グライスラー通り, ビューローフィアテル","network":"Mitteldeutscher Verkehrsverbund","network:short":"MDV","network:wikidata":"Q1742463","public_transport":"stop_position","railway":"tram_stop","ref":"0077","tram":"yes","wheelchair":"no"}},{"type":"node","id":1325546362,"lat":51.3463897,"lon":12.4781921,"tags":{"name":"Sommerfeld","network":"Mitteldeutscher Verkehrsverbund","network:short":"MDV","network:wikidata":"Q1742463","public_transport":"stop_position","railway":"tram_stop","tram":"yes","wheelchair":"yes"}},{"type":"node","id":1326934856,"lat":51.3466789,"lon":12.4790375,"tags":{"name":"Sommerfeld","network":"Mitteldeutscher Verkehrsverbund","network:short":"MDV","network:wikidata":"Q1742463","public_transport":"stop_position","railway":"tram_stop","tram":"yes","wheelchair":"yes"}},{"type":"node","id":1371242236,"lat":51.3041142,"lon":12.4257336,"tags":{"bus":"yes","name":"Probstheida","network":"Mitteldeutscher Verkehrsverbund","network:short":"MDV","network:wikidata":"Q1742463","operator":"Leipziger Verkehrsbetriebe","public_transport":"stop_position","railway":"tram_stop","ref":"0129","tram":"yes","wheelchair":"yes"}},{"type":"node","id":1373794006,"lat":51.3511621,"lon":12.4791462,"tags":{"name":"Paunsdorfer Allee/Permoserstraße","network":"Mitteldeutscher Verkehrsverbund","network:short":"MDV","network:wikidata":"Q1742463","public_transport":"stop_position","railway":"tram_stop","ref":"0090","tram":"yes"}},{"type":"node","id":1380455365,"lat":51.3500806,"lon":12.3767071,"tags":{"name":"Wilhelm-Liebknecht-Platz","network":"Mitteldeutscher Verkehrsverbund","network:short":"MDV","network:wikidata":"Q1742463","operator":"Leipziger Verkehrsbetriebe","public_transport":"stop_position","railway":"tram_stop","ref":"0013","tram":"yes","wheelchair":"yes"}},{"type":"node","id":1395169569,"lat":51.3440444,"lon":12.3803031,"tags":{"bus":"yes","departures_board":"realtime","description":"Hauptbahnhof, Steig A","highway":"bus_stop","local_ref":"A","name":"Hauptbahnhof","name:en":"Main Station","name:ja":"中央駅","network":"Mitteldeutscher Verkehrsverbund","network:short":"MDV","network:wikidata":"Q1742463","network:wikipedia":"de:Mitteldeutscher Verkehrsverbund","passenger_information_display":"yes","public_transport":"stop_position","railway":"tram_stop","ref":"A","tram":"yes","uic_ref":"956291","wheelchair":"yes"}},{"type":"node","id":1395246566,"lat":51.3549507,"lon":12.3909496,"tags":{"name":"Apelstraße, Historischer Straßenbahnhof","network":"Mitteldeutscher Verkehrsverbund","network:short":"MDV","network:wikidata":"Q1742463","public_transport":"stop_position","railway":"tram_stop","ref":"0015","tram":"yes"}},{"type":"node","id":1411379270,"lat":51.3205101,"lon":12.2827873,"tags":{"name":"Am Kirschberg","network":"Mitteldeutscher Verkehrsverbund","network:short":"MDV","network:wikidata":"Q1742463","public_transport":"stop_position","railway":"tram_stop","ref":"0297","tram":"yes","wheelchair":"yes"}},{"type":"node","id":1411379271,"lat":51.3258309,"lon":12.302032,"tags":{"name":"Grünauer Allee","network":"Mitteldeutscher Verkehrsverbund","network:short":"MDV","network:wikidata":"Q1742463","public_transport":"stop_position","railway":"tram_stop","ref":"0284","tram":"yes","wheelchair":"yes"}},{"type":"node","id":1411379275,"lat":51.3219202,"lon":12.2674368,"tags":{"name":"Jupiterstraße","network":"Mitteldeutscher Verkehrsverbund","network:short":"MDV","network:wikidata":"Q1742463","operator":"Lepziger Verkehrsbetriebe","public_transport":"stop_position","railway":"tram_stop","ref":"0300","tactile_paving":"yes","tram":"yes","wheelchair":"yes"}},{"type":"node","id":1411379284,"lat":51.3185551,"lon":12.2747779,"tags":{"name":"Kiewer Straße","network":"Mitteldeutscher Verkehrsverbund","network:short":"MDV","network:wikidata":"Q1742463","public_transport":"stop_position","railway":"tram_stop","ref":"0298","tram":"yes","wheelchair":"yes"}},{"type":"node","id":1411379289,"lat":51.3247728,"lon":12.262813,"tags":{"name":"Miltitz","network":"MDV","operator":"LVB","public_transport":"stop_position","railway":"tram_stop","ref":"0302","tram":"yes","wheelchair":"yes"}},{"type":"node","id":1411379292,"lat":51.3247696,"lon":12.295347,"tags":{"name":"Parkallee","network":"Mitteldeutscher Verkehrsverbund","network:short":"MDV","network:wikidata":"Q1742463","public_transport":"stop_position","railway":"tram_stop","ref":"0285","tram":"yes","wheelchair":"yes"}},{"type":"node","id":1411379301,"lat":51.3179948,"lon":12.267805,"tags":{"name":"Plovdiver Straße","network":"Mitteldeutscher Verkehrsverbund","network:short":"MDV","network:wikidata":"Q1742463","operator":"LVB","public_transport":"stop_position","railway":"tram_stop","ref":"0299","tram":"yes","wheelchair":"yes"}},{"type":"node","id":1411379463,"lat":51.3233399,"lon":12.2641732,"tags":{"name":"Saturnstraße","network":"Mitteldeutscher Verkehrsverbund","network:short":"MDV","network:wikidata":"Q1742463","operator":"LVB","public_transport":"stop_position","railway":"tram_stop","ref":"0301","tram":"yes","wheelchair":"yes"}},{"type":"node","id":1411379573,"lat":51.3278852,"lon":12.3084414,"tags":{"name":"Saarländer Straße","network":"Mitteldeutscher Verkehrsverbund","network:short":"MDV","network:wikidata":"Q1742463","public_transport":"stop_position","railway":"tram_stop","ref":"0502","source:name":"survey","source:ref":"survey","tram":"yes","wheelchair":"yes"}},{"type":"node","id":1411379578,"lat":51.3227455,"lon":12.287816,"tags":{"name":"Schönauer Ring","network":"Mitteldeutscher Verkehrsverbund","network:short":"MDV","network:wikidata":"Q1742463","operator":"Leipziger Verkehrsbetriebe","public_transport":"stop_position","railway":"tram_stop","tactile_paving":"yes","tram":"yes","wheelchair":"yes"}},{"type":"node","id":1433258484,"lat":51.3586041,"lon":12.4739469,"tags":{"name":"Hermelinstraße","network":"Mitteldeutscher Verkehrsverbund","network:short":"MDV","network:wikidata":"Q1742463","operator":"LVB","public_transport":"stop_position","railway":"tram_stop","ref":"0088","tram":"yes","wheelchair":"yes"}},{"type":"node","id":1433439485,"lat":51.3455194,"lon":12.4151369,"tags":{"name":"Torgauer Platz","network":"Mitteldeutscher Verkehrsverbund","network:short":"MDV","network:wikidata":"Q1742463","operator":"Leipziger Verkehrsbetriebe","public_transport":"stop_position","railway":"tram_stop","ref":"0049","tram":"yes","wheelchair":"yes"}},{"type":"node","id":1433439508,"lat":51.3482979,"lon":12.4198841,"tags":{"name":"Volksgarten","network":"Mitteldeutscher Verkehrsverbund","network:short":"MDV","network:wikidata":"Q1742463","public_transport":"stop_position","railway":"tram_stop","ref":"0051","tram":"yes","wheelchair":"yes"}},{"type":"node","id":1622699362,"lat":51.3795147,"lon":12.4908715,"tags":{"name":"Taucha, An der Bürgerruhe","network":"Mitteldeutscher Verkehrsverbund","network:short":"MDV","network:wikidata":"Q1742463","operator":"Leipziger Verkehrsbetriebe","public_transport":"stop_position","railway":"tram_stop","ref":"0063","tactile_paving":"no","tram":"yes","wheelchair":"no"}},{"type":"node","id":1629811732,"lat":51.311647,"lon":12.2825915,"tags":{"name":"Ratzelbogen","network":"Mitteldeutscher Verkehrsverbund","network:short":"MDV","network:wikidata":"Q1742463","public_transport":"stop_position","railway":"tram_stop","ref":"0218","tram":"yes","wheelchair":"yes"}},{"type":"node","id":1632175170,"lat":51.3391175,"lon":12.3806535,"tags":{"bus":"yes","name":"Augustusplatz","name:ja":"アウグストゥス広場","network":"Mitteldeutscher Verkehrsverbund","network:short":"MDV","network:wikidata":"Q1742463","operator":"Leipziger Verkehrsbetriebe","passenger_information_display":"yes","public_transport":"stop_position","railway":"tram_stop","toilets:wheelchair":"yes","tram":"yes","wheelchair":"limited"}},{"type":"node","id":1654105237,"lat":51.3348483,"lon":12.3783126,"tags":{"name":"Roßplatz","network":"Mitteldeutscher Verkehrsverbund","network:short":"MDV","network:wikidata":"Q1742463","passenger_information_display":"yes","public_transport":"stop_position","railway":"tram_stop","ref":"0008","shelter":"yes","tram":"yes","wheelchair":"yes"}},{"type":"node","id":1654105601,"lat":51.3381177,"lon":12.3637007,"tags":{"name":"Westplatz","network":"Mitteldeutscher Verkehrsverbund","network:short":"MDV","network:wikidata":"Q1742463","public_transport":"stop_position","railway":"tram_stop","ref":"0205","tram":"yes","wheelchair":"yes"}},{"type":"node","id":1655510063,"lat":51.3434832,"lon":12.3859828,"tags":{"bus":"yes","name":"Hofmeisterstraße","network":"Mitteldeutscher Verkehrsverbund","network:short":"MDV","network:wikidata":"Q1742463","public_transport":"stop_position","railway":"tram_stop","ref":"0030","shelter":"yes","tram":"yes","wheelchair":"limited"}},{"type":"node","id":1696100929,"lat":51.3531974,"lon":12.387485,"tags":{"name":"Wittenberger Straße","network":"Mitteldeutscher Verkehrsverbund","network:short":"MDV","network:wikidata":"Q1742463","public_transport":"stop_position","railway":"tram_stop","ref":"0014","tram":"yes","wheelchair":"yes"}},{"type":"node","id":1696112359,"lat":51.3635539,"lon":12.4014776,"tags":{"name":"Mockauer/Volbedingstraße","network":"Mitteldeutscher Verkehrsverbund","network:short":"MDV","network:wikidata":"Q1742463","public_transport":"stop_position","railway":"tram_stop","ref":"0017","tram":"yes","wheelchair":"yes"}},{"type":"node","id":1711424676,"lat":51.3358925,"lon":12.4081331,"tags":{"name":"Breite Straße","name:ja":"ブライテ通り","network":"Mitteldeutscher Verkehrsverbund","network:short":"MDV","network:wikidata":"Q1742463","operator":"Leipziger Verkehrsbetriebe","public_transport":"stop_position","railway":"tram_stop","ref":"103","tram":"yes","wheelchair":"yes"}},{"type":"node","id":1711428763,"lat":51.3390797,"lon":12.3946508,"tags":{"name":"Gerichtsweg","network":"Mitteldeutscher Verkehrsverbund","network:short":"MDV","network:wikidata":"Q1742463","operator":"LVB","public_transport":"stop_position","railway":"tram_stop","ref":"0071","tram":"yes","wheelchair":"yes"}},{"type":"node","id":1909542100,"lat":51.3748354,"lon":12.4812727,"tags":{"name":"Taucha, Theodor-Körner-Straße","network":"Mitteldeutscher Verkehrsverbund","network:short":"MDV","network:wikidata":"Q1742463","operator":"Leipziger Verkehrsbetriebe","public_transport":"stop_position","railway":"tram_stop","ref":"0061","tram":"yes","wheelchair":"no"}},{"type":"node","id":1956515335,"lat":51.3342098,"lon":12.3922167,"tags":{"name":"Gutenbergplatz","network":"Mitteldeutscher Verkehrsverbund","network:short":"MDV","network:wikidata":"Q1742463","public_transport":"stop_position","railway":"tram_stop","ref":"0120","shelter":"yes","toilets:wheelchair":"no","tram":"yes","wheelchair":"yes"}},{"type":"node","id":1956515338,"lat":51.336932,"lon":12.3873082,"tags":{"name":"Johannisplatz","network":"Mitteldeutscher Verkehrsverbund","network:short":"MDV","network:wikidata":"Q1742463","public_transport":"stop_position","railway":"tram_stop","ref":"0070","source:name":"survey","source:ref":"survey","tram":"yes","wheelchair":"yes"}},{"type":"node","id":1956515339,"lat":51.3315474,"lon":12.3959848,"tags":{"name":"Ostplatz","network":"Mitteldeutscher Verkehrsverbund","network:short":"MDV","network:wikidata":"Q1742463","operator":"Leipziger Verkehrsbetriebe","public_transport":"stop_position","railway":"tram_stop","ref":"0121","shelter":"yes","tram":"yes","wheelchair":"yes"}},{"type":"node","id":1956515383,"lat":51.3250006,"lon":12.4010667,"tags":{"name":"Technisches Rathaus","network":"Mitteldeutscher Verkehrsverbund","network:short":"MDV","network:wikidata":"Q1742463","public_transport":"stop_position","railway":"tram_stop","ref":"0123","tram":"yes","wheelchair":"yes"}},{"type":"node","id":1956515384,"lat":51.3284597,"lon":12.3994113,"tags":{"name":"Witzgallstraße","network":"Mitteldeutscher Verkehrsverbund","network:short":"MDV","network:wikidata":"Q1742463","operator":"Leipziger Verkehrsbetriebe","public_transport":"stop_position","railway":"tram_stop","ref":"0122","tram":"yes","wheelchair":"yes"}},{"type":"node","id":2038415876,"lat":51.3367804,"lon":12.3354045,"tags":{"bus":"yes","name":"Lindenauer Markt","network":"Mitteldeutscher Verkehrsverbund","network:short":"MDV","network:wikidata":"Q1742463","operator":"LVB","public_transport":"stop_position","railway":"tram_stop","ref":"0278","tram":"yes","wheelchair":"yes"}},{"type":"node","id":2041867426,"lat":51.3404137,"lon":12.3508021,"tags":{"name":"Sportforum Süd","network":"Mitteldeutscher Verkehrsverbund","network:short":"MDV","network:wikidata":"Q1742463","passenger_information_display":"yes","passenger_information_display:speech_output":"no","public_transport":"stop_position","railway":"tram_stop","ref":"0246","tram":"yes","wheelchair":"yes"}},{"type":"node","id":2041907040,"lat":51.3382384,"lon":12.341753,"tags":{"name":"Angerbrücke, Straßenbahnhof","network":"Mitteldeutscher Verkehrsverbund","network:short":"MDV","network:wikidata":"Q1742463","operator":"Leipziger Verkehrsbetriebe","passenger_information_display":"yes","public_transport":"stop_position","railway":"tram_stop","ref":"0247","tactile_paving":"yes","tram":"yes","wheelchair":"yes"}},{"type":"node","id":2042179120,"lat":51.3200442,"lon":12.3176541,"tags":{"bench":"yes","construction":"yes","name":"Diezmannstraße","network":"Mitteldeutscher Verkehrsverbund","network:short":"MDV","network:wikidata":"Q1742463","operator":"LVB","public_transport":"stop_position","railway":"tram_stop","ref":"0213","shelter":"yes","tram":"yes","wheelchair":"yes"}},{"type":"node","id":2042179173,"lat":51.3143355,"lon":12.315965,"tags":{"name":"Kurt-Kresse-Straße","network":"Mitteldeutscher Verkehrsverbund","network:short":"MDV","network:wikidata":"Q1742463","public_transport":"stop_position","railway":"tram_stop","ref":"0214","tram":"yes","wheelchair":"yes"}},{"type":"node","id":2047713820,"lat":51.3324836,"lon":12.3506894,"tags":{"name":"Klingerweg","network":"Mitteldeutscher Verkehrsverbund","network:short":"MDV","network:wikidata":"Q1742463","public_transport":"stop_position","railway":"tram_stop","ref":"0207","tram":"yes","wheelchair":"yes"}},{"type":"node","id":2047739448,"lat":51.3239164,"lon":12.3438288,"tags":{"name":"Stieglitzstraße","network":"Mitteldeutscher Verkehrsverbund","network:short":"MDV","network:wikidata":"Q1742463","operator":"Leipziger Verkehrsbetriebe","public_transport":"stop_position","railway":"tram_stop","ref":"0209","tactile_paving":"yes","tram":"yes","wheelchair":"yes"}},{"type":"node","id":2047739465,"lat":51.3236744,"lon":12.3435916,"tags":{"name":"Stieglitzstraße","network":"Mitteldeutscher Verkehrsverbund","network:short":"MDV","network:wikidata":"Q1742463","operator":"Leipziger Verkehrsbetriebe","public_transport":"stop_position","railway":"tram_stop","ref":"0209","tactile_paving":"yes","tram":"yes","wheelchair":"yes"}},{"type":"node","id":2047742457,"lat":51.3201332,"lon":12.3308019,"tags":{"name":"Adler","network":"Mitteldeutscher Verkehrsverbund","network:short":"MDV","network:wikidata":"Q1742463","operator":"Leipziger Verkehrsbetriebe","public_transport":"stop_position","railway":"tram_stop","ref":"0211","tactile_paving":"yes","tram":"yes","wheelchair":"yes"}},{"type":"node","id":2052758700,"lat":51.3362848,"lon":12.3572599,"tags":{"name":"Marschnerstraße","network":"Mitteldeutscher Verkehrsverbund","network:short":"MDV","network:wikidata":"Q1742463","operator":"Leipziger Verkehrsbetriebe","public_transport":"stop_position","railway":"tram_stop","ref":"0206","tactile_paving":"no","tram":"yes","wheelchair":"no"}},{"type":"node","id":2052758708,"lat":51.3359388,"lon":12.3566954,"tags":{"name":"Marschnerstraße","network":"Mitteldeutscher Verkehrsverbund","network:short":"MDV","network:wikidata":"Q1742463","operator":"Leipziger Verkehrsbetriebe","public_transport":"stop_position","railway":"tram_stop","ref":"0206","shelter":"yes","tactile_paving":"no","tram":"yes","wheelchair":"limited"}},{"type":"node","id":2055653504,"lat":51.3289991,"lon":12.3366458,"tags":{"name":"Elster Passage","network":"Mitteldeutscher Verkehrsverbund","network:short":"MDV","network:wikidata":"Q1742463","operator":"Leipziger Verkehrsbetriebe","public_transport":"stop_position","railway":"tram_stop","ref":"0249","tactile_paving":"yes","tram":"yes","wheelchair":"yes"}},{"type":"node","id":2055653512,"lat":51.331948,"lon":12.338539,"tags":{"name":"Felsenkeller","network":"Mitteldeutscher Verkehrsverbund","network:short":"MDV","network:wikidata":"Q1742463","public_transport":"stop_position","railway":"tram_stop","ref":"0228","tram":"yes","wheelchair":"limited"}},{"type":"node","id":2055653520,"lat":51.3292565,"lon":12.3368717,"tags":{"name":"Elster Passage","network":"Mitteldeutscher Verkehrsverbund","network:short":"MDV","network:wikidata":"Q1742463","operator":"Leipziger Verkehrsbetriebe","public_transport":"stop_position","railway":"tram_stop","ref":"0249","tactile_paving":"yes","tram":"yes","wheelchair":"yes"}},{"type":"node","id":2055667608,"lat":51.3250187,"lon":12.3340835,"tags":{"name":"Markranstädter Straße","network":"Mitteldeutscher Verkehrsverbund","network:short":"MDV","network:wikidata":"Q1742463","operator":"Leipziger Verkehrsbetriebe","public_transport":"stop_position","railway":"tram_stop","ref":"0250","tram":"yes","wheelchair":"no"}},{"type":"node","id":2055667610,"lat":51.3251287,"lon":12.3342164,"tags":{"name":"Markranstädter Straße","network":"Mitteldeutscher Verkehrsverbund","network:short":"MDV","network:wikidata":"Q1742463","operator":"Leipziger Verkehrsbetriebe","public_transport":"stop_position","railway":"tram_stop","ref":"0250","tram":"yes","wheelchair":"no"}},{"type":"node","id":2055682581,"lat":51.3203707,"lon":12.3261929,"tags":{"bus":"yes","highway":"bus_stop","name":"Antonien-/Gießerstraße","network":"MDV","public_transport":"stop_position","railway":"tram_stop","ref":"0212","tactile_paving":"no","tram":"yes","wheelchair":"limited"}},{"type":"node","id":2055682591,"lat":51.3203561,"lon":12.3248597,"tags":{"name":"Antonien-/Gießerstraße","network":"Mitteldeutscher Verkehrsverbund","network:short":"MDV","network:wikidata":"Q1742463","public_transport":"stop_position","railway":"tram_stop","ref":"0212","tactile_paving":"no","tram":"yes","wheelchair":"no"}},{"type":"node","id":2055682610,"lat":51.3207193,"lon":12.3306131,"tags":{"name":"Adler","network":"Mitteldeutscher Verkehrsverbund","network:short":"MDV","network:wikidata":"Q1742463","operator":"Leipziger Verkehrsbetriebe","public_transport":"stop_position","railway":"tram_stop","ref":"0211","tram":"yes","wheelchair":"yes"}},{"type":"node","id":2055700701,"lat":51.3433244,"lon":12.3656243,"tags":{"name":"Leibnizstraße","network":"Mitteldeutscher Verkehrsverbund","network:short":"MDV","network:wikidata":"Q1742463","operator":"Leipziger Verkehrsbetriebe","passenger_information_display":"yes","public_transport":"stop_position","railway":"tram_stop","ref":"0244","source:name":"survey","source:ref":"survey","tram":"yes","wheelchair":"yes"}},{"type":"node","id":2066480845,"lat":51.3206663,"lon":12.4047309,"tags":{"bus":"yes","name":"Altes Messegelände","name:ja":"アルテス・メッセゲレンデ","network":"Mitteldeutscher Verkehrsverbund","network:short":"MDV","network:wikidata":"Q1742463","public_transport":"stop_position","railway":"tram_stop","ref":"0124","tram":"yes","wheelchair":"yes"}},{"type":"node","id":2066493554,"lat":51.3180986,"lon":12.407807,"tags":{"name":"Naunhofer Straße","network":"Mitteldeutscher Verkehrsverbund","network:short":"MDV","network:wikidata":"Q1742463","operator":"Leipziger Verkehrsbetriebe","public_transport":"stop_position","railway":"tram_stop","ref":"0125","tram":"yes","wheelchair":"yes"}},{"type":"node","id":2066517301,"lat":51.3148479,"lon":12.4115492,"tags":{"name":"Völkerschlachtdenkmal","network":"Mitteldeutscher Verkehrsverbund","network:short":"MDV","network:wikidata":"Q1742463","operator":"Leipziger Verkehrsbetriebe","public_transport":"stop_position","railway":"tram_stop","ref":"0126","tram":"yes","wheelchair":"yes"}},{"type":"node","id":2066528426,"lat":51.3067852,"lon":12.4224359,"tags":{"bus":"yes","name":"Prager/Russenstraße","network":"Mitteldeutscher Verkehrsverbund","network:short":"MDV","network:wikidata":"Q1742463","operator":"Leipziger Verkehrsbetriebe","public_transport":"stop_position","railway":"tram_stop","ref":"0128","route_ref":"2, 15, 76, 79","tram":"yes","wheelchair":"yes"}},{"type":"node","id":2066528479,"lat":51.311165,"lon":12.4171288,"tags":{"name":"Südfriedhof","network":"Mitteldeutscher Verkehrsverbund","network:short":"MDV","network:wikidata":"Q1742463","public_transport":"stop_position","railway":"tram_stop","ref":"0127","tram":"yes","wheelchair":"yes"}},{"type":"node","id":2066557084,"lat":51.3008068,"lon":12.4307788,"tags":{"name":"Franzosenallee","network":"Mitteldeutscher Verkehrsverbund","network:short":"MDV","network:wikidata":"Q1742463","operator":"Leipziger Verkehrsbetriebe","public_transport":"stop_position","railway":"tram_stop","ref":"0130","tram":"yes","wheelchair":"yes"}},{"type":"node","id":2066557091,"lat":51.2977986,"lon":12.4351038,"tags":{"name":"Roseggerstraße","network":"Mitteldeutscher Verkehrsverbund","network:short":"MDV","network:wikidata":"Q1742463","operator":"Leipziger Verkehrsbetriebe","public_transport":"stop_position","railway":"tram_stop","ref":"0131","tram":"yes","wheelchair":"yes"}},{"type":"node","id":2066557196,"lat":51.294134,"lon":12.4402925,"tags":{"name":"Meusdorf","network":"Mitteldeutscher Verkehrsverbund","network:short":"MDV","network:wikidata":"Q1742463","operator":"Leipziger Verkehrsbetriebe","public_transport":"stop_position","railway":"tram_stop","ref":"0132","tram":"yes","wheelchair":"yes"}},{"type":"node","id":2066557218,"lat":51.2944397,"lon":12.4400904,"tags":{"name":"Meusdorf","network":"Mitteldeutscher Verkehrsverbund","network:short":"MDV","network:wikidata":"Q1742463","operator":"Leipziger Verkehrsbetriebe","public_transport":"stop_position","railway":"tram_stop","ref":"0132","shelter":"yes","tram":"yes","wheelchair":"yes"}},{"type":"node","id":2066619131,"lat":51.3414503,"lon":12.3680283,"tags":{"name":"Gottschedstraße","network":"Mitteldeutscher Verkehrsverbund","network:short":"MDV","network:wikidata":"Q1742463","public_transport":"stop_position","railway":"tram_stop","ref":"0204","tram":"yes","wheelchair":"yes"}},{"type":"node","id":2066619142,"lat":51.3413503,"lon":12.3677395,"tags":{"name":"Gottschedstraße","network":"Mitteldeutscher Verkehrsverbund","network:short":"MDV","network:wikidata":"Q1742463","public_transport":"stop_position","railway":"tram_stop","ref":"0204","tram":"yes","wheelchair":"yes"}},{"type":"node","id":2068148777,"lat":51.3949047,"lon":12.3832536,"tags":{"name":"Georg-Herwegh-Straße","network":"Mitteldeutscher Verkehrsverbund","network:short":"MDV","network:wikidata":"Q1742463","operator":"Leipziger Verkehrsbetriebe","public_transport":"stop_position","railway":"tram_stop","ref":"0415","tram":"yes","wheelchair":"yes"}},{"type":"node","id":2068148799,"lat":51.3961665,"lon":12.38932,"tags":{"bin":"yes","name":"S-Bahnhof Messe","network":"MDV","public_transport":"stop_position","railway":"tram_stop","ref":"0416","ref_name":"Leipzig, S-Bahnhof Messe (Tram/Bus)","shelter":"yes","tactile_paving":"yes","tram":"yes","wheelchair":"yes"}},{"type":"node","id":2068148808,"lat":51.3934747,"lon":12.376509,"tags":{"name":"Wiederitzsch-Mitte","network":"Mitteldeutscher Verkehrsverbund","network:short":"MDV","network:wikidata":"Q1742463","operator":"Leipziger Verkehrsbetriebe","public_transport":"stop_position","railway":"tram_stop","ref":"0414","tram":"yes","wheelchair":"yes"}},{"type":"node","id":2068151107,"lat":51.3969628,"lon":12.3951581,"tags":{"name":"Messegelände","network":"MDV","public_transport":"stop_position","railway":"tram_stop","tram":"yes","wheelchair":"yes"}},{"type":"node","id":2068151111,"lat":51.3951511,"lon":12.3843388,"tags":{"name":"Georg-Herwegh-Straße","network":"Mitteldeutscher Verkehrsverbund","network:short":"MDV","network:wikidata":"Q1742463","operator":"Leipziger Verkehrsbetriebe","public_transport":"stop_position","railway":"tram_stop","ref":"0415","tram":"yes","wheelchair":"yes"}},{"type":"node","id":2068232572,"lat":51.3832901,"lon":12.381856,"tags":{"name":"Klinikum St. Georg","network":"Mitteldeutscher Verkehrsverbund","network:short":"MDV","network:wikidata":"Q1742463","operator":"Leipziger Verkehrsbetriebe","public_transport":"stop_position","railway":"tram_stop","ref":"0411","tactile_paving":"yes","tram":"yes","wheelchair":"yes"}},{"type":"node","id":2068232672,"lat":51.3798839,"lon":12.3843241,"tags":{"name":"Hornbach Baumarkt","network":"Mitteldeutscher Verkehrsverbund","network:short":"MDV","network:wikidata":"Q1742463","operator":"Leipziger Verkehrsbetriebe","public_transport":"stop_position","railway":"tram_stop","ref":"0410","tactile_paving":"yes","tram":"yes","wheelchair":"yes"}},{"type":"node","id":2068232678,"lat":51.3721487,"lon":12.3857212,"tags":{"name":"Mosenthinstraße","network":"Mitteldeutscher Verkehrsverbund","network:short":"MDV","network:wikidata":"Q1742463","operator":"Leipziger Verkehrsbetriebe","public_transport":"stop_position","railway":"tram_stop","ref":"0408","tactile_paving":"yes","tram":"yes","wheelchair":"yes"}},{"type":"node","id":2068232700,"lat":51.3680752,"lon":12.3859955,"tags":{"name":"Eutritzscher Markt","network":"Mitteldeutscher Verkehrsverbund","network:short":"MDV","network:wikidata":"Q1742463","operator":"Leipziger Verkehrsbetriebe","public_transport":"stop_position","railway":"tram_stop","ref":"0407","tram":"yes","wheelchair":"yes"}},{"type":"node","id":2068232725,"lat":51.3896239,"lon":12.3775222,"tags":{"name":"Dachauer Straße","network":"MDV","public_transport":"stop_position","railway":"tram_stop","ref":"0413","tram":"yes","wheelchair":"yes"}},{"type":"node","id":2068232750,"lat":51.3755728,"lon":12.3854083,"tags":{"name":"Delitzscher/Essener Straße","network":"Mitteldeutscher Verkehrsverbund","operator":"Leipziger Verkehrsbetriebe","public_transport":"stop_position","railway":"tram_stop","ref":"0409","tactile_paving":"yes","tram":"yes","wheelchair":"yes"}},{"type":"node","id":2068250539,"lat":51.3646884,"lon":12.3842305,"tags":{"name":"Eutritzscher Zentrum","network":"Mitteldeutscher Verkehrsverbund","operator":"Leipziger Verkehrsbetriebe","public_transport":"stop_position","railway":"tram_stop","ref":"0396","tactile_paving":"yes","tram":"yes","wheelchair":"yes"}},{"type":"node","id":2068250559,"lat":51.3613071,"lon":12.3809478,"tags":{"name":"Wilhelminenstraße","network":"Mitteldeutscher Verkehrsverbund","network:short":"MDV","network:wikidata":"Q1742463","operator":"Leipziger Verkehrsbetriebe","public_transport":"stop_position","railway":"tram_stop","ref":"0405","tram":"yes","wheelchair":"yes"}},{"type":"node","id":2068250638,"lat":51.3563739,"lon":12.3768192,"tags":{"name":"Chausseehaus","network":"Mitteldeutscher Verkehrsverbund","network:short":"MDV","network:wikidata":"Q1742463","public_transport":"stop_position","railway":"tram_stop","ref":"0364","tram":"yes","wheelchair":"yes"}},{"type":"node","id":2068337645,"lat":51.3436577,"lon":12.3210669,"tags":{"name":"Diakonissenhaus","network":"Mitteldeutscher Verkehrsverbund","network:short":"MDV","network:wikidata":"Q1742463","operator":"Leipziger Verkehrsbetriebe","public_transport":"stop_position","railway":"tram_stop","tactile_paving":"yes","tram":"yes"}},{"type":"node","id":2068337701,"lat":51.3381959,"lon":12.3273344,"tags":{"name":"Georg-Schwarz-/Merseburger Straße","network":"Mitteldeutscher Verkehrsverbund","network:short":"MDV","network:wikidata":"Q1742463","operator":"Leipziger Verkehrsbetriebe","public_transport":"stop_position","railway":"tram_stop","ref":"0309","tactile_paving":"no","tram":"yes","wheelchair":"no"}},{"type":"node","id":2068337720,"lat":51.3414444,"lon":12.3241227,"tags":{"name":"Wielandstraße","network":"Mitteldeutscher Verkehrsverbund","network:short":"MDV","network:wikidata":"Q1742463","public_transport":"stop_position","railway":"tram_stop","ref":"0311","tram":"yes","wheelchair":"no"}},{"type":"node","id":2068337754,"lat":51.3461781,"lon":12.3172456,"tags":{"description":"neue Haltestelle ab 25.11.2024","name":"Am langen Felde","network":"Mitteldeutscher Verkehrsverbund","network:short":"MDV","network:wikidata":"Q1742463","operator":"Leipziger Verkehrsbetriebe","public_transport":"stop_position","railway":"tram_stop","tactile_paving":"no","tram":"yes"}},{"type":"node","id":2068337778,"lat":51.3414574,"lon":12.3240506,"tags":{"name":"Wielandstraße","network":"Mitteldeutscher Verkehrsverbund","network:short":"MDV","network:wikidata":"Q1742463","public_transport":"stop_position","railway":"tram_stop","ref":"0311","tram":"yes","wheelchair":"no"}},{"type":"node","id":2068369571,"lat":51.3474694,"lon":12.3143122,"tags":{"name":"Rathaus Leutzsch","network":"Mitteldeutscher Verkehrsverbund","network:short":"MDV","network:wikidata":"Q1742463","public_transport":"stop_position","railway":"tram_stop","ref":"0313","tram":"yes","wheelchair":"no"}},{"type":"node","id":2068369631,"lat":51.3476515,"lon":12.3138441,"tags":{"name":"Rathaus Leutzsch","network":"Mitteldeutscher Verkehrsverbund","network:short":"MDV","network:wikidata":"Q1742463","public_transport":"stop_position","railway":"tram_stop","ref":"0313","tram":"yes","wheelchair":"no"}},{"type":"node","id":2068369687,"lat":51.3493984,"lon":12.3101178,"tags":{"name":"Pfingstweide","network":"Mitteldeutscher Verkehrsverbund","network:short":"MDV","network:wikidata":"Q1742463","operator":"Leipziger Verkehrsbetriebe","public_transport":"stop_position","railway":"tram_stop","tactile_paving":"yes","tram":"yes","wheelchair":"yes"}},{"type":"node","id":2068384378,"lat":51.3514653,"lon":12.3061872,"tags":{"name":"Philipp-Reis-Straße","network":"Mitteldeutscher Verkehrsverbund","network:short":"MDV","network:wikidata":"Q1742463","operator":"Leipziger Verkehrsbetriebe","public_transport":"stop_position","railway":"tram_stop","ref":"0325","tactile_paving":"yes","tram":"yes","wheelchair":"yes"}},{"type":"node","id":2068384429,"lat":51.3515811,"lon":12.3060345,"tags":{"name":"Philipp-Reis-Straße","network":"Mitteldeutscher Verkehrsverbund","operator":"Leipziger Verkehrsbetriebe","public_transport":"stop_position","railway":"tram_stop","ref":"0325","tactile_paving":"yes","tram":"yes","wheelchair":"yes"}},{"type":"node","id":2068488377,"lat":51.3316048,"lon":12.3188657,"tags":{"name":"Lindenau, Bushof","network":"Mitteldeutscher Verkehrsverbund","network:short":"MDV","network:wikidata":"Q1742463","operator":"Leipziger Verkehrsbetriebe","public_transport":"stop_position","railway":"tram_stop","ref":"0281","tactile_paving":"yes","tram":"yes","wheelchair":"yes"}},{"type":"node","id":2068488400,"lat":51.3357357,"lon":12.3304358,"tags":{"bus":"yes","highway":"bus_stop","name":"Lützner/Merseburger Straße","network":"Mitteldeutscher Verkehrsverbund","network:short":"MDV","network:wikidata":"Q1742463","public_transport":"stop_position","railway":"tram_stop","ref":"0279","tram":"yes","wheelchair":"yes"}},{"type":"node","id":2068488430,"lat":51.3337983,"lon":12.324738,"tags":{"name":"Henriettenstraße","network":"Mitteldeutscher Verkehrsverbund","network:short":"MDV","network:wikidata":"Q1742463","operator":"Leipziger Verkehrsbetriebe","public_transport":"stop_position","railway":"tram_stop","ref":"0280","tactile_paving":"yes","tram":"yes","wheelchair":"yes"}},{"type":"node","id":2068488493,"lat":51.3336544,"lon":12.3243679,"tags":{"name":"Henriettenstraße","network":"Mitteldeutscher Verkehrsverbund","network:short":"MDV","network:wikidata":"Q1742463","operator":"Leipziger Verkehrsbetriebe","public_transport":"stop_position","railway":"tram_stop","ref":"0280","tactile_paving":"yes","tram":"yes","wheelchair":"yes"}},{"type":"node","id":2068491931,"lat":51.335641,"lon":12.3298282,"tags":{"name":"Lützner/Merseburger Straße","network":"Mitteldeutscher Verkehrsverbund","network:short":"MDV","network:wikidata":"Q1742463","operator":"Leipziger Verkehrsbetriebe","public_transport":"stop_position","railway":"tram_stop","ref":"0279","tactile_paving":"yes","tram":"yes","wheelchair":"yes"}},{"type":"node","id":2074580936,"lat":51.3156084,"lon":12.3733905,"tags":{"name":"Richard-Lehmann-Straße, HTWK","network":"Mitteldeutscher Verkehrsverbund","network:short":"MDV","network:wikidata":"Q1742463","operator":"LVB","public_transport":"stop_position","railway":"tram_stop","ref":"0171","tram":"yes","wheelchair":"yes"}},{"type":"node","id":2074612814,"lat":51.3111216,"lon":12.3732017,"tags":{"bus":"yes","name":"Connewitzer Kreuz","network":"Mitteldeutscher Verkehrsverbund","network:short":"MDV","network:wikidata":"Q1742463","operator":"Leipziger Verkehrsbetriebe","public_transport":"stop_position","railway":"tram_stop","ref":"0172","shelter":"yes","tactile_paving":"yes","tram":"yes","wheelchair":"yes"}},{"type":"node","id":2074612835,"lat":51.3117818,"lon":12.3732653,"tags":{"bus":"yes","highway":"bus_stop","name":"Connewitzer Kreuz","network":"Mitteldeutscher Verkehrsverbund","network:short":"MDV","network:wikidata":"Q1742463","public_transport":"stop_position","railway":"tram_stop","ref":"0172","shelter":"yes","tram":"yes","wheelchair":"yes"}},{"type":"node","id":2074633037,"lat":51.309536,"lon":12.3963296,"tags":{"name":"Triftweg","network":"Mitteldeutscher Verkehrsverbund","network:short":"MDV","network:wikidata":"Q1742463","public_transport":"stop_position","railway":"tram_stop","ref":"0156","tram":"yes","wheelchair":"yes"}},{"type":"node","id":2074633051,"lat":51.300975,"lon":12.3963116,"tags":{"name":"Moritz Hof","network":"Mitteldeutscher Verkehrsverbund","network:short":"MDV","network:wikidata":"Q1742463","operator":"Leipziger Verkehrsbetriebe","public_transport":"stop_position","railway":"tram_stop","ref":"0158","tram":"yes","wheelchair":"yes"}},{"type":"node","id":2074633058,"lat":51.3059981,"lon":12.3963855,"tags":{"name":"An der Märchenwiese","network":"Mitteldeutscher Verkehrsverbund","network:short":"MDV","network:wikidata":"Q1742463","operator":"Leipziger Verkehrsbetriebe","public_transport":"stop_position","railway":"tram_stop","ref":"0157","tram":"yes","wheelchair":"yes"}},{"type":"node","id":2078549432,"lat":51.3141758,"lon":12.394506,"tags":{"name":"Richard-Lehmann-/Zwickauer Straße","network":"Mitteldeutscher Verkehrsverbund","network:short":"MDV","network:wikidata":"Q1742463","operator":"Leipziger Verkehrsbetriebe","public_transport":"stop_position","railway":"tram_stop","ref":"0144","tram":"yes","wheelchair":"yes"}},{"type":"node","id":2078549489,"lat":51.3182862,"lon":12.3948477,"tags":{"name":"An den Tierkliniken","network":"Mitteldeutscher Verkehrsverbund","network:short":"MDV","network:wikidata":"Q1742463","operator":"Leipziger Verkehrsbetriebe","public_transport":"stop_position","railway":"tram_stop","ref":"0155","tram":"yes","wheelchair":"yes"}},{"type":"node","id":2084992409,"lat":51.3755573,"lon":12.3785732,"tags":{"name":"Gohlis-Nord","network":"Mitteldeutscher Verkehrsverbund","network:short":"MDV","network:wikidata":"Q1742463","operator":"Leipziger Verkehrsbetriebe","public_transport":"stop_position","railway":"tram_stop","ref":"0361","tram":"yes","wheelchair":"no"}},{"type":"node","id":2084992462,"lat":51.3691118,"lon":12.3765047,"tags":{"name":"Gottschallstraße","network":"Mitteldeutscher Verkehrsverbund (MDV)","operator":"Leipziger Verkehrsbetriebe","public_transport":"stop_position","railway":"tram_stop","ref":"0360","shelter":"yes","tram":"yes","wheelchair":"no"}},{"type":"node","id":2085017497,"lat":51.3548499,"lon":12.3712425,"tags":{"bus":"yes","name":"Springerstraße","network":"Mitteldeutscher Verkehrsverbund","network:short":"MDV","network:wikidata":"Q1742463","operator":"Leipziger Verkehrsbetriebe","public_transport":"stop_position","railway":"tram_stop","tram":"yes","wheelchair":"no"}},{"type":"node","id":2085017517,"lat":51.3615397,"lon":12.3708877,"tags":{"name":"Georg-Schumann-/Lützowstraße","network":"Mitteldeutscher Verkehrsverbund (MDV)","operator":"Leipziger Verkehrsbetriebe","public_transport":"stop_position","railway":"tram_stop","ref":"0358","tram":"yes","wheelchair":"no"}},{"type":"node","id":2085017525,"lat":51.361044,"lon":12.3703637,"tags":{"bus":"yes","name":"Georg-Schumann-/Lützowstraße","network":"Mitteldeutscher Verkehrsverbund (MDV)","operator":"Leipziger Verkehrsbetriebe","public_transport":"stop_position","railway":"tram_stop","ref":"0358","tram":"yes","wheelchair":"no"}},{"type":"node","id":2085017526,"lat":51.3568014,"lon":12.3690298,"tags":{"name":"Fritz-Seger-Straße","network":"Mitteldeutscher Verkehrsverbund","network:short":"MDV","network:wikidata":"Q1742463","operator":"Leipziger Verkehrsbetriebe","public_transport":"stop_position","railway":"tram_stop","ref":"0357","tram":"yes","wheelchair":"no"}},{"type":"node","id":2085017527,"lat":51.3548347,"lon":12.3712077,"tags":{"name":"Springerstraße","network":"Mitteldeutscher Verkehrsverbund","network:short":"MDV","network:wikidata":"Q1742463","operator":"Leipziger Verkehrsbetriebe","public_transport":"stop_position","railway":"tram_stop","tram":"yes","wheelchair":"no"}},{"type":"node","id":2085017546,"lat":51.3634359,"lon":12.3740006,"tags":{"name":"S-Bahnhof Gohlis","network":"Mitteldeutscher Verkehrsverbund (MDV)","operator":"Leipziger Verkehrsbetriebe","public_transport":"stop_position","railway":"tram_stop","ref":"0359","tram":"yes","wheelchair":"yes"}},{"type":"node","id":2085017549,"lat":51.3570269,"lon":12.3688732,"tags":{"bus":"yes","name":"Fritz-Seger-Straße","network":"Mitteldeutscher Verkehrsverbund (MDV)","operator":"Leipziger Verkehrsbetriebe","public_transport":"stop_position","railway":"tram_stop","ref":"0357","tram":"yes","wheelchair":"no"}},{"type":"node","id":2085017586,"lat":51.3633086,"lon":12.3737546,"tags":{"name":"S-Bahnhof Gohlis","network":"Mitteldeutscher Verkehrsverbund (MDV)","operator":"Leipziger Verkehrsbetriebe","public_transport":"stop_position","railway":"tram_stop","ref":"0359","tram":"yes","wheelchair":"yes"}},{"type":"node","id":2085021358,"lat":51.3523428,"lon":12.3734446,"tags":{"name":"Nordplatz","network":"Mitteldeutscher Verkehrsverbund (MDV)","operator":"Leipziger Verkehrsbetriebe","public_transport":"stop_position","railway":"tram_stop","ref":"0356","tram":"yes","wheelchair":"no"}},{"type":"node","id":2085021362,"lat":51.3526167,"lon":12.3733736,"tags":{"name":"Nordplatz","network":"Mitteldeutscher Verkehrsverbund (MDV)","operator":"Leipziger Verkehrsbetriebe","public_transport":"stop_position","railway":"tram_stop","ref":"0356","tram":"yes","wheelchair":"no"}},{"type":"node","id":2085029089,"lat":51.3486303,"lon":12.37171,"tags":{"name":"Zoo","network":"Mitteldeutscher Verkehrsverbund","network:short":"MDV","network:wikidata":"Q1742463","operator":"LVB","public_transport":"stop_position","railway":"tram_stop","ref":"0355","tram":"yes","wheelchair":"yes"}},{"type":"node","id":2085029109,"lat":51.3484977,"lon":12.371569,"tags":{"name":"Zoo","network":"Mitteldeutscher Verkehrsverbund","network:short":"MDV","network:wikidata":"Q1742463","operator":"LVB","public_transport":"stop_position","railway":"tram_stop","ref":"0355","tram":"yes","wheelchair":"yes"}},{"type":"node","id":2085035766,"lat":51.3452482,"lon":12.3715246,"tags":{"name":"Lortzingstraße","network":"Mitteldeutscher Verkehrsverbund","network:short":"MDV","network:wikidata":"Q1742463","operator":"LVB","public_transport":"stop_position","railway":"tram_stop","ref":"0354","tram":"yes","wheelchair":"no"}},{"type":"node","id":2085035770,"lat":51.3452509,"lon":12.371561,"tags":{"name":"Lortzingstraße","network":"Mitteldeutscher Verkehrsverbund","network:short":"MDV","network:wikidata":"Q1742463","operator":"LVB","public_transport":"stop_position","railway":"tram_stop","ref":"0354","tram":"yes","wheelchair":"no"}},{"type":"node","id":2099772000,"lat":51.3083203,"lon":12.3770429,"tags":{"name":"Stockartstraße","network":"Mitteldeutscher Verkehrsverbund","network:short":"MDV","network:wikidata":"Q1742463","operator":"LVB","public_transport":"stop_position","railway":"tram_stop","ref":"0173","survey:date":"2020-02-28","tram":"yes","wheelchair":"no"}},{"type":"node","id":2099772008,"lat":51.3081668,"lon":12.3773754,"tags":{"name":"Stockartstraße","network":"Mitteldeutscher Verkehrsverbund","network:short":"MDV","network:wikidata":"Q1742463","operator":"Leipziger Verkehrsbetriebe","public_transport":"stop_position","railway":"tram_stop","ref":"0173","survey:date":"2020-02-28","tactile_paving":"yes","tram":"yes","wheelchair":"no"}},{"type":"node","id":2099786489,"lat":51.301565,"lon":12.3839752,"tags":{"name":"S-Bahnhof Connewitz","network":"Mitteldeutscher Verkehrsverbund","network:short":"MDV","network:wikidata":"Q1742463","operator":"Leipziger Verkehrsbetriebe","public_transport":"stop_position","railway":"tram_stop","ref":"0175","ref_name":"Leipzig, S-Bahnhof Connewitz (Tram/Bus)","tactile_paving":"yes","tram":"yes","wheelchair":"yes"}},{"type":"node","id":2099786495,"lat":51.3049702,"lon":12.3816793,"tags":{"name":"Hildebrandstraße","network":"Mitteldeutscher Verkehrsverbund","network:short":"MDV","network:wikidata":"Q1742463","operator":"Leipziger Verkehrsbetriebe","public_transport":"stop_position","railway":"tram_stop","ref":"0174","tactile_paving":"yes","tram":"yes","wheelchair":"yes"}},{"type":"node","id":2099786545,"lat":51.3046571,"lon":12.381765,"tags":{"name":"Hildebrandstraße","network":"Mitteldeutscher Verkehrsverbund","network:short":"MDV","network:wikidata":"Q1742463","operator":"Leipziger Verkehrsbetriebe","public_transport":"stop_position","railway":"tram_stop","ref":"0174","tactile_paving":"yes","tram":"yes","wheelchair":"yes"}},{"type":"node","id":2099803613,"lat":51.2953086,"lon":12.3862126,"tags":{"name":"Raschwitzer Straße","network":"Mitteldeutscher Verkehrsverbund","network:short":"MDV","network:wikidata":"Q1742463","operator":"Leipziger Verkehrsbetriebe","public_transport":"stop_position","railway":"tram_stop","ref":"0176","ref_name":"Leipzig, Raschwitzer Str.","tactile_paving":"yes","tram":"yes","wheelchair":"yes"}},{"type":"node","id":2099803617,"lat":51.295445,"lon":12.3862094,"tags":{"name":"Raschwitzer Straße","network":"Mitteldeutscher Verkehrsverbund","network:short":"MDV","network:wikidata":"Q1742463","operator":"Leipziger Verkehrsbetriebe","public_transport":"stop_position","railway":"tram_stop","ref":"0176","ref_name":"Leipzig, Raschwitzer Str.","tactile_paving":"yes","tram":"yes","wheelchair":"yes"}},{"type":"node","id":2099803627,"lat":51.2907269,"lon":12.390463,"tags":{"name":"Friederikenstraße","network":"Mitteldeutscher Verkehrsverbund","network:short":"MDV","network:wikidata":"Q1742463","operator":"Leipziger Verkehrsbetriebe","public_transport":"stop_position","railway":"tram_stop","ref":"0177","ref_name":"Leipzig, Friederikenstr.","tram":"yes","wheelchair":"yes"}},{"type":"node","id":2099803640,"lat":51.2904279,"lon":12.3905824,"tags":{"name":"Friederikenstraße","network":"Mitteldeutscher Verkehrsverbund","network:short":"MDV","network:wikidata":"Q1742463","operator":"Leipziger Verkehrsbetriebe","public_transport":"stop_position","railway":"tram_stop","ref":"0177","ref_name":"Leipzig, Friederikenstr.","tactile_paving":"yes","tram":"yes","wheelchair":"yes"}},{"type":"node","id":2099810750,"lat":51.285374,"lon":12.3941382,"tags":{"name":"Dölitz, Straßenbahnhof","network":"Mitteldeutscher Verkehrsverbund","network:short":"MDV","network:wikidata":"Q1742463","operator":"Leipziger Verkehrsbetriebe","public_transport":"stop_position","railway":"tram_stop","ref":"0179","ref_name":"Leipzig, Dölitz, Straßenbahnhof","tactile_paving":"yes","tram":"yes","wheelchair":"yes"}},{"type":"node","id":2099810762,"lat":51.2866903,"lon":12.3929972,"tags":{"name":"Leinestraße","network":"Mitteldeutscher Verkehrsverbund","network:short":"MDV","network:wikidata":"Q1742463","operator":"Leipziger Verkehrsbetriebe","public_transport":"stop_position","railway":"tram_stop","ref":"0178","ref_name":"Leipzig, Leinestraße","tactile_paving":"yes","tram":"yes","wheelchair":"yes"}},{"type":"node","id":2099810764,"lat":51.2870411,"lon":12.392789,"tags":{"name":"Leinestraße","network":"Mitteldeutscher Verkehrsverbund","network:short":"MDV","network:wikidata":"Q1742463","operator":"Leipziger Verkehrsbetriebe","public_transport":"stop_position","railway":"tram_stop","ref":"0178","ref_name":"Leipzig, Leinestraße","tactile_paving":"yes","tram":"yes","wheelchair":"yes"}},{"type":"node","id":2099818062,"lat":51.2832521,"lon":12.3951533,"tags":{"name":"Am Eichwinkel","network":"Mitteldeutscher Verkehrsverbund","network:short":"MDV","network:wikidata":"Q1742463","public_transport":"stop_position","railway":"tram_stop","ref":"0180","ref_name":"Leipzig, Am Eichwinkel","tram":"yes","wheelchair":"no"}},{"type":"node","id":2099826410,"lat":51.3096233,"lon":12.3781167,"tags":{"description":"neue Haltestelle \"Wiedebachplatz\"; Inbetriebnahme voraussichtlich November 2023","lit":"yes","name":"Wiedebachplatz","network":"Mitteldeutscher Verkehrsverbund","network:short":"MDV","network:wikidata":"Q1742463","operator":"Leipziger Verkehrsbetriebe","proposed:railway":"tram_stop","public_transport":"stop_position","railway":"tram_stop","tactile_paving":"yes","tram":"yes"}},{"type":"node","id":2099844086,"lat":51.3093066,"lon":12.3867819,"tags":{"name":"Meusdorfer Straße","network":"Mitteldeutscher Verkehrsverbund","network:short":"MDV","network:wikidata":"Q1742463","public_transport":"stop_position","railway":"tram_stop","ref":"0154","tram":"yes","wheelchair":"no"}},{"type":"node","id":2099844088,"lat":51.3093427,"lon":12.3867886,"tags":{"name":"Meusdorfer Straße","network":"Mitteldeutscher Verkehrsverbund","network:short":"MDV","network:wikidata":"Q1742463","public_transport":"stop_position","railway":"tram_stop","ref":"0154","tram":"yes","wheelchair":"no"}},{"type":"node","id":2100235736,"lat":51.3244548,"lon":12.3735795,"tags":{"name":"Südplatz","network":"Mitteldeutscher Verkehrsverbund","network:short":"MDV","network:wikidata":"Q1742463","public_transport":"stop_position","railway":"tram_stop","ref":"0169","tram":"yes","wheelchair":"yes"}},{"type":"node","id":2100407971,"lat":51.3173945,"lon":12.3783948,"tags":{"name":"Steinplatz","network":"Mitteldeutscher Verkehrsverbund","network:short":"MDV","network:wikidata":"Q1742463","operator":"Leipziger Verkehrsbetriebe","public_transport":"stop_position","railway":"tram_stop","ref":"0167","tactile_paving":"no","tram":"yes","wheelchair":"no"}},{"type":"node","id":2100489260,"lat":51.3451242,"lon":12.4133965,"tags":{"name":"Torgauer Platz","name:ja":"トアガウアー広場","network":"Mitteldeutscher Verkehrsverbund","network:short":"MDV","network:wikidata":"Q1742463","public_transport":"stop_position","railway":"tram_stop","ref":"0049","tram":"yes","wheelchair":"yes"}},{"type":"node","id":2100489263,"lat":51.345538,"lon":12.4054062,"tags":{"name":"Hermann-Liebmann-/Eisenbahnstraße","network":"Mitteldeutscher Verkehrsverbund","network:short":"MDV","network:wikidata":"Q1742463","operator":"Leipziger Verkehrsbetriebe","public_transport":"stop_position","railway":"tram_stop","ref":"0033","tram":"yes","wheelchair":"yes"}},{"type":"node","id":2100489280,"lat":51.3457254,"lon":12.4059221,"tags":{"bus":"yes","highway":"bus_stop","name":"Hermann-Liebmann-/Eisenbahnstraße","network":"Mitteldeutscher Verkehrsverbund","network:short":"MDV","network:wikidata":"Q1742463","operator":"Leipziger Verkehrsbetriebe","public_transport":"stop_position","railway":"tram_stop","ref":"0034","tram":"yes","wheelchair":"no"}},{"type":"node","id":2100506646,"lat":51.3450647,"lon":12.415105,"tags":{"name":"Torgauer Platz","network":"Mitteldeutscher Verkehrsverbund","network:short":"MDV","network:wikidata":"Q1742463","public_transport":"stop_position","railway":"tram_stop","ref":"0049","tram":"yes","wheelchair":"no"}},{"type":"node","id":2100536031,"lat":51.3426103,"lon":12.4134639,"tags":{"name":"Edlichstraße","network":"Mitteldeutscher Verkehrsverbund","network:short":"MDV","network:wikidata":"Q1742463","public_transport":"stop_position","railway":"tram_stop","ref":"0074","shelter":"yes","tram":"yes","wheelchair":"no"}},{"type":"node","id":2100536091,"lat":51.3437322,"lon":12.4221315,"tags":{"name":"Annenstraße","name:ja":"アネン通り","network":"Mitteldeutscher Verkehrsverbund","network:short":"MDV","network:wikidata":"Q1742463","public_transport":"stop_position","railway":"tram_stop","ref":"0078","tram":"yes","wheelchair":"no"}},{"type":"node","id":2100536101,"lat":51.3436662,"lon":12.4213638,"tags":{"name":"Annenstraße","network":"Mitteldeutscher Verkehrsverbund","network:short":"MDV","network:wikidata":"Q1742463","public_transport":"stop_position","railway":"tram_stop","ref":"0078","tram":"yes","wheelchair":"no"}},{"type":"node","id":2100579576,"lat":51.3447433,"lon":12.3935599,"tags":{"description":"nur bei Umleitungen","name":"Friedrich-List-Platz","network":"Mitteldeutscher Verkehrsverbund","network:short":"MDV","network:wikidata":"Q1742463","operator":"Leipziger Verkehrsbetriebe","public_transport":"stop_position","railway":"tram_stop","tactile_paving":"no","tram":"yes"}},{"type":"node","id":2100673010,"lat":51.3509083,"lon":12.406357,"tags":{"local_ref":"0035","name":"Stannebeinplatz","network":"Mitteldeutscher Verkehrsverbund","network:short":"MDV","network:wikidata":"Q1742463","operator":"Leipziger Verkehrsbetriebe","public_transport":"stop_position","railway":"tram_stop","tactile_paving":"yes","tram":"yes","wheelchair":"yes"}},{"type":"node","id":2100673012,"lat":51.353827,"lon":12.4116168,"tags":{"local_ref":"0036","name":"Stöckelstraße","network":"Mitteldeutscher Verkehrsverbund","network:short":"MDV","network:wikidata":"Q1742463","public_transport":"stop_position","railway":"tram_stop","tram":"yes","wheelchair":"no"}},{"type":"node","id":2100673015,"lat":51.3538192,"lon":12.4116531,"tags":{"local_ref":"0036","name":"Stöckelstraße","network":"Mitteldeutscher Verkehrsverbund","network:short":"MDV","network:wikidata":"Q1742463","public_transport":"stop_position","railway":"tram_stop","tram":"yes","wheelchair":"no"}},{"type":"node","id":2100673018,"lat":51.3511339,"lon":12.4071874,"tags":{"local_ref":"0035","name":"Stannebeinplatz","network":"Mitteldeutscher Verkehrsverbund","network:short":"MDV","network:wikidata":"Q1742463","public_transport":"stop_position","railway":"tram_stop","tram":"yes","wheelchair":"yes"}},{"type":"node","id":2100685004,"lat":51.3596698,"lon":12.4115423,"tags":{"name":"Rathaus Schönefeld","network":"Mitteldeutscher Verkehrsverbund","network:short":"MDV","network:wikidata":"Q1742463","operator":"Leipziger Verkehrsbetriebe","public_transport":"stop_position","railway":"tram_stop","ref":"0040","tram":"yes","wheelchair":"yes"}},{"type":"node","id":2100685035,"lat":51.3593327,"lon":12.4154616,"tags":{"name":"Ossietzky-/Gorkistraße","network":"Mitteldeutscher Verkehrsverbund","network:short":"MDV","network:wikidata":"Q1742463","operator":"Leipziger Verkehrsbetriebe","public_transport":"stop_position","railway":"tram_stop","ref":"0039","tram":"yes","wheelchair":"yes"}},{"type":"node","id":2100685062,"lat":51.3593368,"lon":12.4162843,"tags":{"name":"Ossietzky-/Gorkistraße","network":"Mitteldeutscher Verkehrsverbund","network:short":"MDV","network:wikidata":"Q1742463","operator":"Leipziger Verkehrsbetriebe","public_transport":"stop_position","railway":"tram_stop","ref":"0038","tram":"yes","wheelchair":"yes"}},{"type":"node","id":2100685074,"lat":51.3597055,"lon":12.4106616,"tags":{"name":"Rathaus Schönefeld","network":"Mitteldeutscher Verkehrsverbund","network:short":"MDV","network:wikidata":"Q1742463","operator":"Leipziger Verkehrsbetriebe","public_transport":"stop_position","railway":"tram_stop","ref":"0040","tram":"yes","wheelchair":"yes"}},{"type":"node","id":2100693221,"lat":51.3650326,"lon":12.4027116,"tags":{"name":"Mockauer/Volbedingstraße","network":"Mitteldeutscher Verkehrsverbund","network:short":"MDV","network:wikidata":"Q1742463","public_transport":"stop_position","railway":"tram_stop","ref":"0017","tram":"yes","wheelchair":"limited"}},{"type":"node","id":2100695664,"lat":51.3689426,"lon":12.4065748,"tags":{"name":"Friedrichshafner Straße","network":"Mitteldeutscher Verkehrsverbund","network:short":"MDV","network:wikidata":"Q1742463","public_transport":"stop_position","railway":"tram_stop","ref":"0021","tram":"yes","wheelchair":"no"}},{"type":"node","id":2100695670,"lat":51.3680536,"lon":12.4057654,"tags":{"name":"Friedrichshafner Straße","network":"Mitteldeutscher Verkehrsverbund","network:short":"MDV","network:wikidata":"Q1742463","public_transport":"stop_position","railway":"tram_stop","ref":"0021","tram":"yes","wheelchair":"no"}},{"type":"node","id":2100696659,"lat":51.374936,"lon":12.4131796,"tags":{"bus":"yes","name":"Mockau, Post","network":"Mitteldeutscher Verkehrsverbund","network:short":"MDV","network:wikidata":"Q1742463","operator":"Leipziger Verkehrsbetriebe","public_transport":"stop_position","railway":"tram_stop","ref":"0023","tram":"yes","wheelchair":"yes"}},{"type":"node","id":2100699018,"lat":51.3757153,"lon":12.4183449,"tags":{"name":"Samuel-Lampel-Straße","network":"Mitteldeutscher Verkehrsverbund","network:short":"MDV","network:wikidata":"Q1742463","operator":"Leipziger Verkehrsbetriebe","public_transport":"stop_position","railway":"tram_stop","ref":"0024","tactile_paving":"no","tram":"yes","wheelchair":"no"}},{"type":"node","id":2100701048,"lat":51.3770832,"lon":12.4207881,"tags":{"name":"Mockau, Kirche","network":"Mitteldeutscher Verkehrsverbund","network:short":"MDV","network:wikidata":"Q1742463","operator":"Leipziger Verkehrsbetriebe","public_transport":"stop_position","railway":"tram_stop","ref":"0025","tram":"yes","wheelchair":"no"}},{"type":"node","id":2100701081,"lat":51.3770757,"lon":12.4208231,"tags":{"name":"Mockau, Kirche","network":"Mitteldeutscher Verkehrsverbund","network:short":"MDV","network:wikidata":"Q1742463","operator":"Leipziger Verkehrsbetriebe","public_transport":"stop_position","railway":"tram_stop","ref":"0025","tram":"yes","wheelchair":"no"}},{"type":"node","id":2101326071,"lat":51.3437203,"lon":12.4276988,"tags":{"name":"Sellerhausen, Emmausstraße","network":"Mitteldeutscher Verkehrsverbund","network:short":"MDV","network:wikidata":"Q1742463","operator":"Leipziger Verkehrsbetriebe","public_transport":"stop_position","railway":"tram_stop","ref":"0079","source":"Tram 7, Tram 8","tram":"yes","wheelchair":"no"}},{"type":"node","id":2101326084,"lat":51.3438907,"lon":12.4283522,"tags":{"name":"Sellerhausen, Emmausstraße","network":"Mitteldeutscher Verkehrsverbund","network:short":"MDV","network:wikidata":"Q1742463","operator":"Leipziger Verkehrsbetriebe","public_transport":"stop_position","railway":"tram_stop","ref":"0079","tram":"yes","wheelchair":"no"}},{"type":"node","id":2101332009,"lat":51.3456332,"lon":12.4374553,"tags":{"name":"Ostheimstraße","network":"Mitteldeutscher Verkehrsverbund","network:short":"MDV","network:wikidata":"Q1742463","operator":"Leipziger Verkehrsbetriebe","public_transport":"stop_position","railway":"tram_stop","ref":"0080","shelter":"yes","tram":"yes"}},{"type":"node","id":2101332033,"lat":51.3456732,"lon":12.4374509,"tags":{"name":"Ostheimstraße","network":"Mitteldeutscher Verkehrsverbund","network:short":"MDV","network:wikidata":"Q1742463","operator":"Leipziger Verkehrsbetriebe","public_transport":"stop_position","railway":"tram_stop","ref":"0080","shelter":"yes","tram":"yes"}},{"type":"node","id":2101341615,"lat":51.3455106,"lon":12.4513918,"tags":{"name":"Barbarastraße","network":"Mitteldeutscher Verkehrsverbund","network:short":"MDV","network:wikidata":"Q1742463","public_transport":"stop_position","railway":"tram_stop","ref":"0082","tram":"yes","wheelchair":"no"}},{"type":"node","id":2101341630,"lat":51.3455586,"lon":12.449517,"tags":{"name":"Barbarastraße","network":"Mitteldeutscher Verkehrsverbund","network:short":"MDV","network:wikidata":"Q1742463","public_transport":"stop_position","railway":"tram_stop","ref":"0082","tram":"yes","wheelchair":"no"}},{"type":"node","id":2101378172,"lat":51.3520517,"lon":12.4587086,"tags":{"name":"Am Vorwerk","network":"Mitteldeutscher Verkehrsverbund","network:short":"MDV","network:wikidata":"Q1742463","operator":"Leipziger Verkehrsbetriebe","public_transport":"stop_position","railway":"tram_stop","ref":"0085","tram":"yes","wheelchair":"yes"}},{"type":"node","id":2101378175,"lat":51.3460696,"lon":12.4579324,"tags":{"name":"Paunsdorf, Straßenbahnhof","network":"Mitteldeutscher Verkehrsverbund","network:short":"MDV","network:wikidata":"Q1742463","operator":"Leipziger Verkehrsbetriebe","public_transport":"stop_position","railway":"tram_stop","ref":"Leipziger Transport und Logistik Betriebe GmbH","tram":"yes","wheelchair":"yes"}},{"type":"node","id":2101400448,"lat":51.3513999,"lon":12.4792003,"tags":{"name":"Paunsdorfer Allee/Permoserstraße","network":"Mitteldeutscher Verkehrsverbund","network:short":"MDV","network:wikidata":"Q1742463","public_transport":"stop_position","railway":"tram_stop","ref":"0090","tram":"yes"}},{"type":"node","id":2130723901,"lat":51.3361118,"lon":12.3710347,"tags":{"bus":"yes","name":"Neues Rathaus","name:ja":"ノイエス・ラートハウス","network":"Mitteldeutscher Verkehrsverbund","network:short":"MDV","network:wikidata":"Q1742463","network:wikipedia":"de:Mitteldeutscher Verkehrsverbund","operator":"Leipziger Verkehrsbetriebe","public_transport":"stop_position","railway":"tram_stop","ref":"0005","tram":"yes","wheelchair":"yes"}},{"type":"node","id":2130723903,"lat":51.3350757,"lon":12.3703328,"tags":{"bus":"yes","name":"Neues Rathaus","network":"Mitteldeutscher Verkehrsverbund","network:short":"MDV","network:wikidata":"Q1742463","network:wikipedia":"de:Mitteldeutscher Verkehrsverbund","public_transport":"stop_position","railway":"tram_stop","ref":"0005","tram":"yes","wheelchair":"yes"}},{"type":"node","id":2130734253,"lat":51.335611,"lon":12.3786326,"tags":{"name":"Roßplatz","network":"Mitteldeutscher Verkehrsverbund","network:short":"MDV","network:wikidata":"Q1742463","passenger_information_display":"yes","public_transport":"stop_position","railway":"tram_stop","ref":"0008","shelter":"yes","tram":"yes","wheelchair":"yes"}},{"type":"node","id":2158996985,"lat":51.3353201,"lon":12.4077751,"tags":{"name":"Breite Straße","name:ja":"ブライテ通り","network":"Mitteldeutscher Verkehrsverbund","network:short":"MDV","network:wikidata":"Q1742463","operator":"Leipziger Verkehrsbetriebe","public_transport":"stop_position","railway":"tram_stop","ref":"0103","route_ref":"4","tactile_paving":"no","tram":"yes","wheelchair":"no"}},{"type":"node","id":2159058368,"lat":51.3274029,"lon":12.4033469,"tags":{"name":"Riebeck-/Stötteritzer Straße","network":"Mitteldeutscher Verkehrsverbund","network:short":"MDV","network:wikidata":"Q1742463","operator":"Leipziger Verkehrsbetriebe","public_transport":"stop_position","railway":"tram_stop","ref":"0105","route_ref":"4/4E","shelter":"yes","tactile_paving":"no","tram":"yes","wheelchair":"no"}},{"type":"node","id":2159081706,"lat":51.3308554,"lon":12.4053537,"tags":{"bus":"yes","name":"Riebeck-/Oststraße","network":"Mitteldeutscher Verkehrsverbund","network:short":"MDV","network:wikidata":"Q1742463","operator":"Leipziger Verkehrsbetriebe","public_transport":"stop_position","railway":"tram_stop","ref":"0104","shelter":"yes","tram":"yes","wheelchair":"yes"}},{"type":"node","id":2159081710,"lat":51.3312106,"lon":12.4055256,"tags":{"bus":"yes","name":"Riebeck-/Oststraße","network":"Mitteldeutscher Verkehrsverbund","network:short":"MDV","network:wikidata":"Q1742463","operator":"Leipziger Verkehrsbetriebe","public_transport":"stop_position","railway":"tram_stop","ref":"0104","tram":"yes","wheelchair":"yes"}},{"type":"node","id":2163522122,"lat":51.3597597,"lon":12.4427482,"tags":{"name":"Hohentichelnstraße","network":"Mitteldeutscher Verkehrsverbund","network:short":"MDV","network:wikidata":"Q1742463","operator":"Leipziger Verkehrsbetriebe","public_transport":"stop_position","railway":"tram_stop","ref":"0066","tram":"yes","wheelchair":"yes"}},