{"elements":[{"type":"node","id":287321417,"lat":37.592665,"lon":127.0164111,"tags":{"alt_name":"돈암","alt_name:en":"Donam","alt_name:ko":"돈암","name":"성신여대입구","name:en":"Sungshin Women's Univ.","name:ko":"성신여대입구","name:ko-Kana":"ソンシンヨデイック","name:zh":"诚信女子大学","operator":"서울교통공사","public_transport":"stop_position","railway":"stop","ref":"418","subway":"yes"}},{"type":"node","id":353186868,"lat":37.6024214,"lon":127.024414,"tags":{"name":"길음","name:en":"Gireum","name:ja":"キルム(吉音)","network":"서울 지하철","operator":"서울교통공사","public_transport":"stop_position","railway":"stop","ref":"417","subway":"yes"}},{"type":"node","id":355172683,"lat":37.5163103,"lon":126.9085913,"tags":{"addr:city":"서울특별시","addr:district":"영등포구","addr:housenumber":"846","addr:postcode":"07306","addr:street":"경인로","addr:subdistrict":"영등포동","local_ref":"1","name":"영등포","name:en":"Yeongdeungpo","name:ja":"永登浦","name:ko":"영등포","name:zh":"永登浦","network":"수도권 전철","operator":"한국철도공사","operator:en":"Korea Railroad Corporation","operator:ko":"한국철도공사","operator:short":"KORAIL","operator:type":"public","operator:wikidata":"Q18169","operator:wikipedia":"en:Korail","public_transport":"stop_position","railway":"stop","ref":"139","subway":"yes","train":"yes"}},{"type":"node","id":355172689,"lat":37.4801015,"lon":126.8816142,"tags":{"name":"가산디지털단지","name:ko":"가산디지털단지","operator":"서울교통공사","operator:en":"Seoul Metro","operator:ko":"서울교통공사","operator:type":"public","operator:wikidata":"Q28699048","public_transport":"stop_position","railway":"stop","ref":"746","subway":"yes"}},{"type":"node","id":355172742,"lat":37.5709298,"lon":127.0011763,"tags":{"name":"종로5가","name:en":"Jongno 5(o)-ga","name:ko":"종로5가","network":"서울 지하철","operator":"서울교통공사","public_transport":"stop_position","railway":"stop","ref":"129","subway":"yes"}},{"type":"node","id":355172774,"lat":37.6148757,"lon":127.065768,"tags":{"name":"석계","public_transport":"stop_position","railway":"stop","subway":"yes"}},{"type":"node","id":355173018,"lat":37.588674,"lon":126.944199,"tags":{"name":"홍제","name:en":"Hongje (Seoul Culture Arts Univ.)","name:ko":"홍제","public_transport":"stop_position","railway":"stop","ref":"324","subway":"yes"}},{"type":"node","id":355173021,"lat":37.600943,"lon":126.9357156,"tags":{"name":"녹번","name:en":"Nokbeon","name:ko":"녹번","public_transport":"stop_position","railway":"stop","ref":"323","subway":"yes"}},{"type":"node","id":355173026,"lat":37.5823147,"lon":126.9503083,"tags":{"name":"무악재","name:en":"Muakjae","name:ko":"무악재","public_transport":"stop_position","railway":"stop","ref":"325","subway":"yes"}},{"type":"node","id":355173030,"lat":37.6479341,"lon":126.9149061,"tags":{"name":"지축","name:en":"Jichuk","name:ja":"紙杻","name:ko":"지축","operator":"한국철도공사;서울교통공사","public_transport":"stop_position","railway":"stop","ref":"319","subway":"yes"}},{"type":"node","id":355173031,"lat":37.6531033,"lon":126.8954689,"tags":{"name":"삼송","name:en":"Samsong","name:ja":"三松","name:ko":"삼송","name:ko-Kana":"サムソン","operator":"한국철도공사","operator:en":"Korea Railroad Corporation","operator:ko":"한국철도공사","operator:short":"KORAIL","operator:type":"public","operator:wikidata":"Q18169","operator:wikipedia":"en:Korail","public_transport":"stop_position","railway":"stop","ref":"318","train":"yes"}},{"type":"node","id":355173034,"lat":37.6430565,"lon":126.7879533,"tags":{"name":"백석","name:el":"Μπέκσοκ","name:en":"Baekseok","name:ja":"ペクソク(白石)","name:ko":"백석","network":"한국철도공사","public_transport":"stop_position","railway":"stop","ref":"313","train":"yes"}},{"type":"node","id":355173038,"lat":37.6597112,"lon":126.7732179,"tags":{"name":"정발산","name:el":"Τζόνγκμπαλσαν","name:en":"Jeongbalsan","name:ja":"鼎鉢山","name:ko":"정발산","public_transport":"stop_position","railway":"stop","ref":"311","train":"yes"}},{"type":"node","id":355173039,"lat":37.6520005,"lon":126.7777178,"tags":{"name":"마두","name:el":"Μάντου","name:en":"Madu","name:ja":"馬頭","name:ko":"마두","operator":"한국철도공사","operator:en":"Korea Railroad Corporation","operator:ko":"한국철도공사","operator:short":"KORAIL","operator:type":"public","operator:wikidata":"Q18169","operator:wikipedia":"en:Korail","public_transport":"stop_position","railway":"stop","ref":"312","train":"yes"}},{"type":"node","id":355173041,"lat":37.6761485,"lon":126.7474578,"tags":{"name":"대화","name:el":"Ντέχουα","name:en":"Daehwa","name:ja":"テファ(大化)","name:ko":"대화","operator":"한국철도공사","operator:en":"Korea Railroad Corporation","operator:ko":"한국철도공사","operator:short":"KORAIL","operator:type":"public","operator:wikidata":"Q18169","operator:wikipedia":"en:Korail","public_transport":"stop_position","railway":"stop","ref":"309","train":"yes"}},{"type":"node","id":355173042,"lat":37.670111,"lon":126.7612341,"tags":{"name":"주엽","name:el":"Τζούγιοπ","name:en":"Juyeop","name:ja":"注葉","name:ko":"주엽","operator":"한국철도공사","operator:en":"Korea Railroad Corporation","operator:ko":"한국철도공사","operator:short":"KORAIL","operator:type":"public","operator:wikidata":"Q18169","operator:wikipedia":"en:Korail","public_transport":"stop_position","railway":"stop","ref":"310","train":"yes"}},{"type":"node","id":355173044,"lat":37.5590197,"lon":127.0057659,"tags":{"name":"동대입구","name:en":"Dongguk Univ.","name:ko":"동대입구","public_transport":"stop_position","railway":"stop","ref":"332","subway":"yes"}},{"type":"node","id":355173059,"lat":37.5757585,"lon":126.9735668,"tags":{"name":"경복궁","name:en":"Gyeongbokgung (Government Complex Seoul)","name:ko":"경복궁(정부서울청사)","public_transport":"stop_position","railway":"stop","ref":"327","subway":"yes"}},{"type":"node","id":355173067,"lat":37.5480153,"lon":127.0158595,"tags":{"name":"금호","name:en":"Geumho","name:ko":"금호","public_transport":"stop_position","railway":"stop","ref":"334","subway":"yes"}},{"type":"node","id":355173080,"lat":37.4264692,"lon":126.9897017,"tags":{"name":"정부과천청사","name:en":"Ansan Line","name:ja":"政府果川庁舎","name:ko":"정부과천청사","network":"수도권 전철","operator":"한국철도공사","operator:en":"Korea Railroad Corporation","operator:ko":"한국철도공사","operator:short":"KORAIL","operator:type":"public","operator:wikidata":"Q18169","operator:wikipedia":"en:Korail","public_transport":"stop_position","railway":"stop","ref":"439","train":"yes"}},{"type":"node","id":355173100,"lat":37.4964802,"lon":127.0699125,"tags":{"name":"학여울","name:en":"Hangnyeoul","name:ko":"학여울","public_transport":"stop_position","railway":"stop","ref":"346","subway":"yes"}},{"type":"node","id":355173102,"lat":37.4944502,"lon":127.0632186,"tags":{"name":"대치","name:en":"Daechi","name:ko":"대치","public_transport":"stop_position","railway":"stop","ref":"345","subway":"yes"}},{"type":"node","id":355173105,"lat":37.5291568,"lon":126.9678072,"tags":{"name":"신용산","name:en":"Sinyongsan","name:ko":"신용산","operator":"서울교통공사","public_transport":"stop_position","railway":"stop","ref":"429","subway":"yes"}},{"type":"node","id":355173107,"lat":37.5355911,"lon":126.9738989,"tags":{"name":"삼각지","name:en":"Samgakji","name:ja":"三角地","name:ko":"삼각지","name:ko-Latn":"Samgakji","name:zh":"三角地","operator":"서울교통공사","public_transport":"stop_position","railway":"stop","ref":"628","subway":"yes"}},{"type":"node","id":355173124,"lat":37.3899271,"lon":126.9509018,"tags":{"name":"범계","name:en":"Beomgye","name:ko":"범계","network":"수도권 전철","operator":"한국철도공사","operator:en":"Korea Railroad Corporation","operator:ko":"한국철도공사","operator:short":"KORAIL","operator:type":"public","operator:wikidata":"Q18169","operator:wikipedia":"en:Korail","public_transport":"stop_position","railway":"stop","ref":"442","subway":"yes"}},{"type":"node","id":355173127,"lat":37.4013725,"lon":126.9769079,"tags":{"name":"인덕원","name:en":"Indeogwon","name:ko":"인덕원","network":"수도권 전철","operator":"한국철도공사","operator:en":"Korea Railroad Corporation","operator:ko":"한국철도공사","operator:short":"KORAIL","operator:type":"public","operator:wikidata":"Q18169","operator:wikipedia":"en:Korail","public_transport":"stop_position","railway":"stop","ref":"440","subway":"yes"}},{"type":"node","id":355173131,"lat":37.3272174,"lon":126.9162856,"tags":{"local_ref":"2","name":"대야미","name:en":"Daeyami","name:ko":"대야미","operator":"한국철도공사","operator:en":"Korea Railroad Corporation","operator:ko":"한국철도공사","operator:short":"KORAIL","operator:type":"public","operator:wikidata":"Q18169","operator:wikipedia":"en:Korail","public_transport":"stop_position","railway":"stop","ref":"446","subway":"yes"}},{"type":"node","id":355173138,"lat":37.6379893,"lon":127.0256914,"tags":{"name":"수유(강북구청)","name:en":"Suyu (Gangbuk-gu Office)","name:ko":"수유(강북구청)","operator":"서울교통공사","public_transport":"stop_position","railway":"stop","ref":"414","subway":"yes"}},{"type":"node","id":355173148,"lat":37.6484204,"lon":127.0345485,"tags":{"name":"쌍문","name:en":"Ssangmun","name:ko":"쌍문","operator":"서울교통공사","public_transport":"stop_position","railway":"stop","ref":"413","subway":"yes"}},{"type":"node","id":355173195,"lat":37.5609174,"lon":126.9862899,"tags":{"name":"명동","name:en":"Myeong-dong","name:ko":"명동","operator":"서울교통공사","public_transport":"stop_position","railway":"stop","ref":"424","subway":"yes"}},{"type":"node","id":355173201,"lat":37.5821434,"lon":127.0019312,"tags":{"name":"혜화(서울대학교병원)","name:en":"Hyehwa","name:ja":"ヘファ","name:ko":"혜화(서울대학교병원)","name:zh":"惠化","public_transport":"stop_position","railway":"stop","ref":"420","subway":"yes"}},{"type":"node","id":355173208,"lat":37.5652027,"lon":127.0080476,"tags":{"name":"동대문역사문화공원","name:en":"Dongdaemun History & Culture Park Station (DDP)","name:ja":"東大門歴史文化公園","name:ko":"동대문역사문화공원","name:ko-Hani":"東大門歷史文化公園","name:ko-Kana":"トンデムンヨクサムンファゴンウォン","name:zh":"东大门历史文化公园","name:zh-Hans":"东大门历史文化公园","name:zh-Hant":"東大門歷史文化公園","operator":"서울교통공사","public_transport":"stop_position","railway":"stop","ref":"422","subway":"yes"}},{"type":"node","id":355173339,"lat":37.6599912,"lon":127.0726737,"tags":{"name":"상계","name:en":"Sanggye","name:ko":"상계","operator":"서울교통공사","public_transport":"stop_position","railway":"stop","ref":"410","subway":"yes"}},{"type":"node","id":355173346,"lat":37.6695753,"lon":127.0784401,"tags":{"name":"불암산","name:en":"Buramsan","name:ja":"プラムサン","name:ko":"불암산","network":"서울 지하철","old_name":"당고개","old_name:en":"Danggogae","old_name:ja":"ダンゴゲ","old_name:ko-Latn":"Danggogae","operator":"서울교통공사","public_transport":"stop_position","railway":"stop","ref":"409","subway":"yes"}},{"type":"node","id":355173381,"lat":37.5841289,"lon":126.9098598,"tags":{"name":"증산","operator":"서울교통공사","public_transport":"stop_position","railway":"stop","subway":"yes"}},{"type":"node","id":355173383,"lat":37.6060541,"lon":126.9228008,"tags":{"name":"역촌","operator":"서울교통공사","public_transport":"stop_position","railway":"stop","subway":"yes"}},{"type":"node","id":355173384,"lat":37.6110401,"lon":126.9170995,"tags":{"name":"구산","operator":"서울교통공사","public_transport":"stop_position","railway":"stop","subway":"yes"}},{"type":"node","id":355173400,"lat":37.5862818,"lon":127.029329,"tags":{"name":"안암","public_transport":"stop_position","railway":"stop","subway":"yes"}},{"type":"node","id":355173402,"lat":37.579786,"lon":127.015273,"tags":{"name":"창신","public_transport":"stop_position","railway":"stop","subway":"yes"}},{"type":"node","id":355173404,"lat":37.6105343,"lon":127.0564905,"tags":{"name":"돌곶이","public_transport":"stop_position","railway":"stop","subway":"yes"}},{"type":"node","id":355173405,"lat":37.606207,"lon":127.0482569,"tags":{"name":"상월곡","public_transport":"stop_position","railway":"stop","subway":"yes"}},{"type":"node","id":355173406,"lat":37.601924,"lon":127.041489,"tags":{"name":"월곡","public_transport":"stop_position","railway":"stop","subway":"yes"}},{"type":"node","id":355173408,"lat":37.58975,"lon":127.0359359,"tags":{"alt_name":"종암","alt_name:en":"Jongam","alt_name:ko":"종암","alt_name:zh":"鍾岩","name":"고려대","name:en":"Korea Univ.","name:ja":"コリョデ","name:ko":"고려대","name:zh":"高丽大学","public_transport":"stop_position","railway":"stop","subway":"yes"}},{"type":"node","id":355173411,"lat":37.6173928,"lon":127.0910747,"tags":{"name":"봉화산","name:en":"Bonghwasan","public_transport":"stop_position","railway":"stop","subway":"yes"}},{"type":"node","id":355173413,"lat":37.6197559,"lon":127.0837172,"tags":{"name":"화랑대","public_transport":"stop_position","railway":"stop","subway":"yes"}},{"type":"node","id":355173424,"lat":37.5635156,"lon":126.9033737,"tags":{"name":"마포구청","public_transport":"stop_position","railway":"stop","subway":"yes"}},{"type":"node","id":355173426,"lat":37.5559808,"lon":126.9101224,"tags":{"name":"망원","public_transport":"stop_position","railway":"stop","subway":"yes"}},{"type":"node","id":355173429,"lat":37.5701609,"lon":126.8992939,"tags":{"name":"월드컵경기장","public_transport":"stop_position","railway":"stop","subway":"yes"}},{"type":"node","id":355173431,"lat":37.547449,"lon":126.932001,"tags":{"name":"광흥창","operator":"서울교통공사","public_transport":"stop_position","railway":"stop","subway":"yes"}},{"type":"node","id":355173433,"lat":37.5476895,"lon":126.9423171,"tags":{"name":"대흥","operator":"서울교통공사","public_transport":"stop_position","railway":"stop","subway":"yes"}},{"type":"node","id":355173436,"lat":37.5477391,"lon":126.9229225,"tags":{"name":"상수","operator":"서울교통공사","public_transport":"stop_position","railway":"stop","subway":"yes"}},{"type":"node","id":355173438,"lat":37.5347329,"lon":126.9864975,"tags":{"name":"녹사평","public_transport":"stop_position","railway":"stop","subway":"yes"}},{"type":"node","id":355173440,"lat":37.534481,"lon":126.994386,"tags":{"name":"이태원","public_transport":"stop_position","railway":"stop","subway":"yes"}},{"type":"node","id":355173443,"lat":37.5393117,"lon":126.9613534,"tags":{"name":"효창공원앞","public_transport":"stop_position","railway":"stop","subway":"yes"}},{"type":"node","id":355173448,"lat":37.5398199,"lon":127.0017633,"tags":{"name":"한강진","public_transport":"stop_position","railway":"stop","subway":"yes"}},{"type":"node","id":355173451,"lat":37.5482256,"lon":127.0066769,"tags":{"name":"버티고개","public_transport":"stop_position","railway":"stop","subway":"yes"}},{"type":"node","id":355173473,"lat":37.5490025,"lon":127.1270746,"tags":{"name":"암사","name:en":"Amsa","name:ja":"岩寺","name:ko":"암사","public_transport":"stop_position","railway":"stop","subway":"yes"}},{"type":"node","id":355173569,"lat":37.4568481,"lon":127.1499078,"tags":{"name":"산성","name:en":"Sanseong","name:ja":"山城","name:ko":"산성","public_transport":"stop_position","railway":"stop","subway":"yes"}},{"type":"node","id":355173577,"lat":37.48585,"lon":127.122484,"tags":{"name":"문정","name:en":"Munjeong","name:ja":"文井","name:ko":"문정","public_transport":"stop_position","railway":"stop","subway":"yes"}},{"type":"node","id":355173579,"lat":37.5053042,"lon":127.1070931,"tags":{"bicycle":"yes","name":"석촌","name:en":"Seokchon","name:ja":"ソクチョン","name:ko":"석촌","name:ko-Latn":"Seokchon","name:zh":"石村","public_transport":"stop_position","railway":"stop","subway":"yes"}},{"type":"node","id":355173581,"lat":37.4996207,"lon":127.1122514,"tags":{"bicycle":"yes","name":"송파","name:en":"Songpa","name:ja":"松坡","name:ko":"송파","public_transport":"stop_position","railway":"stop","subway":"yes"}},{"type":"node","id":355173590,"lat":37.4374574,"lon":127.1406647,"tags":{"name":"수진","name:en":"Sujin","name:ja":"寿進","name:ko":"수진","public_transport":"stop_position","railway":"stop","subway":"yes"}},{"type":"node","id":355173593,"lat":37.4450934,"lon":127.1567551,"tags":{"alt_name":"신구대학교역","alt_name:en":"Shingu College Station","alt_name:ko":"신구대학교역","name":"단대오거리","name:en":"Dandaeogeori","name:ja":"丹岱オゴリ","name:ko":"단대오거리","public_transport":"stop_position","railway":"stop","subway":"yes"}},{"type":"node","id":355173595,"lat":37.4410138,"lon":127.1476254,"tags":{"name":"신흥","name:en":"Sinheung","name:ja":"新興","name:ko":"신흥","public_transport":"stop_position","railway":"stop","subway":"yes"}},{"type":"node","id":414683380,"lat":37.5910867,"lon":126.9134797,"tags":{"name":"새절","name:en":"Saejeol","name:ko":"새절","operator":"서울교통공사","public_transport":"stop_position","railway":"stop","subway":"yes"}},{"type":"node","id":414684303,"lat":37.4837678,"lon":127.0841812,"tags":{"name":"일원","name:en":"Irwon","name:ja":"イルォン","public_transport":"stop_position","railway":"stop","ref":"348","subway":"yes","wikidata":"Q100870","wikipedia":"ko:일원역"}},{"type":"node","id":414684814,"lat":37.5175496,"lon":127.1126502,"tags":{"alt_name":"평화의문","alt_name:en":"World Peace Gate","alt_name:ko":"평화의문","name":"몽촌토성","name:en":"Mongchontoseong","name:ja":"モンチョントソン(夢村土城)","name:ko":"몽촌토성","name:zh":"梦村土城","public_transport":"stop_position","railway":"stop","ref":"813","subway":"yes"}},{"type":"node","id":414685028,"lat":37.5306815,"lon":127.120598,"tags":{"name":"강동구청","name:en":"Gangdong-gu Office","name:ja":"カンドングチョン","name:ko":"강동구청","name:zh":"江东区厅","public_transport":"stop_position","railway":"stop","subway":"yes"}},{"type":"node","id":414685965,"lat":37.5768286,"lon":126.9862272,"tags":{"name":"안국","name:en":"Anguk","name:ja":"アングク","name:ko":"안국","name:zh":"安国","public_transport":"stop_position","railway":"stop","ref":"328","subway":"yes"}},{"type":"node","id":436832405,"lat":37.5139701,"lon":127.0307332,"tags":{"name":"학동","name:ko":"학동","network":"서울 지하철","operator":"서울교통공사","operator:en":"Seoul Metro","operator:ko":"서울교통공사","operator:type":"public","operator:wikidata":"Q28699048","public_transport":"stop_position","railway":"stop","subway":"yes"}},{"type":"node","id":582888494,"lat":37.914935,"lon":127.0571156,"tags":{"local_ref":"1","name":"보산","name:en":"Bosan","name:ko":"보산","network":"수도권 전철","operator":"한국철도공사","operator:en":"Korea Railroad Corporation","operator:ko":"한국철도공사","operator:short":"KORAIL","operator:type":"public","operator:wikidata":"Q18169","operator:wikipedia":"en:Korail","public_transport":"stop_position","railway":"stop","ref":"102","subway":"yes","train":"yes"}},{"type":"node","id":582888528,"lat":37.8441058,"lon":127.0614484,"tags":{"local_ref":"2","name":"덕정","name:en":"Deokjeong (Seojeong College)","name:ko":"덕정","network":"수도권 전철","operator":"한국철도공사","operator:en":"Korea Railroad Corporation","operator:ko":"한국철도공사","operator:short":"KORAIL","operator:type":"public","operator:wikidata":"Q18169","operator:wikipedia":"en:Korail","public_transport":"stop_position","railway":"stop","ref":"105","subway":"yes","train":"yes"}},{"type":"node","id":595746654,"lat":37.5111305,"lon":127.0214771,"tags":{"name":"논현","name:ko":"논현","network":"서울 지하철","operator":"서울교통공사","operator:en":"Seoul Metro","operator:ko":"서울교통공사","operator:type":"public","operator:wikidata":"Q28699048","public_transport":"stop_position","railway":"stop","ref":"732","subway":"yes"}},{"type":"node","id":619039778,"lat":37.3520536,"lon":126.7419901,"tags":{"local_ref":"2","name":"정왕","name:en":"Jeongwang","name:ko":"정왕","network":"수도권 전철","operator":"한국철도공사","operator:en":"Korea Railroad Corporation","operator:ko":"한국철도공사","operator:short":"KORAIL","operator:type":"public","operator:wikidata":"Q18169","operator:wikipedia":"en:Korail","public_transport":"stop_position","railway":"stop","ref":"455;K257","subway":"yes","train":"yes"}},{"type":"node","id":660843668,"lat":37.5408763,"lon":127.0178475,"tags":{"name":"옥수","name:en":"Oksu","name:ja":"オッス(玉水)","name:ko":"옥수","public_transport":"stop_position","railway":"stop","ref":"335","subway":"yes"}},{"type":"node","id":660871450,"lat":37.5701195,"lon":126.9821118,"tags":{"name":"종각","name:en":"Jonggak","name:ko":"종각","operator":"서울교통공사","public_transport":"stop_position","railway":"stop","ref":"131","subway":"yes"}},{"type":"node","id":798558661,"lat":37.5021191,"lon":126.9808291,"tags":{"name":"동작","name:en":"Dongjak","name:ko":"동작","operator":"서울교통공사","public_transport":"stop_position","railway":"stop","ref":"431","subway":"yes"}},{"type":"node","id":1700849959,"lat":37.4331028,"lon":126.9968213,"tags":{"name":"과천","name:en":"Gwacheon","name:ko":"과천","network":"수도권 전철","operator":"한국철도공사","operator:en":"Korea Railroad Corporation","operator:ko":"한국철도공사","operator:short":"KORAIL","operator:type":"public","operator:wikidata":"Q18169","operator:wikipedia":"en:Korail","public_transport":"stop_position","railway":"stop","ref":"438","train":"yes"}},{"type":"node","id":1700849987,"lat":37.443793,"lon":127.0078697,"tags":{"name":"경마공원","name:en":"Seoul Racecourse park","name:ko":"경마공원","network":"수도권 전철","operator":"한국철도공사","operator:en":"Korea Railroad Corporation","operator:ko":"한국철도공사","operator:short":"KORAIL","operator:type":"public","operator:wikidata":"Q18169","operator:wikipedia":"en:Korail","public_transport":"stop_position","railway":"stop","ref":"436","train":"yes"}},{"type":"node","id":1793029878,"lat":37.7393951,"lon":127.0348982,"tags":{"light_rail":"yes","name":"의정부시청","name:en":"Uijeongbu City Hall","name:ja":"議政府市庁","name:ja-Hira":"ウィジョンブシチョン","name:ko":"의정부시청","public_transport":"stop_position","railway":"stop"}},{"type":"node","id":1793029884,"lat":37.7334804,"lon":127.0889389,"tags":{"light_rail":"yes","name":"탑석","name:en":"Tapseok","name:ja":"塔石","name:ja-Hira":"タプソク","name:ko":"탑석","public_transport":"stop_position","railway":"stop","wikipedia":"ko:탑석역"}},{"type":"node","id":1939100051,"lat":37.4849718,"lon":127.0162904,"tags":{"name":"남부터미널(예술의전당)","name:en":"Nambu Bus Terminal (Seoul Arts Center)","name:ko":"남부터미널(예술의전당)","public_transport":"stop_position","railway":"stop","ref":"341","subway":"yes"}},{"type":"node","id":2028067305,"lat":37.5261356,"lon":127.0284705,"tags":{"name":"압구정","name:en":"Apgujeong","name:ko":"압구정","public_transport":"stop_position","railway":"stop","ref":"336","subway":"yes"}},{"type":"node","id":2066387615,"lat":37.3380983,"lon":126.7661867,"tags":{"alt_name":"능길","alt_name:en":"Neunggil","alt_ref":"0888","local_ref":"2","name":"신길온천","name:en":"Singiloncheon","name:ko":"신길온천","operator":"한국철도공사","operator:en":"Korea Railroad Corporation","operator:ko":"한국철도공사","operator:short":"KORAIL","operator:type":"public","operator:wikidata":"Q18169","operator:wikipedia":"en:Korail","public_transport":"stop_position","railway":"stop","railway:ref":"신길온","ref":"454;K256","ref:KROIS":"210217","ref:XROIS":"3900462","subway":"yes","train":"yes"}},{"type":"node","id":2090733291,"lat":37.6318362,"lon":126.8096784,"tags":{"name":"대곡","name:en":"Daegok","name:ja":"大谷","name:ko":"대곡","operator":"한국철도공사","operator:en":"Korea Railroad Corporation","operator:ko":"한국철도공사","operator:short":"KORAIL","operator:type":"public","operator:wikidata":"Q18169","operator:wikipedia":"en:Korail","public_transport":"stop_position","railway":"stop","ref":"314","train":"yes"}},{"type":"node","id":2102704507,"lat":37.493654,"lon":127.0795056,"tags":{"name":"대청","name:en":"Daecheong","name:ko":"대청","public_transport":"stop_position","railway":"stop","ref":"347","subway":"yes"}},{"type":"node","id":2111825348,"lat":37.6455228,"lon":127.0638548,"tags":{"name":"중계","name:ko":"중계","network":"서울 지하철","operator":"서울교통공사","operator:en":"Seoul Metro","operator:ko":"서울교통공사","operator:type":"public","operator:wikidata":"Q28699048","public_transport":"stop_position","railway":"stop","ref":"714","subway":"yes"}},{"type":"node","id":2111924741,"lat":37.5188573,"lon":127.0500373,"tags":{"name":"청담","name:ko":"청담","network":"서울 지하철","operator":"서울교통공사","operator:en":"Seoul Metro","operator:ko":"서울교통공사","operator:type":"public","operator:wikidata":"Q28699048","public_transport":"stop_position","railway":"stop","ref":"729","subway":"yes"}},{"type":"node","id":2111940162,"lat":37.7001801,"lon":127.053075,"tags":{"name":"장암","name:en":"Jangam","name:ko":"장암","network":"서울 지하철","operator":"서울교통공사","operator:en":"Seoul Metro","operator:ko":"서울교통공사","operator:type":"public","operator:wikidata":"Q28699048","public_transport":"stop_position","railway":"stop","ref":"709","subway":"yes","train":"yes"}},{"type":"node","id":2244637619,"lat":37.5161705,"lon":127.0196309,"tags":{"name":"신사","name:en":"Sinsa","name:ko":"신사","public_transport":"stop_position","railway":"stop","ref":"337","subway":"yes"}},{"type":"node","id":2279487866,"lat":37.5081855,"lon":127.011619,"tags":{"name":"반포","name:ko":"반포","network":"서울 지하철","operator":"서울교통공사","operator:en":"Seoul Metro","operator:ko":"서울교통공사","operator:type":"public","operator:wikidata":"Q28699048","public_transport":"stop_position","railway":"stop","ref":"733","subway":"yes"}},{"type":"node","id":2346858827,"lat":37.4870435,"lon":127.0469913,"tags":{"name":"매봉","name:en":"Maebong","name:ko":"매봉","public_transport":"stop_position","railway":"stop","ref":"343","subway":"yes"}},{"type":"node","id":2360117049,"lat":37.5070361,"lon":126.7313177,"tags":{"name":"굴포천","name:ko":"굴포천","operator":"인천교통공사","operator:en":"Incheon Transit Corporation","operator:ko":"인천교통공사","operator:wikidata":"Q483883","public_transport":"stop_position","railway":"stop","ref":"758","subway":"yes"}},{"type":"node","id":2385324651,"lat":37.5344579,"lon":126.9729031,"tags":{"name":"삼각지","name:en":"Samgakji","name:ja":"三角地","name:ko":"삼각지","name:ko-Latn":"Samgakji","name:zh":"三角地","operator":"서울교통공사","public_transport":"stop_position","railway":"stop","ref":"428","subway":"yes"}},{"type":"node","id":2533971240,"lat":37.5226181,"lon":126.9736117,"tags":{"name":"이촌","name:en":"Ichon","name:ja":"イチョン(国立中央博物館)","name:ko":"이촌","network":"서울 지하철","operator":"서울교통공사","public_transport":"stop_position","railway":"stop","ref":"430","subway":"yes"}},{"type":"node","id":3153793711,"lat":37.4563959,"lon":126.8934833,"tags":{"alt_ref":"0252","local_ref":"4","name":"금천구청","name:en":"Geumcheon-gu Office","name:ja":"衿川区庁","name:ko":"금천구청","name:zh":"衿川区厅","network":"수도권 전철","old_name":"시흥","old_name:en":"Siheung","old_name:ko":"시흥","operator":"한국철도공사","operator:en":"Korea Railroad Corporation","operator:ko":"한국철도공사","operator:short":"KORAIL","operator:type":"public","operator:wikidata":"Q18169","operator:wikipedia":"en:Korail","public_transport":"stop_position","railway":"stop","railway:ref":"금천구","ref":"P144","ref:AFC":"1703","ref:KROIS":"010173","ref:XROIS":"3900036","train":"yes"}},{"type":"node","id":3174423898,"lat":37.4928248,"lon":126.8249056,"tags":{"local_ref":"1","name":"온수","name:en":"Onsu","name:ko":"온수","operator":"한국철도공사","operator:en":"Korea Railroad Corporation","operator:ko":"한국철도공사","operator:short":"KORAIL","operator:type":"public","operator:wikidata":"Q18169","operator:wikipedia":"en:Korail","public_transport":"stop_position","railway":"stop","ref":"145","train":"yes"}},{"type":"node","id":3174423993,"lat":37.4939856,"lon":126.8434437,"tags":{"local_ref":"4","name":"오류동","name:en":"Oryu-dong","name:ko":"오류동","operator":"한국철도공사","operator:en":"Korea Railroad Corporation","operator:ko":"한국철도공사","operator:short":"KORAIL","operator:type":"public","operator:wikidata":"Q18169","operator:wikipedia":"en:Korail","public_transport":"stop_position","railway":"stop","ref":"144","subway":"yes","train":"yes"}},{"type":"node","id":3212614721,"lat":37.5085044,"lon":126.8907906,"tags":{"local_ref":"4","name":"신도림","name:en":"Sindorim","name:ko":"신도림","network":"수도권 전철","operator":"한국철도공사","operator:en":"Korea Railroad Corporation","operator:ko":"한국철도공사","operator:short":"KORAIL","operator:type":"public","operator:wikidata":"Q18169","operator:wikipedia":"en:Korail","public_transport":"stop_position","railway":"stop","train":"yes"}},{"type":"node","id":3212614728,"lat":37.5086444,"lon":126.890694,"tags":{"local_ref":"2","name":"신도림","name:en":"Sindorim","name:ko":"신도림","network":"수도권 전철","operator":"한국철도공사","operator:en":"Korea Railroad Corporation","operator:ko":"한국철도공사","operator:short":"KORAIL","operator:type":"public","operator:wikidata":"Q18169","operator:wikipedia":"en:Korail","public_transport":"stop_position","railway":"stop","train":"yes"}},{"type":"node","id":3213703909,"lat":37.5164582,"lon":126.9196723,"tags":{"addr:city":"서울특별시","addr:district":"영등포구","addr:housenumber":"327","addr:postcode":"07319","addr:street":"영등포로","addr:subdistrict":"신길동","name":"신길","name:en":"Singil","name:ja":"シンギル","name:ko":"신길","name:zh":"新吉","operator":"한국철도공사","operator:en":"Korea Railroad Corporation","operator:ko":"한국철도공사","operator:short":"KORAIL","operator:type":"public","operator:wikidata":"Q18169","operator:wikipedia":"en:Korail","public_transport":"stop_position","railway":"stop","ref":"138","subway":"yes","train":"yes"}},{"type":"node","id":3214007453,"lat":37.5134068,"lon":126.9254113,"tags":{"name":"대방","name:en":"Daebang","name:ko":"대방","operator":"한국철도공사","operator:en":"Korea Railroad Corporation","operator:ko":"한국철도공사","operator:short":"KORAIL","operator:type":"public","operator:wikidata":"Q18169","operator:wikipedia":"en:Korail","public_transport":"stop_position","railway":"stop","ref":"137","subway":"yes","train":"yes"}},{"type":"node","id":3214011598,"lat":37.514033,"lon":126.9401896,"tags":{"local_ref":"4","name":"노량진","name:en":"Noryangjin","name:ja":"鷺梁津","name:ko":"노량진","network":"수도권 전철","note":"for regular subway trains","operator":"한국철도공사","operator:en":"Korea Railroad Corporation","operator:ko":"한국철도공사","operator:short":"KORAIL","operator:type":"public","operator:wikidata":"Q18169","operator:wikipedia":"en:Korail","public_transport":"stop_position","railway":"stop","ref":"136","subway":"yes","train":"yes"}},{"type":"node","id":3215386387,"lat":37.5143347,"lon":126.9426606,"tags":{"local_ref":"5","name":"노량진","name:en":"Noryangjin","name:ja":"鷺梁津","name:ko":"노량진","network":"수도권 전철","network:en":"Seoul Metropolitan Subway System","network:ko":"수도권 전철","note":"for regular subway trains","operator":"한국철도공사","operator:en":"Korea Railroad Corporation","operator:ko":"한국철도공사","operator:short":"KORAIL","operator:type":"public","operator:wikidata":"Q18169","operator:wikipedia":"en:Korail","public_transport":"stop_position","railway":"stop","ref":"136","subway":"yes","train":"yes"}},{"type":"node","id":3216255723,"lat":37.4660994,"lon":126.6674091,"tags":{"local_ref":"4","name":"도화","name:en":"Dohwa","name:ko":"도화","operator":"한국철도공사","operator:en":"Korea Railroad Corporation","operator:ko":"한국철도공사","operator:short":"KORAIL","operator:type":"public","operator:wikidata":"Q18169","operator:wikipedia":"en:Korail","public_transport":"stop_position","railway":"stop","ref":"157","subway":"yes","train":"yes"}},{"type":"node","id":3279010892,"lat":37.566404,"lon":127.0162221,"tags":{"name":"신당","name:ja":"新堂(シンダン)","name:ko":"신당","name:ko-Hani":"新堂","name:zh":"新堂","name:zh-Hans":"新堂","name:zh-Hant":"新堂","public_transport":"stop_position","railway":"stop","subway":"yes"}},{"type":"node","id":3279010922,"lat":37.571413,"lon":127.0158026,"tags":{"name":"동묘앞","public_transport":"stop_position","railway":"stop","subway":"yes"}},{"type":"node","id":3405090091,"lat":37.3715602,"lon":126.943827,"tags":{"local_ref":"3","name":"금정","name:en":"Geumjeong","name:ja":"衿井","name:ko":"금정","network":"수도권 전철","operator":"한국철도공사","operator:en":"Korea Railroad Corporation","operator:ko":"한국철도공사","operator:short":"KORAIL","operator:type":"public","operator:wikidata":"Q18169","operator:wikipedia":"en:Korail","public_transport":"stop_position","railway":"stop","ref":"P149","train":"yes"}},{"type":"node","id":3418807256,"lat":37.4953088,"lon":127.1238319,"tags":{"name":"경찰병원","name:en":"Nat'l Police Hospital","name:ko":"경찰병원","public_transport":"stop_position","railway":"stop","ref":"351","subway":"yes"}},{"type":"node","id":3426723651,"lat":37.4823798,"lon":126.8821636,"tags":{"alt_ref":"0825","local_ref":"1","name":"가산디지털단지","name:en":"Gasan Digital Complex","name:ko":"가산디지털단지","network":"수도권 전철","operator":"한국철도공사","operator:en":"Korea Railroad Corporation","operator:ko":"한국철도공사","operator:short":"KORAIL","operator:type":"public","operator:wikidata":"Q18169","operator:wikipedia":"en:Korail","public_transport":"stop_position","railway":"stop","railway:ref":"가산디","ref":"P142","ref:AFC":"1702","ref:KROIS":"010141","ref:XROIS":"3900034","train":"yes"}},{"type":"node","id":3426723652,"lat":37.4203335,"lon":126.9076861,"tags":{"local_ref":"1","name":"관악","name:en":"Gwanak","name:ko":"관악","network":"수도권 전철","operator":"한국철도공사","operator:en":"Korea Railroad Corporation","operator:ko":"한국철도공사","operator:short":"KORAIL","operator:type":"public","operator:wikidata":"Q18169","operator:wikipedia":"en:Korail","public_transport":"stop_position","railway":"stop","ref":"P146","subway":"yes","train":"yes"}},{"type":"node","id":3426723655,"lat":37.5043142,"lon":126.8830722,"tags":{"name":"구로","name:en":"Guro","name:ko":"구로","operator":"한국철도공사","operator:en":"Korea Railroad Corporation","operator:ko":"한국철도공사","operator:short":"KORAIL","operator:type":"public","operator:wikidata":"Q18169","operator:wikipedia":"en:Korail","public_transport":"stop_position","railway":"stop","train":"yes"}},{"type":"node","id":3426723656,"lat":37.3534284,"lon":126.9485985,"tags":{"local_ref":"4","name":"군포","name:en":"Gunpo","name:ko":"군포","network":"수도권 전철","operator":"한국철도공사","operator:en":"Korea Railroad Corporation","operator:ko":"한국철도공사","operator:short":"KORAIL","operator:type":"public","operator:wikidata":"Q18169","operator:wikipedia":"en:Korail","public_transport":"stop_position","railway":"stop","subway":"yes","train":"yes"}},{"type":"node","id":3426723659,"lat":37.5415349,"lon":126.9712559,"tags":{"addr:city":"서울특별시","addr:district":"용산구","addr:housenumber":"25","addr:postcode":"04322","addr:street":"한강대로77길","addr:subdistrict":"갈월동","local_ref":"2","name":"남영","name:en":"Namyeong","name:ja":"ナミョン(南営)","name:ko":"남영","network":"수도권 전철","network:en":"Seoul Metropolitan Subway System","network:ko":"수도권 전철","operator":"한국철도공사","operator:en":"Korea Railroad Corporation","operator:ko":"한국철도공사","operator:short":"KORAIL","operator:type":"public","operator:wikidata":"Q18169","operator:wikipedia":"en:Korail","public_transport":"stop_position","railway":"stop","ref":"134","subway":"yes","train":"yes"}},{"type":"node","id":3426723663,"lat":37.3424456,"lon":126.9484387,"tags":{"local_ref":"1","name":"당정","name:en":"Dangjeong","name:ko":"당정","network":"수도권 전철","operator":"한국철도공사","operator:en":"Korea Railroad Corporation","operator:ko":"한국철도공사","operator:short":"KORAIL","operator:type":"public","operator:wikidata":"Q18169","operator:wikipedia":"en:Korail","public_transport":"stop_position","rail":"stop","railway":"stop","subway":"yes","train":"yes"}},{"type":"node","id":3426723670,"lat":37.4668796,"lon":126.8890361,"tags":{"local_ref":"1","name":"독산","name:en":"Doksan","name:ja":"禿山","name:ko":"독산","public_transport":"stop_position","railway":"stop","ref":"P143","train":"yes"}},{"type":"node","id":3426723671,"lat":37.92844,"lon":127.0546354,"tags":{"local_ref":"3","name":"동두천","name:en":"Dongducheon","name:ko":"동두천","network":"수도권 전철","operator":"한국철도공사","operator:en":"Korea Railroad Corporation","operator:ko":"한국철도공사","operator:short":"KORAIL","operator:type":"public","operator:wikidata":"Q18169","operator:wikipedia":"en:Korail","public_transport":"stop_position","railway":"stop","ref":"101","train":"yes"}},{"type":"node","id":3426723672,"lat":37.9025991,"lon":127.0565601,"tags":{"alt_ref":"0409","local_ref":"2","name":"동두천중앙","name:en":"Dongducheonjungang (Shinhan University Campus 2)","name:ko":"동두천중앙","network":"수도권 전철","operator":"한국철도공사","operator:en":"Korea Railroad Corporation","operator:ko":"한국철도공사","operator:short":"KORAIL","operator:type":"public","operator:wikidata":"Q18169","operator:wikipedia":"en:Korail","public_transport":"stop_position","rail":"stop","railway":"stop","railway:ref":"동두중","ref":"103","ref:AFC":"1913","ref:KROIS":"130503","ref:XROIS":"3900410","subway":"yes","train":"yes"}},{"type":"node","id":3426723675,"lat":37.3837522,"lon":126.93601,"tags":{"local_ref":"1","name":"명학","name:en":"Myeonghak","name:ja":"鳴鶴","name:ko":"명학","network":"수도권 전철","operator":"한국철도공사","operator:en":"Korea Railroad Corporation","operator:ko":"한국철도공사","operator:short":"KORAIL","operator:type":"public","operator:wikidata":"Q18169","operator:wikipedia":"en:Korail","public_transport":"stop_position","railway":"stop","subway":"yes","train":"yes"}},{"type":"node","id":3426723680,"lat":37.4362453,"lon":126.9019423,"tags":{"local_ref":"2","name":"석수","name:en":"Seoksu","name:ja":"石水","name:ko":"석수","public_transport":"stop_position","railway":"stop","ref":"P145","subway":"yes","train":"yes"}},{"type":"node","id":3426723681,"lat":37.3003127,"lon":126.972123,"tags":{"local_ref":"1","name":"성균관대","name:en":"Sungkyunkwan Univ","name:ko":"성균관대","network":"수도권 전철","operator":"한국철도공사","operator:en":"Korea Railroad Corporation","operator:ko":"한국철도공사","operator:short":"KORAIL","operator:type":"public","operator:wikidata":"Q18169","operator:wikipedia":"en:Korail","public_transport":"stop_position","railway":"stop","subway":"yes","train":"yes"}},{"type":"node","id":3426724594,"lat":37.3193973,"lon":126.9482854,"tags":{"local_ref":"1","name":"의왕","name:en":"Uiwang","name:ja":"義王","name:ko":"의왕","network":"수도권 전철","operator":"한국철도공사","operator:en":"Korea Railroad Corporation","operator:ko":"한국철도공사","operator:short":"KORAIL","operator:type":"public","operator:wikidata":"Q18169","operator:wikipedia":"en:Korail","public_transport":"stop_position","railway":"stop","subway":"yes","train":"yes"}},{"type":"node","id":3426724597,"lat":37.5703357,"lon":126.9908321,"tags":{"name":"종로3가","name:en":"Jongno 3(sam)-ga","name:ko":"종로3가","operator":"서울교통공사","public_transport":"stop_position","railway":"stop","ref":"130","subway":"yes"}},{"type":"node","id":3426724599,"lat":37.8931765,"lon":127.0558534,"tags":{"local_ref":"2","name":"지행","name:en":"Jihaeng","name:ko":"지행","network":"수도권 전철","operator":"한국철도공사","operator:en":"Korea Railroad Corporation","operator:ko":"한국철도공사","operator:short":"KORAIL","operator:type":"public","operator:wikidata":"Q18169","operator:wikipedia":"en:Korail","public_transport":"stop_position","railway":"stop","ref":"104","subway":"yes","train":"yes"}},{"type":"node","id":3427906850,"lat":37.1701756,"lon":127.0628225,"tags":{"local_ref":"2","name":"오산대","name:en":"Osan College","name:ko":"오산대","network":"수도권 전철","operator":"한국철도공사","operator:en":"Korea Railroad Corporation","operator:ko":"한국철도공사","operator:short":"KORAIL","operator:type":"public","operator:wikidata":"Q18169","operator:wikipedia":"en:Korail","public_transport":"stop_position","railway":"stop","ref":"P159","subway":"yes","train":"yes"}},{"type":"node","id":3427906851,"lat":37.1457804,"lon":127.0666747,"tags":{"local_ref":"7","name":"오산","name:en":"Osan","name:ko":"오산","network":"수도권 전철","operator":"한국철도공사","operator:en":"Korea Railroad Corporation","operator:ko":"한국철도공사","operator:short":"KORAIL","operator:type":"public","operator:wikidata":"Q18169","operator:wikipedia":"en:Korail","public_transport":"stop_position","railway":"stop","ref":"P160","subway":"yes","train":"yes"}},{"type":"node","id":3429566621,"lat":37.5492052,"lon":126.9134584,"tags":{"name":"합정","name:ja":"合井","operator":"서울교통공사","public_transport":"stop_position","railway":"stop","source":"survey","subway":"yes"}},{"type":"node","id":3605365336,"lat":37.4624724,"lon":127.1397967,"tags":{"name":"남위례","name:en":"Namwirye","name:ko":"남위례","operator":"서울교통공사","public_transport":"stop_position","railway":"stop","start_date":"2021-12-18","subway":"yes"}},{"type":"node","id":3818491433,"lat":37.5451375,"lon":126.9719211,"tags":{"alt_name":"갈월","name":"숙대입구","name:en":"Sookmyung Women's Univ.","name:ko":"숙대입구","operator":"서울교통공사","public_transport":"stop_position","railway":"stop","subway":"yes"}},{"type":"node","id":3823777524,"lat":37.5738974,"lon":127.0864879,"tags":{"name":"용마산","name:ko":"용마산","network":"서울 지하철","operator":"서울교통공사","operator:en":"Seoul Metro","operator:ko":"서울교통공사","operator:type":"public","operator:wikidata":"Q28699048","public_transport":"stop_position","railway":"stop","ref":"723","subway":"yes"}},{"type":"node","id":3824606377,"lat":37.5050376,"lon":127.0049022,"tags":{"name":"고속터미널","name:en":"Express Bus Terminal","name:ja":"高速ターミナル","name:ko":"고속터미널","public_transport":"stop_position","railway":"stop","ref":"339","subway":"yes"}},{"type":"node","id":3832931179,"lat":37.5587614,"lon":126.978436,"tags":{"name":"회현(남대문시장)","name:en":"Hoehyeon (Namdaemun Market)","name:ko":"회현(남대문시장)","operator":"서울교통공사","public_transport":"stop_position","railway":"stop","ref":"425","subway":"yes"}},{"type":"node","id":3833429765,"lat":37.5707564,"lon":127.0093746,"tags":{"bicycle":"yes","layer":"-4","level":"-4","level:ref":"B4","name":"동대문","name:en":"Dongdaemun","name:ja":"東大門","name:ko":"동대문","name:zh":"东大门","name:zh-Hans":"东大门","name:zh-Hant":"東大門","network":"수도권 전철","network:en":"Seoul Metropolitan Subway System","network:ko":"수도권 전철","operator":"서울교통공사","operator:en":"Seoul Metro","operator:ko":"서울교통공사","public_transport":"stop_position","railway":"stop","ref":"421","subway":"yes"}},{"type":"node","id":3833429767,"lat":37.5720185,"lon":126.9916922,"tags":{"bicycle":"yes","layer":"-4","level":"-4","level:ref":"B4","name":"종로3가","name:en":"Jongno 3(sam)-ga","name:ja":"鐘路3街","name:ko":"종로3가","public_transport":"stop_position","railway":"stop","ref":"329","subway":"yes"}},{"type":"node","id":3833429777,"lat":37.5606488,"lon":126.9948063,"tags":{"name":"충무로","name:en":"Chungmuro","name:ko":"충무로","public_transport":"stop_position","railway":"stop","ref":"331","subway":"yes"}},{"type":"node","id":3833429779,"lat":37.5610655,"lon":126.9926025,"tags":{"name":"충무로","name:en":"Chungmuro","name:ko":"충무로","operator":"서울교통공사","public_transport":"stop_position","railway":"stop","ref":"423","subway":"yes"}},{"type":"node","id":3833429822,"lat":37.5702032,"lon":126.9842395,"tags":{"name":"종각","name:en":"Jonggak","name:ko":"종각","operator":"서울교통공사","public_transport":"stop_position","railway":"stop","ref":"131","subway":"yes"}},{"type":"node","id":3833430060,"lat":37.5715049,"lon":127.0099593,"tags":{"addr:city":"서울특별시","addr:district":"종로구","addr:housenumber":"302","addr:postcode":"03119","addr:street":"종로","addr:subdistrict":"창신동","layer":"-2","level":"-2","level:ref":"B2","name":"동대문","name:en":"Dongdaemun","name:ja":"トンデムン (東大門)","name:ko":"동대문","network":"서울 지하철","network:en":"Seoul Metropolitan Subway System","network:ko":"서울 지하철","operator":"서울교통공사","operator:en":"Seoul Metro","operator:ko":"서울교통공사","public_transport":"stop_position","railway":"stop","ref":"128","subway":"yes"}},{"type":"node","id":3833430063,"lat":37.5720439,"lon":127.0121562,"tags":{"addr:city":"서울특별시","addr:district":"종로구","addr:housenumber":"302","addr:postcode":"03119","addr:street":"종로","addr:subdistrict":"창신동","layer":"-2","level":"-2","level:ref":"B2","name":"동대문","name:en":"Dongdaemun","name:ja":"トンデム(東大門)","name:ko":"동대문","network":"서울 지하철","network:en":"Seoul Metropolitan Subway System","network:ko":"서울 지하철","operator":"서울교통공사","operator:en":"Seoul Metro","operator:ko":"서울교통공사","public_transport":"stop_position","railway":"stop","ref":"128","subway":"yes"}},{"type":"node","id":3833430101,"lat":37.5663105,"lon":126.977135,"tags":{"layer":"-2","level":"-2","level:ref":"B2","name":"시청","name:en":"City Hall","name:ja":"市庁","name:ko":"시청","name:ko-Hani":"市廳","name:ko-Kana":"シチョン","name:zh":"市厅","operator":"서울교통공사","public_transport":"stop_position","railway":"stop","ref":"132","subway":"yes"}},{"type":"node","id":3833430103,"lat":37.5704988,"lon":126.9933319,"tags":{"name":"종로3가","name:en":"Jongno 3(sam)-ga","name:ko":"종로3가","network":"서울 지하철","operator":"서울교통공사","public_transport":"stop_position","railway":"stop","ref":"130","subway":"yes"}},{"type":"node","id":3833430104,"lat":37.5710332,"lon":127.0030709,"tags":{"name":"종로5가","name:en":"Jongno 5(o)-ga","name:ko":"종로5가","operator":"서울교통공사","public_transport":"stop_position","railway":"stop","ref":"129","subway":"yes"}},{"type":"node","id":3834816087,"lat":37.5307567,"lon":126.966044,"tags":{"addr:city":"서울특별시","addr:district":"용산구","addr:housenumber":"55","addr:postcode":"04377","addr:street":"한강대로23길","addr:subdistrict":"한강로3가","local_ref":"6","name":"용산","name:en":"Yongsan","name:ja":"ヨンサン(龍山)","name:ko":"용산","network":"수도권 전철","network:en":"Seoul Metropolitan Subway System","network:ko":"수도권 전철","operator":"한국철도공사","operator:en":"Korea Railroad Corporation","operator:ko":"한국철도공사","operator:short":"KORAIL","operator:type":"public","operator:wikidata":"Q18169","operator:wikipedia":"en:Korail","public_transport":"stop_position","railway":"stop","ref":"135","subway":"yes","train":"yes"}},{"type":"node","id":3835922764,"lat":37.6131644,"lon":127.0300744,"tags":{"name":"미아사거리","name:en":"Miasageori","name:ja":"弥阿サゴリ","operator":"서울교통공사","public_transport":"stop_position","railway":"stop","ref":"416","subway":"yes"}},{"type":"node","id":3846532985,"lat":37.5541596,"lon":127.0103961,"tags":{"name":"약수","public_transport":"stop_position","railway":"stop","subway":"yes"}},{"type":"node","id":3870730016,"lat":37.4523997,"lon":127.0011547,"tags":{"name":"선바위","name:en":"Seonbawi","name:ko":"선바위","operator":"한국철도공사","operator:en":"Korea Railroad Corporation","operator:ko":"한국철도공사","operator:short":"KORAIL","operator:type":"public","operator:wikidata":"Q18169","operator:wikipedia":"en:Korail","public_transport":"stop_position","railway":"stop","ref":"435","train":"yes"}},{"type":"node","id":3888944113,"lat":37.6340617,"lon":127.0175414,"tags":{"light_rail":"yes","name":"화계","name:en":"Hwagye","name:ja":"ファゲ(華溪)","name:ko":"화계","name:zh":"華溪","public_transport":"stop_position","railway":"stop","ref":"L05","wikidata":"Q28943576"}},{"type":"node","id":4246459937,"lat":37.600931,"lon":127.0669802,"tags":{"local_ref":"2","name":"신이문","name:en":"Sinimun (Korea National University of Arts)","name:ko":"신이문","network":"수도권 전철","operator":"한국철도공사","operator:en":"Korea Railroad Corporation","operator:ko":"한국철도공사","operator:short":"KORAIL","operator:type":"public","operator:wikidata":"Q18169","operator:wikipedia":"en:Korail","public_transport":"stop_position","railway":"stop","ref":"121","subway":"yes","train":"yes"}},{"type":"node","id":4246459981,"lat":37.6026659,"lon":127.0676199,"tags":{"local_ref":"1","name":"신이문","name:en":"Sinimun (Korea National University of Arts)","name:ko":"신이문","network":"수도권 전철","operator":"한국철도공사","operator:en":"Korea Railroad Corporation","operator:ko":"한국철도공사","operator:short":"KORAIL","operator:type":"public","operator:wikidata":"Q18169","operator:wikipedia":"en:Korail","public_transport":"stop_position","railway":"stop","ref":"121","subway":"yes","train":"yes"}},{"type":"node","id":4247043883,"lat":37.6237444,"lon":127.0617173,"tags":{"local_ref":"2","name":"광운대","name:en":"Kwangwoon University","name:ko":"광운대","network":"수도권 전철","operator":"한국철도공사","operator:en":"Korea Railroad Corporation","operator:ko":"한국철도공사","operator:short":"KORAIL","operator:type":"public","operator:wikidata":"Q18169","operator:wikipedia":"en:Korail","public_transport":"stop_position","railway":"stop","ref":"119","subway":"yes","train":"yes"}},{"type":"node","id":4247043884,"lat":37.6247622,"lon":127.0612195,"tags":{"local_ref":"1","name":"광운대","name:en":"Kwangwoon University","name:ko":"광운대","network":"수도권 전철","operator":"한국철도공사","operator:en":"Korea Railroad Corporation","operator:ko":"한국철도공사","operator:short":"KORAIL","operator:type":"public","operator:wikidata":"Q18169","operator:wikipedia":"en:Korail","public_transport":"stop_position","railway":"stop","ref":"119","subway":"yes","train":"yes"}},{"type":"node","id":4247043891,"lat":37.6235022,"lon":127.06205,"tags":{"local_ref":"4","name":"광운대","name:en":"Kwangwoon University","name:ko":"광운대","network":"수도권 전철","operator":"한국철도공사","operator:en":"Korea Railroad Corporation","operator:ko":"한국철도공사","operator:short":"KORAIL","operator:type":"public","operator:wikidata":"Q18169","operator:wikipedia":"en:Korail","public_transport":"stop_position","railway":"stop","ref":"119","subway":"yes","train":"yes"}},{"type":"node","id":4520040946,"lat":37.7094036,"lon":127.047594,"tags":{"local_ref":"2","name":"망월사","name:en":"Mangwolsa (Shinhan University)","name:ko":"망월사","network":"수도권 전철","operator":"한국철도공사","operator:en":"Korea Railroad Corporation","operator:ko":"한국철도공사","operator:short":"KORAIL","operator:type":"public","operator:wikidata":"Q18169","operator:wikipedia":"en:Korail","public_transport":"stop_position","railway":"stop","ref":"112","subway":"yes","train":"yes"}},{"type":"node","id":4520041007,"lat":37.7247301,"lon":127.0472868,"tags":{"alt_name":"회룡역","alt_name:en":"Hoeryong Station","alt_name:ko":"회룡역","alt_name:ko-Latn":"Hoeryongyeok","name":"회룡","name:en":"Hoeryong","name:ja":"回龍","name:ko":"회룡","name:ko-Latn":"Hoeryong","network":"수도권 전철","network:en":"Seoul Metropolitan Subway System","operator":"한국철도공사","operator:en":"Korea Railroad Corporation","operator:ko":"한국철도공사","operator:short":"KORAIL","operator:type":"public","operator:wikidata":"Q18169","operator:wikipedia":"en:Korail","public_transport":"stop_position","railway":"stop","ref":"111","subway":"yes","train":"yes"}},{"type":"node","id":4520130246,"lat":37.6901846,"lon":127.0463258,"tags":{"name":"도봉산","name:en":"Dobongsan","name:ko":"도봉산","network":"서울 지하철","operator":"서울교통공사","operator:en":"Seoul Metro","operator:ko":"서울교통공사","operator:type":"public","operator:wikidata":"Q28699048","public_transport":"stop_position","railway":"stop","ref":"710","subway":"yes"}},{"type":"node","id":4520130252,"lat":37.6888071,"lon":127.0467403,"tags":{"name":"도봉산","name:en":"Dobongsan","name:ko":"도봉산","network":"서울 지하철","operator":"서울교통공사","operator:en":"Seoul Metro","operator:ko":"서울교통공사","operator:type":"public","operator:wikidata":"Q28699048","public_transport":"stop_position","railway":"stop","ref":"710","subway":"yes"}},{"type":"node","id":4656708833,"lat":37.8195691,"lon":127.0570012,"tags":{"local_ref":"1","name":"덕계","name:en":"Deokgye","name:ko":"덕계","network":"수도권 전철","operator":"한국철도공사","operator:en":"Korea Railroad Corporation","operator:ko":"한국철도공사","operator:short":"KORAIL","operator:type":"public","operator:wikidata":"Q18169","operator:wikipedia":"en:Korail","public_transport":"stop_position","railway":"stop","ref":"106","subway":"yes","train":"yes"}},{"type":"node","id":4706526694,"lat":37.6016296,"lon":127.07945,"tags":{"name":"중화","name:ko":"중화","network":"서울 지하철","operator":"서울교통공사","operator:en":"Seoul Metro","operator:ko":"서울교통공사","operator:type":"public","operator:wikidata":"Q28699048","public_transport":"stop_position","railway":"stop","ref":"719","subway":"yes"}},{"type":"node","id":4718341773,"lat":36.8332818,"lon":127.149214,"tags":{"local_ref":"1","name":"두정","name:en":"Dujeong","name:ko":"두정","network":"수도권 전철","operator":"한국철도공사","operator:en":"Korea Railroad Corporation","operator:ko":"한국철도공사","operator:short":"KORAIL","operator:type":"public","operator:wikidata":"Q18169","operator:wikipedia":"en:Korail","public_transport":"stop_position","railway":"stop","ref":"P168","subway":"yes","train":"yes"}},{"type":"node","id":4752396541,"lat":36.8349521,"lon":127.1486184,"tags":{"local_ref":"2","name":"두정","name:en":"Dujeong","name:ko":"두정","network":"수도권 전철","operator":"한국철도공사","operator:en":"Korea Railroad Corporation","operator:ko":"한국철도공사","operator:short":"KORAIL","operator:type":"public","operator:wikidata":"Q18169","operator:wikipedia":"en:Korail","public_transport":"stop_position","railway":"stop","ref":"P168","subway":"yes","train":"yes"}},{"type":"node","id":4809472051,"lat":37.451584,"lon":127.159804,"tags":{"alt_name":"성남법원·검찰청역","alt_name:en":"Seongnam Court & Public Prosecutor's Office Station","alt_name:ko":"성남법원·검찰청역","name":"남한산성입구","name:en":"Namhansanseong","name:ja":"南漢山城入口","name:ko":"남한산성입구","public_transport":"stop_position","railway":"stop","subway":"yes"}},{"type":"node","id":4852979216,"lat":37.6027635,"lon":127.0134067,"tags":{"light_rail":"yes","name":"정릉","name:en":"Jeongneung","name:ja":"チョンヌン(貞陵)","name:ko":"정릉","name:zh":"貞陵","public_transport":"stop_position","railway":"stop","ref":"L10","wikidata":"Q28943581","wikipedia":"ko:정릉역"}},{"type":"node","id":4852979526,"lat":37.6120218,"lon":127.0083344,"tags":{"light_rail":"yes","name":"북한산보국문","name:en":"Bukhansan Bogungmun","name:ja":"プカンサンボグンムン","name:ko":"북한산보국문","name:zh":"北漢山輔國門","public_transport":"stop_position","railway":"stop"}},{"type":"node","id":4852984870,"lat":37.6420937,"lon":127.0165811,"tags":{"light_rail":"yes","name":"가오리","name:en":"Gaori","name:ja":"カオリ(加五里)","name:ko":"가오리","name:zh":"加五里","public_transport":"stop_position","railway":"stop","ref":"L04","wikidata":"Q28943575"}},{"type":"node","id":4852984874,"lat":37.649379,"lon":127.0136969,"tags":{"alt_name":"덕성여대","light_rail":"yes","name":"4.19민주묘지","name:en":"April 19th National Cemetery","name:ja":"サ.イルグミンジュミョジ(4.19民主墓地)","name:ko":"4.19민주묘지","name:zh":"四一九民主墓地","public_transport":"stop_position","railway":"stop","ref":"L03","wikidata":"Q28943574"}},{"type":"node","id":4852984875,"lat":37.6559701,"lon":127.0132691,"tags":{"light_rail":"yes","name":"솔밭공원","name:en":"Solbat Park","name:ja":"ソルバッコンウォン(松林公園)","name:ko":"솔밭공원","name:zh":"松林公園","public_transport":"stop_position","railway":"stop","ref":"L02","wikidata":"Q28943573"}},{"type":"node","id":4852984876,"lat":37.6633908,"lon":127.0124238,"tags":{"light_rail":"yes","name":"북한산우이","name:en":"Bukhansan Ui","name:ja":"プカンサンウイ(北漢山牛耳)","name:ko":"북한산우이","name:zh":"北汉山牛耳","public_transport":"stop_position","railway":"stop","ref":"L01","wikidata":"Q29160503"}},{"type":"node","id":4852989058,"lat":37.6201309,"lon":127.0137405,"tags":{"light_rail":"yes","name":"솔샘","name:en":"Solsaem","name:ja":"ソルセム(松泉)","name:ko":"솔샘","name:zh":"松泉","public_transport":"stop_position","railway":"stop","ref":"L08","wikidata":"Q28943579"}},{"type":"node","id":4852989066,"lat":37.621174,"lon":127.020514,"tags":{"light_rail":"yes","name":"삼양사거리","name:en":"Samyang Sageori","name:ja":"サミャンサゴリ(三陽十字路口)","name:ko":"삼양사거리","name:zh":"三陽十字路口","public_transport":"stop_position","railway":"stop","ref":"L07","wikidata":"Q28943578"}},{"type":"node","id":4852989079,"lat":37.6269761,"lon":127.0182242,"tags":{"light_rail":"yes","name":"삼양","name:en":"Samyang","name:ja":"サミャン(三陽)","name:ko":"삼양","name:zh":"三陽","public_transport":"stop_position","railway":"stop","ref":"L06","wikidata":"Q28943577"}},{"type":"node","id":4881356284,"lat":37.927548,"lon":127.05497,"tags":{"local_ref":"1","name":"동두천","name:en":"Dongducheon","name:ko":"동두천","network":"수도권 전철","operator":"한국철도공사","operator:en":"Korea Railroad Corporation","operator:ko":"한국철도공사","operator:short":"KORAIL","operator:type":"public","operator:wikidata":"Q18169","operator:wikipedia":"en:Korail","public_transport":"stop_position","railway":"stop","ref":"101","train":"yes"}},{"type":"node","id":4881356285,"lat":37.9266917,"lon":127.0550196,"tags":{"local_ref":"2","name":"동두천","name:en":"Dongducheon","name:ko":"동두천","operator":"한국철도공사","operator:en":"Korea Railroad Corporation","operator:ko":"한국철도공사","operator:short":"KORAIL","operator:type":"public","operator:wikidata":"Q18169","operator:wikipedia":"en:Korail","public_transport":"stop_position","railway":"stop","ref":"2","train":"yes"}},{"type":"node","id":4937987035,"lat":37.9133009,"lon":127.0573342,"tags":{"local_ref":"2","name":"보산","name:en":"Bosan","name:ko":"보산","network":"수도권 전철","operator":"한국철도공사","operator:en":"Korea Railroad Corporation","operator:ko":"한국철도공사","operator:short":"KORAIL","operator:type":"public","operator:wikidata":"Q18169","operator:wikipedia":"en:Korail","public_transport":"stop_position","railway":"stop","ref":"102","subway":"yes","train":"yes"}},{"type":"node","id":4937987051,"lat":37.9008562,"lon":127.0564914,"tags":{"alt_ref":"0409","local_ref":"3","name":"동두천중앙","name:en":"Dongducheonjungang","name:ko":"동두천중앙","network":"수도권 전철","operator":"한국철도공사","operator:en":"Korea Railroad Corporation","operator:ko":"한국철도공사","operator:short":"KORAIL","operator:type":"public","operator:wikidata":"Q18169","operator:wikipedia":"en:Korail","public_transport":"stop_position","rail":"stop","railway":"stop","railway:ref":"동두중","ref":"103","ref:AFC":"1913","ref:KROIS":"130503","ref:XROIS":"3900410","subway":"yes","train":"yes"}},{"type":"node","id":4939679013,"lat":37.8915262,"lon":127.0557765,"tags":{"local_ref":"3","name":"지행","name:en":"Jihaeng","name:ko":"지행","network":"수도권 전철","operator":"한국철도공사","operator:en":"Korea Railroad Corporation","operator:ko":"한국철도공사","operator:short":"KORAIL","operator:type":"public","operator:wikidata":"Q18169","operator:wikipedia":"en:Korail","public_transport":"stop_position","railway":"stop","ref":"104","subway":"yes","train":"yes"}},{"type":"node","id":4939679248,"lat":37.8424204,"lon":127.0616808,"tags":{"local_ref":"3","name":"덕정","name:en":"Deokjeong (Seojeong College)","name:ko":"덕정","network":"수도권 전철","operator":"한국철도공사","operator:en":"Korea Railroad Corporation","operator:ko":"한국철도공사","operator:short":"KORAIL","operator:type":"public","operator:wikidata":"Q18169","operator:wikipedia":"en:Korail","public_transport":"stop_position","railway":"stop","ref":"105","subway":"yes","train":"yes"}},{"type":"node","id":4954074025,"lat":37.20589,"lon":127.0337092,"tags":{"local_ref":"2","name":"병점","name:en":"Byeongjeom","name:ko":"병점","network":"수도권 전철","operator":"한국철도공사","operator:en":"Korea Railroad Corporation","operator:ko":"한국철도공사","operator:short":"KORAIL","operator:type":"public","operator:wikidata":"Q18169","operator:wikipedia":"en:Korail","public_transport":"stop_position","railway":"stop","subway":"yes","train":"yes"}},{"type":"node","id":4954074030,"lat":37.2074755,"lon":127.0326991,"tags":{"local_ref":"3","name":"병점","name:en":"Byeongjeom","name:ko":"병점","network":"수도권 전철","operator":"한국철도공사","operator:en":"Korea Railroad Corporation","operator:ko":"한국철도공사","operator:short":"KORAIL","operator:type":"public","operator:wikidata":"Q18169","operator:wikipedia":"en:Korail","public_transport":"stop_position","railway":"stop","ref":"P157","subway":"yes","train":"yes"}},{"type":"node","id":4954074037,"lat":37.2074285,"lon":127.0325778,"tags":{"local_ref":"4","name":"병점","name:en":"Byeongjeom","name:ko":"병점","network":"수도권 전철","operator":"한국철도공사","operator:en":"Korea Railroad Corporation","operator:ko":"한국철도공사","operator:short":"KORAIL","operator:type":"public","operator:wikidata":"Q18169","operator:wikipedia":"en:Korail","public_transport":"stop_position","railway":"stop","subway":"yes","train":"yes"}},{"type":"node","id":4954074038,"lat":37.2065157,"lon":127.0335067,"tags":{"local_ref":"1","name":"병점","name:en":"Byeongjeom","name:ko":"병점","network":"수도권 전철","operator":"한국철도공사","operator:en":"Korea Railroad Corporation","operator:ko":"한국철도공사","operator:short":"KORAIL","operator:type":"public","operator:wikidata":"Q18169","operator:wikipedia":"en:Korail","public_transport":"stop_position","railway":"stop","ref":"P157","subway":"yes","train":"yes"}},{"type":"node","id":4974511636,"lat":37.3132003,"lon":126.9044748,"tags":{"local_ref":"1","name":"반월","name:en":"Banwol","name:ko":"반월","network":"수도권 전철","operator":"한국철도공사","operator:en":"Korea Railroad Corporation","operator:ko":"한국철도공사","operator:short":"KORAIL","operator:type":"public","operator:wikidata":"Q18169","operator:wikipedia":"en:Korail","public_transport":"stop_position","railway":"stop","ref":"447","subway":"yes"}},{"type":"node","id":4974511637,"lat":37.3116652,"lon":126.9032326,"tags":{"local_ref":"2","name":"반월","name:en":"Banwol","name:ko":"반월","network":"수도권 전철","operator":"한국철도공사","operator:en":"Korea Railroad Corporation","operator:ko":"한국철도공사","operator:short":"KORAIL","operator:type":"public","operator:wikidata":"Q18169","operator:wikipedia":"en:Korail","public_transport":"stop_position","railway":"stop","ref":"447","subway":"yes"}},{"type":"node","id":4974511651,"lat":37.3287298,"lon":126.9175123,"tags":{"local_ref":"1","name":"대야미","name:en":"Daeyami","name:ko":"대야미","network":"수도권 전철","operator":"한국철도공사","operator:en":"Korea Railroad Corporation","operator:ko":"한국철도공사","operator:short":"KORAIL","operator:type":"public","operator:wikidata":"Q18169","operator:wikipedia":"en:Korail","public_transport":"stop_position","railway":"stop","ref":"446","subway":"yes"}},{"type":"node","id":4988033142,"lat":37.4547275,"lon":126.8945482,"tags":{"alt_ref":"0252","local_ref":"1","name":"금천구청","name:en":"Geumcheon-gu Office","name:ja":"衿川区庁","name:ko":"금천구청","name:zh":"衿川区厅","network":"수도권 전철","old_name":"시흥","old_name:en":"Siheung","old_name:ko":"시흥","operator":"한국철도공사","operator:en":"Korea Railroad Corporation","operator:ko":"한국철도공사","operator:short":"KORAIL","operator:type":"public","operator:wikidata":"Q18169","operator:wikipedia":"en:Korail","public_transport":"stop_position","railway":"stop","railway:ref":"금천구","ref":"P144","ref:AFC":"1703","ref:KROIS":"010173","ref:XROIS":"3900036","train":"yes"}},{"type":"node","id":5050088095,"lat":37.8179643,"lon":127.0564018,"tags":{"local_ref":"2","name":"덕계","name:en":"Deokgye","name:ko":"덕계","network":"수도권 전철","operator":"한국철도공사","operator:en":"Korea Railroad Corporation","operator:ko":"한국철도공사","operator:short":"KORAIL","operator:type":"public","operator:wikidata":"Q18169","operator:wikipedia":"en:Korail","public_transport":"stop_position","railway":"stop","ref":"106","subway":"yes","train":"yes"}},{"type":"node","id":5050088099,"lat":37.7749585,"lon":127.0447925,"tags":{"local_ref":"2","name":"양주","name:en":"Yangju","name:ja":"楊州","name:ko":"양주","network":"수도권 전철","operator":"한국철도공사","operator:en":"Korea Railroad Corporation","operator:ko":"한국철도공사","operator:short":"KORAIL","operator:type":"public","operator:wikidata":"Q18169","operator:wikipedia":"en:Korail","public_transport":"stop_position","railway":"stop","ref":"107","subway":"yes","train":"yes"}},{"type":"node","id":5050088100,"lat":37.7733153,"lon":127.0447041,"tags":{"covered":"yes","local_ref":"3","name":"양주","name:en":"Yangju","name:ja":"楊州","name:ko":"양주","network":"수도권 전철","operator":"한국철도공사","operator:en":"Korea Railroad Corporation","operator:ko":"한국철도공사","operator:short":"KORAIL","operator:type":"public","operator:wikidata":"Q18169","operator:wikipedia":"en:Korail","public_transport":"stop_position","railway":"stop","ref":"107","subway":"yes","train":"yes"}},{"type":"node","id":5050088101,"lat":37.7602968,"lon":127.0423398,"tags":{"local_ref":"1","name":"녹양","name:en":"Nogyang","name:ko":"녹양","network":"수도권 전철","operator":"한국철도공사","operator:en":"Korea Railroad Corporation","operator:ko":"한국철도공사","operator:short":"KORAIL","operator:type":"public","operator:wikidata":"Q18169","operator:wikipedia":"en:Korail","public_transport":"stop_position","railway":"stop","ref":"108","subway":"yes","train":"yes"}},{"type":"node","id":5050088102,"lat":37.758501,"lon":127.042323,"tags":{"local_ref":"2","name":"녹양","name:en":"Nogyang","name:ko":"녹양","network":"수도권 전철","operator":"한국철도공사","operator:en":"Korea Railroad Corporation","operator:ko":"한국철도공사","operator:short":"KORAIL","operator:type":"public","operator:wikidata":"Q18169","operator:wikipedia":"en:Korail","public_transport":"stop_position","railway":"stop","ref":"108","subway":"yes","train":"yes"}},{"type":"node","id":5050088114,"lat":37.7491005,"lon":127.0441098,"tags":{"local_ref":"1","name":"가능","name:en":"Ganeung","name:ko":"가능","network":"수도권 전철","operator":"한국철도공사","operator:en":"Korea Railroad Corporation","operator:ko":"한국철도공사","operator:short":"KORAIL","operator:type":"public","operator:wikidata":"Q18169","operator:wikipedia":"en:Korail","public_transport":"stop_position","railway":"stop","ref":"109","subway":"yes","train":"yes"}},{"type":"node","id":5050088115,"lat":37.7476557,"lon":127.0447039,"tags":{"local_ref":"2","name":"가능","name:en":"Ganeung","name:ko":"가능","network":"수도권 전철","operator":"한국철도공사","operator:en":"Korea Railroad Corporation","operator:ko":"한국철도공사","operator:short":"KORAIL","operator:type":"public","operator:wikidata":"Q18169","operator:wikipedia":"en:Korail","public_transport":"stop_position","railway":"stop","ref":"109","subway":"yes","train":"yes"}},{"type":"node","id":5115004676,"lat":37.753989,"lon":127.0773992,"tags":{"light_rail":"yes","name":"효자","name:en":"Hyoja","name:ja":"孝子","name:ja-Hira":"ヒョジャ","name:ko":"효자","public_transport":"stop_position","railway":"stop","ref":"U121","wikidata":"Q702912","wikipedia":"ko:효자역 (의정부)"}},{"type":"node","id":5204562065,"lat":37.4774612,"lon":126.6170663,"tags":{"local_ref":"2","name":"인천","name:en":"Incheon","name:ja":"仁川","name:ko":"인천","name:zh":"仁川","network":"수도권 전철","operator":"한국철도공사","operator:en":"Korea Railroad Corporation","operator:ko":"한국철도공사","operator:short":"KORAIL","operator:type":"public","operator:wikidata":"Q18169","operator:wikipedia":"en:Korail","public_transport":"stop_position","railway":"stop","ref":"161","train":"yes"}},{"type":"node","id":5225259404,"lat":37.4845433,"lon":127.034317,"tags":{"alt_name":"양재역","alt_name:en":"Yangjae Station","alt_name:ko":"양재역","name":"양재","name:en":"Yangjae","name:ja":"ヤンジェ","name:ko":"양재","name:zh":"良才","public_transport":"stop_position","railway":"stop","ref":"342","subway":"yes"}},{"type":"node","id":5225311375,"lat":37.4908838,"lon":127.0554872,"tags":{"name":"도곡","name:en":"Dogok","name:ja":"道谷","name:ko":"도곡","public_transport":"stop_position","railway":"stop","railway:position":"29.7","railway:ref":"3도곡","ref":"344","ref:AFC":"334","ref:KROIS":"930298","ref:XROIS":"3900821","start_date":"1993-10-30","subway":"yes"}},{"type":"node","id":5281680295,"lat":37.6368537,"lon":126.9187721,"tags":{"name":"구파발","name:en":"Gupabal","name:ko":"구파발","public_transport":"stop_position","railway":"stop","ref":"320","subway":"yes"}},{"type":"node","id":5304357332,"lat":37.1687277,"lon":127.0633372,"tags":{"local_ref":"1","name":"오산대","name:en":"Osan College","name:ko":"오산대","network":"수도권 전철","operator":"서울교통공사","public_transport":"stop_position","railway":"stop","ref":"P159","subway":"yes","train":"yes"}},{"type":"node","id":5304357345,"lat":37.1438724,"lon":127.0666675,"tags":{"local_ref":"2","name":"오산","name:en":"Osan","name:ko":"오산","network":"수도권 전철","operator":"한국철도공사","operator:en":"Korea Railroad Corporation","operator:ko":"한국철도공사","operator:short":"KORAIL","operator:type":"public","operator:wikidata":"Q18169","operator:wikipedia":"en:Korail","public_transport":"stop_position","railway":"stop","ref":"P160","subway":"yes","train":"yes"}},{"type":"node","id":5304357423,"lat":37.0556777,"lon":127.0528971,"tags":{"local_ref":"3","name":"서정리","name:en":"Seojeong-ri","name:ko":"서정리","network":"수도권 전철","operator":"한국철도공사","operator:en":"Korea Railroad Corporation","operator:ko":"한국철도공사","operator:short":"KORAIL","operator:type":"public","operator:wikidata":"Q18169","operator:wikipedia":"en:Korail","public_transport":"stop_position","railway":"stop","ref":"P163","train":"yes"}},{"type":"node","id":5304357449,"lat":37.0182009,"lon":127.070582,"tags":{"local_ref":"1","name":"평택지제","name:en":"Pyeongtaek Jije","name:ko":"평택지제","network":"수도권 전철","operator":"한국철도공사","operator:en":"Korea Railroad Corporation","operator:ko":"한국철도공사","operator:short":"KORAIL","operator:type":"public","operator:wikidata":"Q18169","operator:wikipedia":"en:Korail","public_transport":"stop_position","railway":"stop","ref":"P164","subway":"yes","train":"yes"}},{"type":"node","id":5338792759,"lat":37.3371406,"lon":126.7680747,"tags":{"alt_name":"능길","alt_name:en":"Neunggil","alt_ref":"0888","local_ref":"1","name":"신길온천","name:en":"Singiloncheon","name:ko":"신길온천","operator":"한국철도공사","operator:en":"Korea Railroad Corporation","operator:ko":"한국철도공사","operator:short":"KORAIL","operator:type":"public","operator:wikidata":"Q18169","operator:wikipedia":"en:Korail","public_transport":"stop_position","railway":"stop","railway:ref":"신길온","ref":"454;K256","ref:KROIS":"210217","ref:XROIS":"3900462","subway":"yes","train":"yes"}},{"type":"node","id":5347790595,"lat":37.3515156,"lon":126.7440131,"tags":{"local_ref":"1","name":"정왕","name:en":"Jeongwang","name:ko":"정왕","operator":"서울교통공사","public_transport":"stop_position","railway":"stop","ref":"455;K257","subway":"yes","train":"yes"}},{"type":"node","id":5347802253,"lat":37.3512681,"lon":126.92581,"tags":{"name":"수리산","name:en":"Surisan","name:ko":"수리산","network":"수도권 전철","operator":"한국철도공사","operator:en":"Korea Railroad Corporation","operator:ko":"한국철도공사","operator:short":"KORAIL","operator:type":"public","operator:wikidata":"Q18169","operator:wikipedia":"en:Korail","public_transport":"stop_position","railway":"stop","ref":"445","train":"yes"}},{"type":"node","id":5347802254,"lat":37.3498152,"lon":126.9253962,"tags":{"name":"수리산","name:en":"Surisan","name:ko":"수리산","network":"수도권전철4호선","operator":"한국철도공사","operator:en":"Korea Railroad Corporation","operator:ko":"한국철도공사","operator:short":"KORAIL","operator:type":"public","operator:wikidata":"Q18169","operator:wikipedia":"en:Korail","public_transport":"stop_position","railway":"stop","ref":"445","train":"yes"}},{"type":"node","id":5347811349,"lat":37.3579623,"lon":126.9331613,"tags":{"local_ref":"1","name":"산본","name:en":"Sanbon","name:ja":"山本","name:ko":"산본","operator":"한국철도공사","operator:en":"Korea Railroad Corporation","operator:ko":"한국철도공사","operator:short":"KORAIL","operator:type":"public","operator:wikidata":"Q18169","operator:wikipedia":"en:Korail","public_transport":"stop_position","railway":"stop","ref":"444","train":"yes"}},{"type":"node","id":5347811350,"lat":37.3581555,"lon":126.9329995,"tags":{"local_ref":"4","name":"산본","name:en":"Sanbon","name:ja":"山本","name:ko":"산본","name:ko-Latn":"Sanbon","operator":"한국철도공사","operator:en":"Korea Railroad Corporation","operator:ko":"한국철도공사","operator:short":"KORAIL","operator:type":"public","operator:wikidata":"Q18169","operator:wikipedia":"en:Korail","public_transport":"stop_position","railway":"stop","ref":"444","train":"yes"}},{"type":"node","id":5347811351,"lat":37.3584509,"lon":126.9337612,"tags":{"local_ref":"3","name":"산본","name:en":"Sanbon","name:ja":"山本","name:ko":"산본","name:ko-Latn":"Sanbon","network":"수도권 전철","operator":"한국철도공사","operator:en":"Korea Railroad Corporation","operator:ko":"한국철도공사","operator:short":"KORAIL","operator:type":"public","operator:wikidata":"Q18169","operator:wikipedia":"en:Korail","public_transport":"stop_position","railway":"stop","ref":"444","train":"yes"}},{"type":"node","id":5347811352,"lat":37.3575433,"lon":126.9321639,"tags":{"local_ref":"2","name":"산본","name:en":"Sanbon","name:ja":"山本","name:ko":"산본","operator":"한국철도공사","operator:en":"Korea Railroad Corporation","operator:ko":"한국철도공사","operator:short":"KORAIL","operator:type":"public","operator:wikidata":"Q18169","operator:wikipedia":"en:Korail","public_transport":"stop_position","railway":"stop","ref":"444","train":"yes"}},{"type":"node","id":5349743239,"lat":37.3160633,"lon":126.8374647,"tags":{"name":"중앙","name:en":"Jungang","name:ja":"中央","name:ko":"중앙","operator":"한국철도공사","operator:en":"Korea Railroad Corporation","operator:ko":"한국철도공사","operator:short":"KORAIL","operator:type":"public","operator:wikidata":"Q18169","operator:wikipedia":"en:Korail","public_transport":"stop_position","railway":"stop","ref":"450;K252","subway":"yes","train":"yes"}},{"type":"node","id":5349743240,"lat":37.3159924,"lon":126.8395205,"tags":{"name":"중앙","name:en":"Jungang","name:ja":"中央","name:ko":"중앙","network":"수도권 전철","operator":"한국철도공사","operator:en":"Korea Railroad Corporation","operator:ko":"한국철도공사","operator:short":"KORAIL","operator:type":"public","operator:wikidata":"Q18169","operator:wikipedia":"en:Korail","public_transport":"stop_position","railway":"stop","ref":"450;K252","subway":"yes","train":"yes"}},{"type":"node","id":5350757260,"lat":37.7269924,"lon":127.0529665,"tags":{"alt_name":"발곡역","alt_name:en":"Balgok Station","alt_name:ko":"발곡역","light_rail":"yes","name":"발곡","name:en":"Balgok","name:ko":"발곡","operator":"인천교통공사","operator:en":"Incheon Transit Corporation","public_transport":"stop_position","railway":"stop","ref":"U110","start_date":"2012-06-29"}},{"type":"node","id":5350757262,"lat":37.7269971,"lon":127.0529344,"tags":{"alt_name":"발곡역","alt_name:en":"Balgok Station","alt_name:ko":"발곡역","light_rail":"yes","name":"발곡","name:en":"Balgok","name:ko":"발곡","operator":"인천교통공사","operator:en":"Incheon Transit Corporation","public_transport":"stop_position","railway":"stop","ref":"U110","start_date":"2012-06-29"}},{"type":"node","id":5350784125,"lat":37.7248253,"lon":127.0476563,"tags":{"alt_name":"회룡역","alt_name:en":"Hoeryong Station","alt_name:ko":"회룡역","alt_name:ko-Latn":"Hoeryongyeok","light_rail":"yes","name":"회룡","name:en":"Hoeryong","name:ja":"回龍","name:ko":"회룡","name:ko-Latn":"Hoeryong","network":"수도권 전철","network:en":"Seoul Metropolitan Subway System","operator":"인천교통공사","operator:en":"Incheon Transit Corporation","public_transport":"stop_position","railway":"stop","ref":"U111"}},{"type":"node","id":5350784126,"lat":37.7250332,"lon":127.0471527,"tags":{"alt_name":"회룡역","alt_name:en":"Hoeryong Station","alt_name:ko":"회룡역","alt_name:ko-Latn":"Hoeryongyeok","light_rail":"yes","name":"회룡","name:en":"Hoeryong","name:ja":"回龍","name:ko":"회룡","name:ko-Latn":"Hoeryong","network":"수도권 전철","network:en":"Seoul Metropolitan Subway System","operator":"인천교통공사","operator:en":"Incheon Transit Corporation","public_transport":"stop_position","ref":"U111"}},{"type":"node","id":5350784134,"lat":37.7230757,"lon":127.0472403,"tags":{"alt_name":"회룡역","alt_name:en":"Hoeryong Station","alt_name:ko":"회룡역","alt_name:ko-Latn":"Hoeryongyeok","name":"회룡","name:en":"Hoeryong","name:ja":"回龍","name:ko":"회룡","name:ko-Latn":"Hoeryong","network":"수도권 전철","network:en":"Seoul Metropolitan Subway System","operator":"한국철도공사","operator:en":"Korea Railroad Corporation","operator:ko":"한국철도공사","operator:short":"KORAIL","operator:type":"public","operator:wikidata":"Q18169","operator:wikipedia":"en:Korail","public_transport":"stop_position","railway":"stop","ref":"111","subway":"yes","train":"yes"}},{"type":"node","id":5353401725,"lat":37.5038331,"lon":127.0053083,"tags":{"name":"고속터미널","name:en":"Express Bus Terminal","name:ja":"高速ターミナ","name:ko":"고속터미널","network":"서울 지하철","operator":"서울교통공사","operator:en":"Seoul Metro","operator:ko":"서울교통공사","operator:type":"public","operator:wikidata":"Q28699048","public_transport":"stop_position","railway":"stop","ref":"734","subway":"yes"}},{"type":"node","id":5408273776,"lat":37.4701567,"lon":127.1266101,"tags":{"name":"복정","name:en":"Bokjeong","name:ja":"ボクチョン","name:ko":"복정","name:zh":"福井","public_transport":"stop_position","railway":"stop","ref":"820","subway":"yes"}},{"type":"node","id":5408283715,"lat":37.7289028,"lon":127.043702,"tags":{"light_rail":"yes","name":"범골","name:en":"Beomgol","name:ko":"범골","public_transport":"stop_position","railway":"stop","ref":"U112"}},{"type":"node","id":5585685808,"lat":37.4895895,"lon":126.7245724,"tags":{"local_ref":"1","name":"부평","name:en":"Bupyeong","name:ja":"富平","name:ko":"부평","name:ko-Kana":"プピョン","name:zh":"富平","operator":"한국철도공사","operator:en":"Korea Railroad Corporation","operator:ko":"한국철도공사","operator:short":"KORAIL","operator:type":"public","operator:wikidata":"Q18169","operator:wikipedia":"en:Korail","public_transport":"stop_position","railway":"stop","ref":"152","subway":"yes","train":"yes"}},{"type":"node","id":5585685809,"lat":37.4893315,"lon":126.7245079,"tags":{"local_ref":"4","name":"부평","name:en":"Bupyeong","name:ja":"富平","name:ko":"부평","name:ko-Kana":"プピョン","name:zh":"富平","operator":"한국철도공사","operator:en":"Korea Railroad Corporation","operator:ko":"한국철도공사","operator:short":"KORAIL","operator:type":"public","operator:wikidata":"Q18169","operator:wikipedia":"en:Korail","public_transport":"stop_position","railway":"stop","ref":"152","subway":"yes","train":"yes"}},{"type":"node","id":5723047769,"lat":37.3211622,"lon":126.8049024,"tags":{"name":"초지 (신안산대학교)","name:en":"Choji","name:ja":"チョジ","name:ko":"초지 (신안산대학교)","name:ko-Hani":"草芝","name:zh":"草芝","operator":"한국철도공사","operator:en":"Korea Railroad Corporation","operator:ko":"한국철도공사","operator:short":"KORAIL","operator:type":"public","operator:wikidata":"Q18169","operator:wikipedia":"en:Korail","public_transport":"stop_position","railway":"stop","ref":"452;K254","subway":"yes","train":"yes"}},{"type":"node","id":5747397251,"lat":37.5852622,"lon":127.0193326,"tags":{"name":"보문","name:en":"Bomun","name:ja":"ポムン","name:ko":"보문","name:zh":"普门","public_transport":"stop_position","railway":"stop","subway":"yes","wikidata":"Q490891"}},{"type":"node","id":5754623761,"lat":37.5925932,"lon":127.0165497,"tags":{"alt_name":"돈암","alt_name:en":"Donam","alt_name:ko":"돈암","light_rail":"yes","name":"성신여대입구","name:en":"Sungshin Women's University","name:ja":"誠信女子大入口","name:ko":"성신여대입구","name:ko-Kana":"ソンシンヨデイック","name:ko-Latn":"Seongsinyeodaeipguyeok","public_transport":"stop_position","railway":"stop","wikidata":"Q497982"}},{"type":"node","id":5754797785,"lat":37.7436756,"lon":127.0498713,"tags":{"light_rail":"yes","name":"의정부중앙","name:en":"Uijeongbu Jung-ang","name:ja":"議政府中央","name:ja-Hira":"ウィジョンブジュンアン","name:ko":"의정부중앙","public_transport":"stop_position","railway":"stop","ref":"U117"}},{"type":"node","id":5757122316,"lat":37.7453477,"lon":127.0571834,"tags":{"light_rail":"yes","name":"동오","name:en":"Dong-o","name:ja":"東梧","name:ja-Hira":"トンオ","name:ko":"동오","public_transport":"stop_position","railway":"stop"}},{"type":"node","id":5757125226,"lat":37.7507504,"lon":127.071814,"tags":{"light_rail":"yes","name":"경기도청북부청사","name:en":"Gyeonggi Provincial Government Northern Office","name:ja":"京畿道庁北部庁舎","name:ja-Hira":"キョンギドチョンブクプチョンサ","name:ko":"경기도청북부청사","public_transport":"stop_position","railway":"stop"}},{"type":"node","id":5771013426,"lat":37.7371073,"lon":127.0873011,"tags":{"light_rail":"yes","name":"송산","name:en":"Songsan","name:ja":"松山","name:ja-Hira":"ソンサン","name:ko":"송산","public_transport":"stop_position","railway":"stop"}},{"type":"node","id":5771033371,"lat":37.7425371,"lon":127.0852351,"tags":{"light_rail":"yes","name":"어룡","name:en":"Eoryong","name:ja":"魚龍","name:ja-Hira":"オリョン","name:ko":"어룡","public_transport":"stop_position","railway":"stop"}},{"type":"node","id":5771041615,"lat":37.7503452,"lon":127.0838985,"tags":{"light_rail":"yes","name":"곤제","name:en":"Gonje","name:ja":"昆弟","name:ja-Hira":"コンジェ","name:ko":"곤제","public_transport":"stop_position","railway":"stop","wikidata":"Q702767","wikipedia":"ko:곤제역"}},{"type":"node","id":5774832187,"lat":37.7432726,"lon":127.0374127,"tags":{"light_rail":"yes","name":"흥선","name:en":"Heungseon","name:ja":"興宣","name:ja-Hira":"フンソン","name:ko":"흥선","public_transport":"stop_position","railway":"stop"}},{"type":"node","id":5786977878,"lat":37.4661036,"lon":126.6698261,"tags":{"local_ref":"1","name":"도화","name:en":"Dohwa","name:ko":"도화","network":"수도권 전철","operator":"한국철도공사","operator:en":"Korea Railroad Corporation","operator:ko":"한국철도공사","operator:short":"KORAIL","operator:type":"public","operator:wikidata":"Q18169","operator:wikipedia":"en:Korail","public_transport":"stop_position","railway":"stop","ref":"157","subway":"yes","train":"yes"}},{"type":"node","id":5801302006,"lat":37.5380736,"lon":127.1232037,"tags":{"name":"천호","name:en":"Cheonho","name:ja":"千戸","public_transport":"stop_position","railway":"stop","subway":"yes"}},{"type":"node","id":5812233466,"lat":37.6529636,"lon":127.0466586,"tags":{"name":"창동","name:en":"Chang-dong","name:ja":"倉洞","name:ko":"창동","operator":"서울교통공사","public_transport":"stop_position","railway":"stop","ref":"412","subway":"yes","wikidata":"Q490519","wikipedia":"ko:창동역"}},{"type":"node","id":5814312744,"lat":37.4919928,"lon":126.8229565,"tags":{"local_ref":"4","name":"온수","name:en":"Onsu","name:ko":"온수","operator":"한국철도공사","operator:en":"Korea Railroad Corporation","operator:ko":"한국철도공사","operator:short":"KORAIL","operator:type":"public","operator:wikidata":"Q18169","operator:wikipedia":"en:Korail","public_transport":"stop_position","railway":"stop","ref":"145","train":"yes"}},{"type":"node","id":5821684795,"lat":37.4788927,"lon":127.1260371,"tags":{"name":"장지","name:en":"Jangji","name:ja":"長旨","name:ko":"장지","public_transport":"stop_position","railway":"stop","subway":"yes"}},{"type":"node","id":5826529388,"lat":37.6522193,"lon":127.0481898,"tags":{"local_ref":"3","name":"창동","name:en":"Chang-Dong","name:ja":"倉洞","name:ko":"창동","network":"수도권 전철","operator":"한국철도공사","operator:en":"Korea Railroad Corporation","operator:ko":"한국철도공사","operator:short":"KORAIL","operator:type":"public","operator:wikidata":"Q18169","operator:wikipedia":"en:Korail","public_transport":"stop_position","railway":"stop","ref":"116","subway":"yes","train":"yes"}},{"type":"node","id":5826529389,"lat":37.6541235,"lon":127.0472657,"tags":{"local_ref":"2","name":"창동","name:en":"Chang-Dong","name:ja":"倉洞","name:ko":"창동","network":"수도권 전철","operator":"한국철도공사","operator:en":"Korea Railroad Corporation","operator:ko":"한국철도공사","operator:short":"KORAIL","operator:type":"public","operator:wikidata":"Q18169","operator:wikipedia":"en:Korail","public_transport":"stop_position","railway":"stop","ref":"116","subway":"yes","train":"yes"}},{"type":"node","id":5835544503,"lat":37.5395691,"lon":126.9714083,"tags":{"addr:city":"서울특별시","addr:district":"용산구","addr:housenumber":"25","addr:postcode":"04322","addr:street":"한강대로77길","addr:subdistrict":"갈월동","local_ref":"1","name":"남영","name:en":"Namyeong","name:ja":"ナミョン","name:ko":"남영","network":"수도권 전철","network:en":"Seoul Metropolitan Subway System","network:ko":"수도권 전철","operator":"한국철도공사","operator:en":"Korea Railroad Corporation","operator:ko":"한국철도공사","operator:short":"KORAIL","operator:type":"public","operator:wikidata":"Q18169","operator:wikipedia":"en:Korail","public_transport":"stop_position","railway":"stop","ref":"134","subway":"yes","train":"yes","wikidata":"Q137143","wikipedia":"ko:남영역"}},{"type":"node","id":5855371072,"lat":37.3202582,"lon":126.8069421,"tags":{"name":"초지","name:en":"Choji","name:ja":"チョジ","name:ko":"초지","name:ko-Hani":"草芝","name:zh":"草芝","network":"수도권 전철","operator":"한국철도공사","operator:en":"Korea Railroad Corporation","operator:ko":"한국철도공사","operator:short":"KORAIL","operator:type":"public","operator:wikidata":"Q18169","operator:wikipedia":"en:Korail","public_transport":"stop_position","railway":"stop","ref":"452","subway":"yes","train":"yes"}},{"type":"node","id":5863378574,"lat":37.5143195,"lon":127.1034964,"tags":{"name":"잠실","name:ja":"蚕室","name:ko-Kana":"チャムシル","public_transport":"stop_position","railway":"stop","subway":"yes"}},{"type":"node","id":5887972152,"lat":37.4340338,"lon":127.1303157,"tags":{"name":"모란","name:en":"Moran","name:ja":"牡丹(モラン)","name:ko":"모란","network":"Seoul Metropolitan Subway","public_transport":"stop_position","railway":"stop","ref":"826","subway":"yes"}},{"type":"node","id":5894627116,"lat":36.7771457,"lon":127.0519158,"tags":{"local_ref":"4","name":"배방","name:en":"Baebang","name:ko":"배방","operator":"한국철도공사","operator:en":"Korea Railroad Corporation","operator:ko":"한국철도공사","operator:short":"KORAIL","operator:type":"public","operator:wikidata":"Q18169","operator:wikipedia":"en:Korail","public_transport":"stop_position","railway":"stop","ref":"P174","subway":"yes","train":"yes"}},{"type":"node","id":5894627118,"lat":36.7781024,"lon":127.0537226,"tags":{"local_ref":"1","name":"배방","name:en":"Baebang","name:ko":"배방","operator":"한국철도공사","operator:en":"Korea Railroad Corporation","operator:ko":"한국철도공사","operator:short":"KORAIL","operator:type":"public","operator:wikidata":"Q18169","operator:wikipedia":"en:Korail","public_transport":"stop_position","railway":"stop","ref":"P174","subway":"yes","train":"yes"}},{"type":"node","id":5894856838,"lat":36.8106632,"lon":127.1466993,"tags":{"local_ref":"5","name":"천안","name:en":"Cheonan","name:ko":"천안","network":"수도권 전철","operator":"한국철도공사","operator:en":"Korea Railroad Corporation","operator:ko":"한국철도공사","operator:short":"KORAIL","operator:type":"public","operator:wikidata":"Q18169","operator:wikipedia":"en:Korail","public_transport":"stop_position","railway":"stop","ref":"P169","subway":"yes","train":"yes"}},{"type":"node","id":5894856981,"lat":36.8009468,"lon":127.1352651,"tags":{"local_ref":"2","name":"봉명","name:en":"Bongmyeong","name:ko":"봉명","operator":"한국철도공사","operator:en":"Korea Railroad Corporation","operator:ko":"한국철도공사","operator:short":"KORAIL","operator:type":"public","operator:wikidata":"Q18169","operator:wikipedia":"en:Korail","public_transport":"stop_position","railway":"stop","ref":"P170","subway":"yes","train":"yes"}},{"type":"node","id":5894856982,"lat":36.8018529,"lon":127.1368782,"tags":{"local_ref":"1","name":"봉명","name:en":"Bongmyeong","name:ko":"봉명","operator":"한국철도공사","operator:en":"Korea Railroad Corporation","operator:ko":"한국철도공사","operator:short":"KORAIL","operator:type":"public","operator:wikidata":"Q18169","operator:wikipedia":"en:Korail","public_transport":"stop_position","railway":"stop","ref":"P170","subway":"yes","train":"yes"}},{"type":"node","id":5894856995,"lat":36.7933314,"lon":127.1205757,"tags":{"local_ref":"2","name":"쌍용","name:en":"Ssangyong","name:ko":"쌍용","operator":"한국철도공사","operator:en":"Korea Railroad Corporation","operator:ko":"한국철도공사","operator:short":"KORAIL","operator:type":"public","operator:wikidata":"Q18169","operator:wikipedia":"en:Korail","public_transport":"stop_position","railway":"stop","ref":"P171","subway":"yes","train":"yes"}},{"type":"node","id":5894856996,"lat":36.7941723,"lon":127.1221535,"tags":{"local_ref":"1","name":"쌍용","name:en":"Ssangyong","name:ko":"쌍용","operator":"한국철도공사","operator:en":"Korea Railroad Corporation","operator:ko":"한국철도공사","operator:short":"KORAIL","operator:type":"public","operator:wikidata":"Q18169","operator:wikipedia":"en:Korail","public_transport":"stop_position","railway":"stop","ref":"P171","subway":"yes","train":"yes"}},{"type":"node","id":5894857007,"lat":36.7923888,"lon":127.1053479,"tags":{"alt_ref":"0503","local_ref":"1","name":"아산","name:en":"Asan","name:ko":"아산","operator":"한국철도공사","operator:en":"Korea Railroad Corporation","operator:ko":"한국철도공사","operator:short":"KORAIL","operator:type":"public","operator:wikidata":"Q18169","operator:wikipedia":"en:Korail","public_transport":"stop_position","railway":"stop","railway:ref":"아산","ref":"P172","ref:KROIS":"080045","ref:XROIS":"3900320","subway":"yes","train":"yes"}},{"type":"node","id":5894857008,"lat":36.7917816,"lon":127.1035459,"tags":{"alt_ref":"0503","local_ref":"4","name":"아산","name:en":"Asan","name:ko":"아산","operator":"한국철도공사","operator:en":"Korea Railroad Corporation","operator:ko":"한국철도공사","operator:short":"KORAIL","operator:type":"public","operator:wikidata":"Q18169","operator:wikipedia":"en:Korail","public_transport":"stop_position","railway":"stop","railway:ref":"아산","ref":"P172","ref:KROIS":"080045","ref:XROIS":"3900320","subway":"yes","train":"yes"}},{"type":"node","id":5895868462,"lat":36.9153776,"lon":127.1270569,"tags":{"local_ref":"2","name":"성환","name:en":"Seonghwan","name:ko":"성환","network":"수도권 전철","operator":"한국철도공사","operator:en":"Korea Railroad Corporation","operator:ko":"한국철도공사","operator:short":"KORAIL","operator:type":"public","operator:wikidata":"Q18169","operator:wikipedia":"en:Korail","public_transport":"stop_position","railway":"stop","ref":"P166","subway":"yes","train":"yes"}},{"type":"node","id":5895868463,"lat":36.9170707,"lon":127.1266679,"tags":{"local_ref":"7","name":"성환","name:en":"Seonghwan","name:ko":"성환","network":"수도권 전철","operator":"한국철도공사","operator:en":"Korea Railroad Corporation","operator:ko":"한국철도공사","operator:short":"KORAIL","operator:type":"public","operator:wikidata":"Q18169","operator:wikipedia":"en:Korail","public_transport":"stop_position","railway":"stop","ref":"P166","subway":"yes","train":"yes"}},{"type":"node","id":5895878219,"lat":36.8717143,"lon":127.1432943,"tags":{"local_ref":"4","name":"직산","name:en":"Jiksan","name:ko":"직산","network":"수도권 전철","operator":"한국철도공사","operator:en":"Korea Railroad Corporation","operator:ko":"한국철도공사","operator:short":"KORAIL","operator:type":"public","operator:wikidata":"Q18169","operator:wikipedia":"en:Korail","public_transport":"stop_position","railway":"stop","ref":"P167","subway":"yes","train":"yes"}},{"type":"node","id":5895878220,"lat":36.8701914,"lon":127.1443262,"tags":{"local_ref":"1","name":"직산","name:en":"Jiksan","name:ko":"직산","network":"수도권 전철","operator":"한국철도공사","operator:en":"Korea Railroad Corporation","operator:ko":"한국철도공사","operator:short":"KORAIL","operator:type":"public","operator:wikidata":"Q18169","operator:wikipedia":"en:Korail","public_transport":"stop_position","railway":"stop","ref":"P167","subway":"yes","train":"yes"}},{"type":"node","id":5895878281,"lat":36.8112046,"lon":127.1464334,"tags":{"local_ref":"8","name":"천안","name:en":"Cheonan","name:ko":"천안","network":"수도권 전철","operator":"한국철도공사","operator:en":"Korea Railroad Corporation","operator:ko":"한국철도공사","operator:short":"KORAIL","operator:type":"public","operator:wikidata":"Q18169","operator:wikipedia":"en:Korail","public_transport":"stop_position","railway":"stop","ref":"P169","subway":"yes","train":"yes"}},{"type":"node","id":5896031469,"lat":36.9899153,"lon":127.0863711,"tags":{"local_ref":"2","name":"평택","name:en":"Pyeongtaek","name:ko":"평택","network":"수도권 전철","operator":"한국철도공사","operator:en":"Korea Railroad Corporation","operator:ko":"한국철도공사","operator:short":"KORAIL","operator:type":"public","operator:wikidata":"Q18169","operator:wikipedia":"en:Korail","public_transport":"stop_position","railway":"stop","ref":"P165","subway":"yes","train":"yes"}},{"type":"node","id":5896031470,"lat":36.9913146,"lon":127.0846714,"tags":{"local_ref":"7","name":"평택","name:en":"Pyeongtaek","name:ko":"평택","network":"수도권 전철","operator":"한국철도공사","operator:en":"Korea Railroad Corporation","operator:ko":"한국철도공사","operator:short":"KORAIL","operator:type":"public","operator:wikidata":"Q18169","operator:wikipedia":"en:Korail","public_transport":"stop_position","railway":"stop","ref":"P165","subway":"yes","train":"yes"}},{"type":"node","id":5896284768,"lat":37.1879084,"lon":127.042894,"tags":{"local_ref":"2","name":"세마","name:en":"Sema","name:ko":"세마","network":"수도권 전철","operator":"한국철도공사","operator:en":"Korea Railroad Corporation","operator:ko":"한국철도공사","operator:short":"KORAIL","operator:type":"public","operator:wikidata":"Q18169","operator:wikipedia":"en:Korail","public_transport":"stop_position","railway":"stop","ref":"P158","subway":"yes","train":"yes"}},{"type":"node","id":5896284769,"lat":37.1864677,"lon":127.0439663,"tags":{"local_ref":"1","name":"세마","name:en":"Sema","name:ko":"세마","network":"수도권 전철","operator":"한국철도공사","operator:en":"Korea Railroad Corporation","operator:ko":"한국철도공사","operator:short":"KORAIL","operator:type":"public","operator:wikidata":"Q18169","operator:wikipedia":"en:Korail","public_transport":"stop_position","railway":"stop","subway":"yes","train":"yes"}},{"type":"node","id":5896286320,"lat":37.1108867,"lon":127.0623998,"tags":{"local_ref":"1","name":"진위","name:en":"Jinwi","name:ko":"진위","public_transport":"stop_position","railway":"stop","ref":"P161","subway":"yes","train":"yes"}},{"type":"node","id":5896286321,"lat":37.109307,"lon":127.0623878,"tags":{"local_ref":"2","name":"진위","name:en":"Jinwi","name:ko":"진위","public_transport":"stop_position","railway":"stop","ref":"P161","subway":"yes","train":"yes"}},{"type":"node","id":5896286340,"lat":37.0763102,"lon":127.0542197,"tags":{"local_ref":"2","name":"송탄","name:en":"Songtan","name:ko":"송탄","network":"수도권 전철","operator":"한국철도공사","operator:en":"Korea Railroad Corporation","operator:ko":"한국철도공사","operator:short":"KORAIL","operator:type":"public","operator:wikidata":"Q18169","operator:wikipedia":"en:Korail","public_transport":"stop_position","railway":"stop","ref":"P162","subway":"yes","train":"yes"}},{"type":"node","id":5896286341,"lat":37.075606,"lon":127.0544205,"tags":{"local_ref":"1","name":"송탄","name:en":"Songtan","name:ko":"송탄","network":"수도권 전철","operator":"한국철도공사","operator:en":"Korea Railroad Corporation","operator:ko":"한국철도공사","operator:short":"KORAIL","operator:type":"public","operator:wikidata":"Q18169","operator:wikipedia":"en:Korail","public_transport":"stop_position","railway":"stop","ref":"P162","subway":"yes","train":"yes"}},{"type":"node","id":5896286360,"lat":37.0572938,"lon":127.0528638,"tags":{"local_ref":"7","name":"서정리","name:en":"Seojeong-ri","name:ko":"서정리","network":"수도권 전철","operator":"한국철도공사","operator:en":"Korea Railroad Corporation","operator:ko":"한국철도공사","operator:short":"KORAIL","operator:type":"public","operator:wikidata":"Q18169","operator:wikipedia":"en:Korail","public_transport":"stop_position","railway":"stop","ref":"P163","train":"yes"}},{"type":"node","id":5896286370,"lat":37.0198026,"lon":127.0702708,"tags":{"local_ref":"2","name":"평택지제","name:en":"Pyeongtaek Jije","name:ko":"평택지제","operator":"한국철도공사","operator:en":"Korea Railroad Corporation","operator:ko":"한국철도공사","operator:short":"KORAIL","operator:type":"public","operator:wikidata":"Q18169","operator:wikipedia":"en:Korail","public_transport":"stop_position","railway":"stop","ref":"P164","subway":"yes","train":"yes"}},{"type":"node","id":5896399336,"lat":37.3730683,"lon":126.9428052,"tags":{"local_ref":"1","name":"금정","name:en":"Geumjeong","name:ja":"衿井","name:ko":"금정","network":"수도권 전철","operator":"한국철도공사","operator:en":"Korea Railroad Corporation","operator:ko":"한국철도공사","operator:short":"KORAIL","operator:type":"public","operator:wikidata":"Q18169","operator:wikipedia":"en:Korail","public_transport":"stop_position","railway":"stop","ref":"443","train":"yes"}},{"type":"node","id":5896399337,"lat":37.3731144,"lon":126.9429352,"tags":{"local_ref":"2","name":"금정","name:en":"Geumjeong","name:ja":"衿井","name:ko":"금정","operator":"한국철도공사","operator:en":"Korea Railroad Corporation","operator:ko":"한국철도공사","operator:short":"KORAIL","operator:type":"public","operator:wikidata":"Q18169","operator:wikipedia":"en:Korail","public_transport":"stop_position","railway":"stop","ref":"P149","train":"yes"}},{"type":"node","id":5896399339,"lat":37.3549528,"lon":126.9483442,"tags":{"local_ref":"1","name":"군포","name:en":"Gunpo","name:ko":"군포","public_transport":"stop_position","railway":"stop","ref":"P150","subway":"yes","train":"yes"}},{"type":"node","id":5896399342,"lat":37.3442425,"lon":126.948274,"tags":{"local_ref":"2","name":"당정","name:en":"Dangjeong","name:ko":"당정","public_transport":"stop_position","rail":"stop","ref":"P151","subway":"yes","train":"yes"}},{"type":"node","id":5896399343,"lat":37.3213626,"lon":126.9478604,"tags":{"local_ref":"4","name":"의왕","name:en":"Uiwang","name:ja":"義王","name:ko":"의왕","public_transport":"stop_position","railway":"stop","ref":"P152","subway":"yes","train":"yes"}},{"type":"node","id":5896399347,"lat":37.3003187,"lon":126.9697911,"tags":{"local_ref":"4","name":"성균관대","name:en":"Sungkyunkwan University","name:ko":"성균관대","operator":"한국철도공사","operator:en":"Korea Railroad Corporation","operator:ko":"한국철도공사","operator:short":"KORAIL","operator:type":"public","operator:wikidata":"Q18169","operator:wikipedia":"en:Korail","public_transport":"stop_position","railway":"stop","ref":"P153","subway":"yes","train":"yes"}},{"type":"node","id":5896399352,"lat":37.2847778,"lon":126.9890176,"tags":{"local_ref":"2","name":"화서","name:en":"Hwaseo","name:ko":"화서","public_transport":"stop_position","railway":"stop","ref":"P154","subway":"yes","train":"yes"}},{"type":"node","id":5896399353,"lat":37.2833438,"lon":126.9900975,"tags":{"local_ref":"1","name":"화서","name:en":"Hwaseo","name:ko":"화서","network":"수도권 전철","operator":"한국철도공사","operator:en":"Korea Railroad Corporation","operator:ko":"한국철도공사","operator:short":"KORAIL","operator:type":"public","operator:wikidata":"Q18169","operator:wikipedia":"en:Korail","public_transport":"stop_position","railway":"stop","ref":"P154","subway":"yes","train":"yes"}},{"type":"node","id":5896399354,"lat":37.2653656,"lon":127.0005981,"tags":{"local_ref":"2","name":"수원","name:en":"Suwon","name:ko":"수원","network":"수도권 전철","operator":"한국철도공사","operator:en":"Korea Railroad Corporation","operator:ko":"한국철도공사","operator:short":"KORAIL","operator:type":"public","operator:wikidata":"Q18169","operator:wikipedia":"en:Korail","public_transport":"stop_position","railway":"stop","ref":"P155","subway":"yes","train":"yes"}},{"type":"node","id":5896399355,"lat":37.2668858,"lon":126.998908,"tags":{"local_ref":"9","name":"수원","name:en":"Suwon","name:ko":"수원","operator":"한국철도공사","operator:en":"Korea Railroad Corporation","operator:ko":"한국철도공사","operator:short":"KORAIL","operator:type":"public","operator:wikidata":"Q18169","operator:wikipedia":"en:Korail","public_transport":"stop_position","railway":"stop","ref":"P155","subway":"yes","train":"yes"}},{"type":"node","id":5896399382,"lat":37.2449907,"lon":127.0131852,"tags":{"local_ref":"3","name":"세류","name:en":"Seryu","name:ko":"세류","public_transport":"stop_position","railway":"stop","ref":"P156","subway":"yes","train":"yes"}},{"type":"node","id":5896399383,"lat":37.2433133,"lon":127.014239,"tags":{"local_ref":"2","name":"세류","name:en":"Seryu","name:ko":"세류","network":"수도권 전철","operator":"한국철도공사","operator:en":"Korea Railroad Corporation","operator:ko":"한국철도공사","operator:short":"KORAIL","operator:type":"public","operator:wikidata":"Q18169","operator:wikipedia":"en:Korail","public_transport":"stop_position","railway":"stop","ref":"P156","subway":"yes","train":"yes"}},{"type":"node","id":5896638403,"lat":37.5026738,"lon":126.88145,"tags":{"name":"구로","name:en":"Guro","name:ko":"구로","operator":"한국철도공사","operator:en":"Korea Railroad Corporation","operator:ko":"한국철도공사","operator:short":"KORAIL","operator:type":"public","operator:wikidata":"Q18169","operator:wikipedia":"en:Korail","public_transport":"stop_position","railway":"stop","train":"yes"}},{"type":"node","id":5896638404,"lat":37.5027049,"lon":126.881417,"tags":{"name":"구로","name:en":"Guro","name:ko":"구로","operator":"한국철도공사","operator:en":"Korea Railroad Corporation","operator:ko":"한국철도공사","operator:short":"KORAIL","operator:type":"public","operator:wikidata":"Q18169","operator:wikipedia":"en:Korail","public_transport":"stop_position","railway":"stop","train":"yes"}},{"type":"node","id":5896638405,"lat":37.5042968,"lon":126.8831312,"tags":{"name":"구로","name:en":"Guro","name:ko":"구로","operator":"한국철도공사","operator:en":"Korea Railroad Corporation","operator:ko":"한국철도공사","operator:short":"KORAIL","operator:type":"public","operator:wikidata":"Q18169","operator:wikipedia":"en:Korail","public_transport":"stop_position","railway":"stop","train":"yes"}},{"type":"node","id":5896638406,"lat":37.4809053,"lon":126.8830209,"tags":{"alt_ref":"0825","local_ref":"2","name":"가산디지털단지","name:en":"Gasan Digital Complex","name:ko":"가산디지털단지","network":"수도권 전철","operator":"한국철도공사","operator:en":"Korea Railroad Corporation","operator:ko":"한국철도공사","operator:short":"KORAIL","operator:type":"public","operator:wikidata":"Q18169","operator:wikipedia":"en:Korail","public_transport":"stop_position","railway":"stop","railway:ref":"가산디","ref":"P142","ref:AFC":"1702","ref:KROIS":"010141","ref:XROIS":"3900034","train":"yes"}},{"type":"node","id":5896638407,"lat":37.4651733,"lon":126.8899789,"tags":{"local_ref":"2","name":"독산","name:en":"Doksan","name:ja":"禿山","name:ko":"독산","network":"수도권 전철","operator":"한국철도공사","operator:en":"Korea Railroad Corporation","operator:ko":"한국철도공사","operator:short":"KORAIL","operator:type":"public","operator:wikidata":"Q18169","operator:wikipedia":"en:Korail","public_transport":"stop_position","railway":"stop","ref":"P143","train":"yes"}},{"type":"node","id":5896638408,"lat":37.4345411,"lon":126.9025637,"tags":{"local_ref":"1","name":"석수","name:en":"Seoksu","name:ja":"ソクス(石水)","name:ko":"석수","network":"수도권 전철","operator":"한국철도공사","operator:en":"Korea Railroad Corporation","operator:ko":"한국철도공사","operator:short":"KORAIL","operator:type":"public","operator:wikidata":"Q18169","operator:wikipedia":"en:Korail","public_transport":"stop_position","railway":"stop","subway":"yes","train":"yes"}},