{"elements":[{"type":"node","id":301638467,"lat":31.3247945,"lon":121.5276595,"tags":{"name":"市光路","name:en":"Shiguang Road","public_transport":"stop_position","railway":"stop","subway":"yes"}},{"type":"node","id":301638468,"lat":31.3167567,"lon":121.5275679,"tags":{"name":"嫩江路","name:en":"Nenjiang Road","public_transport":"stop_position","railway":"stop","subway":"yes"}},{"type":"node","id":301638471,"lat":31.3071134,"lon":121.5276104,"tags":{"name":"翔殷路","name:en":"Xiangyin Road","public_transport":"stop_position","railway":"stop","subway":"yes"}},{"type":"node","id":301638476,"lat":31.2978687,"lon":121.5288453,"tags":{"name":"黄兴公园","name:en":"Huangxing Park","public_transport":"stop_position","railway":"stop","subway":"yes"}},{"type":"node","id":301638480,"lat":31.290732,"lon":121.530645,"tags":{"name":"延吉中路","name:en":"Middle Yanji Road","public_transport":"stop_position","railway":"stop","subway":"yes"}},{"type":"node","id":301638494,"lat":31.2809389,"lon":121.5241046,"tags":{"name":"黄兴路","name:en":"Huangxing Road","public_transport":"stop_position","railway":"stop","subway":"yes"}},{"type":"node","id":301638499,"lat":31.2769665,"lon":121.5142018,"tags":{"name":"江浦路","name:en":"Jiangpu Road","name:zh":"江浦路","public_transport":"stop_position","railway":"stop","subway":"yes"}},{"type":"node","id":301638504,"lat":31.2752152,"lon":121.5051665,"tags":{"name":"鞍山新村","name:en":"Anshan Xincun","name:zh":"鞍山新村","public_transport":"stop_position","railway":"stop","subway":"yes"}},{"type":"node","id":301638516,"lat":31.2785073,"lon":121.485791,"tags":{"name":"曲阳路","name:en":"Quyang Road","public_transport":"stop_position","railway":"stop","subway":"yes"}},{"type":"node","id":301638523,"lat":31.2718356,"lon":121.4747177,"tags":{"name":"虹口足球场","name:en":"Hongkou Football Stadium","name:zh":"虹口足球场","public_transport":"stop_position","railway":"stop","subway":"yes"}},{"type":"node","id":301638528,"lat":31.2655487,"lon":121.4645981,"tags":{"name":"西藏北路","name:en":"North Xizang Road","public_transport":"stop_position","railway":"stop","subway":"yes"}},{"type":"node","id":301638539,"lat":31.2550951,"lon":121.4643732,"tags":{"name":"中兴路","name:en":"Zhongxing Road","public_transport":"stop_position","railway":"stop","subway":"yes"}},{"type":"node","id":301638544,"lat":31.2441977,"lon":121.4669863,"tags":{"name":"曲阜路","name:en":"Qufu Road","public_transport":"stop_position","railway":"stop","subway":"yes"}},{"type":"node","id":301638556,"lat":31.2341554,"lon":121.4711371,"tags":{"name":"人民广场","name:en":"People's Square","name:zh":"人民广场","name:zh-Hans":"人民广场","name:zh-Hant":"人民广场","public_transport":"stop_position","railway":"stop","subway":"yes"}},{"type":"node","id":301638561,"lat":31.2291572,"lon":121.474956,"tags":{"name":"大世界","name:en":"Dashijie","name:zh":"大世界","name:zh-Hans":"大世界","name:zh-Hant":"大世界","public_transport":"stop_position","railway":"stop","subway":"yes"}},{"type":"node","id":301639398,"lat":31.2139173,"lon":121.4814746,"tags":{"name":"陆家浜路","name:en":"Lujiabang Road","public_transport":"stop_position","railway":"stop","subway":"yes"}},{"type":"node","id":469788048,"lat":31.3074975,"lon":121.4439674,"tags":{"name":"彭浦新村","name:en":"Pengpu Xincun","public_transport":"stop_position","railway":"stop","subway":"yes"}},{"type":"node","id":469788063,"lat":31.3335374,"lon":121.4366581,"tags":{"name":"通河新村","name:en":"Tonghe Xincun","public_transport":"stop_position","railway":"stop","subway":"yes"}},{"type":"node","id":469790630,"lat":31.3577078,"lon":121.4293774,"tags":{"name":"共富新村","name:en":"Gongfu Xincun","public_transport":"stop_position","railway":"stop","subway":"yes"}},{"type":"node","id":469790632,"lat":31.3721781,"lon":121.4261394,"tags":{"name":"宝安公路","name:en":"Bao'an Highway","public_transport":"stop_position","railway":"stop","subway":"yes"}},{"type":"node","id":469790634,"lat":31.3837478,"lon":121.4231229,"tags":{"name":"友谊西路","name:en":"West Youyi Road","public_transport":"stop_position","railway":"stop","subway":"yes"}},{"type":"node","id":470079357,"lat":31.2945085,"lon":121.4456298,"tags":{"name":"汶水路","name:en":"Wenshui Road","public_transport":"stop_position","railway":"stop","subway":"yes"}},{"type":"node","id":470079710,"lat":31.3217132,"lon":121.4420573,"tags":{"name":"共康路","name:en":"Gongkang Road","public_transport":"stop_position","railway":"stop","subway":"yes"}},{"type":"node","id":470080016,"lat":31.3423077,"lon":121.4328088,"tags":{"name":"呼兰路","name:en":"Hulan Road","public_transport":"stop_position","railway":"stop","subway":"yes"}},{"type":"node","id":470626733,"lat":31.1123564,"lon":121.3802901,"tags":{"name":"莘庄","name:en":"Xinzhuang","public_transport":"stop_position","railway":"stop","subway":"yes"}},{"type":"node","id":471012636,"lat":31.1228133,"lon":121.3883592,"tags":{"name":"外环路","name:en":"Waihuanlu","public_transport":"stop_position","railway":"stop","subway":"yes"}},{"type":"node","id":471012844,"lat":31.1328778,"lon":121.3982456,"tags":{"name":"莲花路","name:en":"Lianhua Road","public_transport":"stop_position","railway":"stop","subway":"yes"}},{"type":"node","id":471013199,"lat":31.1440955,"lon":121.4094802,"tags":{"name":"锦江乐园","name:en":"Jinjiang Park","public_transport":"stop_position","railway":"stop","subway":"yes"}},{"type":"node","id":471988271,"lat":31.1724533,"lon":121.3932779,"tags":{"name":"漕河泾开发区","name:en":"Caohejing Hi-Tech Park","public_transport":"stop_position","railway":"stop","subway":"yes"}},{"type":"node","id":471988294,"lat":31.2137878,"lon":121.4811531,"tags":{"name":"陆家浜路","name:en":"Lujiabang Road","public_transport":"stop_position","railway":"stop","subway":"yes"}},{"type":"node","id":471988309,"lat":31.2306169,"lon":121.5225972,"tags":{"name":"世纪大道","name:en":"Century Avenue","name:zh":"世纪大道","network":"上海地铁","public_transport":"stop_position","railway":"stop","subway":"yes"}},{"type":"node","id":471988316,"lat":31.2293858,"lon":121.5437829,"tags":{"name":"杨高中路","name:en":"Middle Yanggao Road","name:zh":"杨高中路","public_transport":"stop_position","railway":"stop","subway":"yes"}},{"type":"node","id":472225762,"lat":31.0322106,"lon":121.2262996,"tags":{"name":"松江新城","name:en":"Songjiang Xincheng","public_transport":"stop_position","railway":"stop","subway":"yes"}},{"type":"node","id":472225785,"lat":31.1599404,"lon":121.3640715,"tags":{"name":"星中路","name:en":"Xingzhong Road","public_transport":"stop_position","railway":"stop","subway":"yes"}},{"type":"node","id":472225791,"lat":31.1683763,"lon":121.3801522,"tags":{"name":"合川路","name:en":"Hechuan Road","public_transport":"stop_position","railway":"stop","subway":"yes"}},{"type":"node","id":472226244,"lat":31.1393187,"lon":121.315047,"tags":{"name":"九亭","name:en":"Jiuting","public_transport":"stop_position","railway":"stop","subway":"yes"}},{"type":"node","id":472226277,"lat":31.1513157,"lon":121.3333435,"tags":{"name":"中春路","name:en":"Zhongchun Road","public_transport":"stop_position","railway":"stop","subway":"yes"}},{"type":"node","id":472226771,"lat":31.186231,"lon":121.4227572,"tags":{"name":"宜山路","name:en":"Yishan Road","public_transport":"stop_position","railway":"stop","subway":"yes"}},{"type":"node","id":472226807,"lat":31.1767584,"lon":121.4141575,"tags":{"name":"桂林路","name:en":"Guilin Road","public_transport":"stop_position","railway":"stop","subway":"yes"}},{"type":"node","id":478768049,"lat":31.1727625,"lon":121.4918051,"tags":{"name":"成山路","name:en":"Chengshan Road","public_transport":"stop_position","railway":"stop","subway":"yes"}},{"type":"node","id":478768611,"lat":31.1432582,"lon":121.4848668,"tags":{"name":"凌兆新村","name:en":"Lingzhao Xincun","public_transport":"stop_position","railway":"stop","subway":"yes"}},{"type":"node","id":485240631,"lat":31.1805587,"lon":121.4902088,"tags":{"name":"耀华路","name:en":"Yaohua Road","name:zh":"耀华路","public_transport":"stop_position","railway":"stop","subway":"yes"}},{"type":"node","id":485350360,"lat":31.2013612,"lon":121.4458751,"tags":{"name":"肇嘉浜路","name:en":"Zhaojiabang Road","name:zh":"肇嘉浜路","network":"上海地铁","public_transport":"stop_position","railway":"stop","subway":"yes"}},{"type":"node","id":600504933,"lat":31.2046098,"lon":121.4563758,"tags":{"name":"嘉善路","name:en":"Jiashan Road","public_transport":"stop_position","railway":"stop","subway":"yes"}},{"type":"node","id":608700745,"lat":31.2082185,"lon":121.4640135,"tags":{"name":"打浦桥","name:en":"Dapuqiao","public_transport":"stop_position","railway":"stop","subway":"yes"}},{"type":"node","id":608700783,"lat":31.2190057,"lon":121.4940871,"tags":{"name":"小南门","name:en":"Xiaonanmen","public_transport":"stop_position","railway":"stop","subway":"yes","wheelchair":"yes"}},{"type":"node","id":608700785,"lat":31.2323077,"lon":121.5118575,"tags":{"name":"商城路","name:en":"Shangcheng Road","public_transport":"stop_position","railway":"stop","subway":"yes"}},{"type":"node","id":608703668,"lat":31.1974667,"lon":121.4323716,"tags":{"name":"徐家汇","name:en":"Xujiahui","public_transport":"stop_position","railway":"stop","subway":"yes"}},{"type":"node","id":621901822,"lat":31.0179935,"lon":121.2262839,"tags":{"name":"松江体育中心","name:en":"Songjiang Sports Center","public_transport":"stop_position","railway":"stop","subway":"yes"}},{"type":"node","id":621901825,"lat":31.0028368,"lon":121.224526,"tags":{"name":"醉白池","name:en":"Zuibaichi Park","public_transport":"stop_position","railway":"stop","subway":"yes"}},{"type":"node","id":621901826,"lat":30.9864446,"lon":121.2266151,"tags":{"name":"上海松江站","name:en":"Shanghai Songjiang Railway Station","name:zh":"上海松江站","public_transport":"stop_position","railway":"stop","subway":"yes"}},{"type":"node","id":621906397,"lat":31.1202197,"lon":121.4938452,"tags":{"name":"芦恒路","name:en":"Luheng Road","public_transport":"stop_position","railway":"stop","subway":"yes"}},{"type":"node","id":621907265,"lat":31.1630048,"lon":121.4890354,"tags":{"name":"杨思","name:en":"Yangsi","public_transport":"stop_position","railway":"stop","subway":"yes"}},{"type":"node","id":700176212,"lat":31.1871027,"lon":121.4894217,"tags":{"name":"中华艺术宫","name:en":"China Art Museum","old_name":"周家渡","public_transport":"stop_position","railway":"stop","subway":"yes"}},{"type":"node","id":849493057,"lat":31.1573896,"lon":121.3451869,"tags":{"name":"七宝","name:en":"Qibao","public_transport":"stop_position","railway":"stop","subway":"yes"}},{"type":"node","id":1802142342,"lat":31.063449,"lon":121.5078434,"tags":{"name":"沈杜公路","name:en":"Shendu Highway","public_transport":"stop_position","railway":"stop","subway":"yes"}},{"type":"node","id":1802142365,"lat":31.0634575,"lon":121.5079846,"tags":{"name":"沈杜公路","name:en":"Shendu Highway","public_transport":"stop_position","railway":"stop","subway":"yes"}},{"type":"node","id":1802180532,"lat":31.0863311,"lon":121.5041451,"tags":{"name":"江月路","name:en":"Jiangyue Road","public_transport":"stop_position","railway":"stop","subway":"yes"}},{"type":"node","id":1802180533,"lat":31.0756472,"lon":121.5061494,"tags":{"name":"联航路","name:en":"Lianhang Road","public_transport":"stop_position","railway":"stop","subway":"yes"}},{"type":"node","id":1802180576,"lat":31.0863432,"lon":121.504283,"tags":{"name":"江月路","name:en":"Jiangyue Road","public_transport":"stop_position","railway":"stop","subway":"yes"}},{"type":"node","id":1802180587,"lat":31.0756658,"lon":121.5062777,"tags":{"name":"联航路","name:en":"Lianhang Road","public_transport":"stop_position","railway":"stop","subway":"yes"}},{"type":"node","id":1802192705,"lat":31.0986256,"lon":121.5019553,"tags":{"name":"浦江镇","name:en":"Pujiang Town","public_transport":"stop_position","railway":"stop","subway":"yes"}},{"type":"node","id":1802192835,"lat":31.0985958,"lon":121.501824,"tags":{"name":"浦江镇","name:en":"Pujiang Town","public_transport":"stop_position","railway":"stop","subway":"yes"}},{"type":"node","id":1879882248,"lat":31.276824,"lon":121.4971093,"tags":{"name":"四平路","name:en":"Siping Road","public_transport":"stop_position","railway":"stop","subway":"yes"}},{"type":"node","id":2584697480,"lat":31.3948771,"lon":121.4197766,"tags":{"name":"富锦路","name:en":"Fujin Road","public_transport":"stop_position","railway":"stop","subway":"yes"}},{"type":"node","id":2584702105,"lat":31.3933626,"lon":121.4200409,"tags":{"name":"富锦路","name:en":"Fujin Road","public_transport":"stop_position","railway":"stop","subway":"yes"}},{"type":"node","id":2914306277,"lat":30.2966233,"lon":120.2190667,"tags":{"name":"彭埠","name:en":"Pengbu","public_transport":"stop_position","railway":"stop","subway":"yes"}},{"type":"node","id":2918444043,"lat":30.3103034,"lon":120.2617928,"tags":{"name":"九堡","name:en":"Jiubao","public_transport":"stop_position","railway":"stop","subway":"yes"}},{"type":"node","id":2918444045,"lat":30.3136385,"lon":120.2740745,"tags":{"name":"客运中心","name:en":"Coach Center","public_transport":"stop_position","railway":"stop","ref":"1","subway":"yes"}},{"type":"node","id":2919734589,"lat":30.3674305,"lon":120.2906,"tags":{"name":"翁梅","name:en":"Wengmei","network":"杭州地铁","public_transport":"stop_position","railway":"stop","subway":"yes"}},{"type":"node","id":2919736769,"lat":30.3845135,"lon":120.2932438,"tags":{"name":"临平南高铁站","name:en":"Linpingnan Railway Station","public_transport":"stop_position","railway":"stop","subway":"yes"}},{"type":"node","id":2919736776,"lat":30.4079215,"lon":120.2993867,"tags":{"name":"临平","name:en":"Linping","public_transport":"stop_position","railway":"stop","subway":"yes"}},{"type":"node","id":2933008042,"lat":30.2469441,"lon":120.1761668,"tags":{"name":"城站","name:en":"Chengzhan","public_transport":"stop_position","railway":"stop","subway":"yes"}},{"type":"node","id":2933008044,"lat":30.2936613,"lon":120.2080579,"tags":{"name":"火车东站","name:en":"East Railway Station","public_transport":"stop_position","railway":"stop","subway":"yes"}},{"type":"node","id":2933008045,"lat":30.2571121,"lon":120.1593063,"tags":{"name":"龙翔桥","name:en":"Longxiangqiao","public_transport":"stop_position","railway":"stop","subway":"yes"}},{"type":"node","id":2933008082,"lat":30.2394027,"lon":120.1862252,"tags":{"name":"婺江路","name:en":"Wujiang Road","public_transport":"stop_position","railway":"stop","subway":"yes"}},{"type":"node","id":2933008084,"lat":30.2019194,"lon":120.2130777,"tags":{"name":"滨和路","name:en":"Binhe Road","public_transport":"stop_position","railway":"stop","subway":"yes"}},{"type":"node","id":2933008085,"lat":30.1897634,"lon":120.2161408,"tags":{"name":"西兴","name:en":"Xixing","public_transport":"stop_position","railway":"stop","subway":"yes"}},{"type":"node","id":2933008086,"lat":30.2333832,"lon":120.192857,"tags":{"name":"近江","name:en":"Jinjiang","public_transport":"stop_position","railway":"stop","subway":"yes"}},{"type":"node","id":2933013374,"lat":30.1861559,"lon":120.226631,"tags":{"name":"滨康路","name:en":"Binkang Road","public_transport":"stop_position","railway":"stop","subway":"yes"}},{"type":"node","id":2933018389,"lat":30.3123054,"lon":120.3078966,"tags":{"name":"下沙西","name:en":"West Xiasha","public_transport":"stop_position","railway":"stop","subway":"yes"}},{"type":"node","id":2933033133,"lat":30.3492772,"lon":120.2808135,"tags":{"name":"乔司","name:en":"Qiaosi","public_transport":"stop_position","railway":"stop","subway":"yes"}},{"type":"node","id":2933033135,"lat":30.3975244,"lon":120.2979012,"tags":{"name":"南苑","name:en":"Nanyuan","network":"杭州地铁","public_transport":"stop_position","railway":"stop","subway":"yes"}},{"type":"node","id":3017370571,"lat":31.0329327,"lon":121.5277845,"tags":{"light_rail":"yes","name":"东城一路","name:en":"Dongchengyi Road","public_transport":"stop_position"}},{"type":"node","id":3017370582,"lat":31.027405,"lon":121.5202949,"tags":{"light_rail":"yes","name":"汇臻路","name:en":"Huizhen Road","public_transport":"stop_position"}},{"type":"node","id":3017529573,"lat":31.0433837,"lon":121.5263293,"tags":{"light_rail":"yes","name":"浦航路","name:en":"Puhang Road","public_transport":"stop_position"}},{"type":"node","id":3017529574,"lat":31.0504523,"lon":121.5260853,"tags":{"light_rail":"yes","name":"闵瑞路","name:en":"Minrui Road","public_transport":"stop_position"}},{"type":"node","id":3017529578,"lat":31.0583028,"lon":121.5227374,"tags":{"light_rail":"yes","name":"三鲁公路","name:en":"Sanlu Highway","public_transport":"stop_position","railway":"stop"}},{"type":"node","id":3110732875,"lat":30.188611,"lon":120.1471344,"tags":{"name":"联庄","name:en":"Lianzhuang","public_transport":"stop_position","railway":"stop","subway":"yes"}},{"type":"node","id":3110732918,"lat":30.2418998,"lon":120.202122,"tags":{"name":"城星路","name:en":"Chengxing Road","public_transport":"stop_position","railway":"stop","subway":"yes"}},{"type":"node","id":3110733032,"lat":30.2578796,"lon":120.208121,"tags":{"name":"钱江路","name:en":"Qianjiang Road","public_transport":"stop_position","railway":"stop","subway":"yes"}},{"type":"node","id":3116447167,"lat":30.3133502,"lon":120.3718394,"tags":{"name":"文海南路","name:en":"South Wenhai Road","public_transport":"stop_position","railway":"stop","subway":"yes"}},{"type":"node","id":3116447179,"lat":30.2899954,"lon":120.377251,"tags":{"name":"下沙江滨","name:en":"Xiashajiangbin","name:zh":"下沙江滨","public_transport":"stop_position","railway":"stop","station":"subway","subway":"yes","wikidata":"Q10868589","wikipedia":"zh:下沙江滨站"}},{"type":"node","id":3327052781,"lat":30.2964978,"lon":120.2191037,"tags":{"name":"彭埠","name:en":"Pengbu","public_transport":"stop_position","railway":"stop","subway":"yes"}},{"type":"node","id":3327052782,"lat":30.2934867,"lon":120.2082018,"tags":{"name":"火车东站","name:en":"East Railway Station","public_transport":"stop_position","railway":"stop","subway":"yes"}},{"type":"node","id":3327052786,"lat":30.2580983,"lon":120.2082663,"tags":{"name":"钱江路","name:en":"Qianjiang Road","public_transport":"stop_position","railway":"stop","subway":"yes"}},{"type":"node","id":3800385605,"lat":31.170067,"lon":121.4303275,"tags":{"name":"漕宝路","name:en":"Caobao Road","public_transport":"stop_position","railway":"stop","subway":"yes"}},{"type":"node","id":3800385611,"lat":31.2151406,"lon":121.4464941,"tags":{"name":"常熟路","name:en":"Changshu Road","public_transport":"stop_position","railway":"stop","subway":"yes"}},{"type":"node","id":3800385627,"lat":31.2438092,"lon":121.4537311,"tags":{"name":"汉中路","name:en":"Hanzhong Road","name:zh":"汉中路","name:zh-Hans":"汉中路","name:zh-Hant":"漢中路","public_transport":"stop_position","railway":"stop","subway":"yes"}},{"type":"node","id":3800385628,"lat":31.2064374,"lon":121.4419629,"tags":{"name":"衡山路","name:en":"Hengshan Road","public_transport":"stop_position","railway":"stop","subway":"yes"}},{"type":"node","id":3800385656,"lat":31.2614942,"lon":121.4545011,"tags":{"name":"中山北路","name:en":"North Zhongshan Road","public_transport":"stop_position","railway":"stop","subway":"yes"}},{"type":"node","id":3800386157,"lat":31.2340677,"lon":121.4708951,"tags":{"name":"人民广场","name:en":"People's Square","name:zh":"人民广场","name:zh-Hans":"人民广场","name:zh-Hant":"人民廣場","public_transport":"stop_position","railway":"stop","subway":"yes"}},{"type":"node","id":3800386158,"lat":31.234099,"lon":121.4709758,"tags":{"name":"人民广场","name:en":"People's Square","name:zh":"人民广场","name:zh-Hans":"人民广场","name:zh-Hant":"人民廣場","public_transport":"stop_position","railway":"stop","subway":"yes"}},{"type":"node","id":3800386164,"lat":31.2818235,"lon":121.4473838,"tags":{"name":"上海马戏城","name:en":"Shanghai Circus World","public_transport":"stop_position","railway":"stop","subway":"yes"}},{"type":"node","id":3800386165,"lat":31.1838605,"lon":121.4317914,"tags":{"name":"上海体育馆","name:en":"Shanghai Indoor Stadium","public_transport":"stop_position","railway":"stop","subway":"yes"}},{"type":"node","id":3800386167,"lat":31.2490863,"lon":121.4512676,"tags":{"name":"上海火车站","name:en":"Shanghai Railway Station","name:zh":"上海火车站","name:zh-Hans":"上海火车站","name:zh-Hant":"上海火車站","public_transport":"stop_position","railway":"stop","subway":"yes"}},{"type":"node","id":3800386171,"lat":31.1565507,"lon":121.4255161,"tags":{"name":"上海南站","name:en":"Shanghai South Railway Station","public_transport":"stop_position","railway":"stop","subway":"yes"}},{"type":"node","id":3800386175,"lat":31.2249043,"lon":121.4693648,"tags":{"alt_name":"黄陂南路","alt_name:en":"South Huangpi Road","alt_name:zh":"黄陂南路","name":"一大会址·黄陂南路","name:en":"Site of the First CPC National Congress·South Huangpi Road","name:zh":"一大会址·黄陂南路","network":"上海地铁","network:en":"Shanghai Metro","public_transport":"stop_position","railway":"stop","subway":"yes"}},{"type":"node","id":3800386177,"lat":31.2188733,"lon":121.4552824,"tags":{"name":"陕西南路","name:en":"South Shaanxi Road","name:zh":"陕西南路","name:zh-Hans":"陕西南路","name:zh-Hant":"陕西南路","public_transport":"stop_position","railway":"stop","subway":"yes"}},{"type":"node","id":3800386186,"lat":31.2405923,"lon":121.4636702,"tags":{"name":"新闸路","name:en":"Xinzha Road","public_transport":"stop_position","railway":"stop","subway":"yes"}},{"type":"node","id":3800386187,"lat":31.1950706,"lon":121.4339448,"tags":{"name":"徐家汇","name:en":"Xujiahui","public_transport":"stop_position","railway":"stop","subway":"yes"}},{"type":"node","id":3800386192,"lat":31.2733265,"lon":121.4507865,"tags":{"name":"延长路","name:en":"Yanchang Road","public_transport":"stop_position","railway":"stop","subway":"yes"}},{"type":"node","id":3800583780,"lat":31.3706177,"lon":121.4264168,"tags":{"name":"宝安公路","name:en":"Bao'an Highway","public_transport":"stop_position","railway":"stop","subway":"yes"}},{"type":"node","id":3800583781,"lat":31.3561191,"lon":121.4294836,"tags":{"name":"共富新村","name:en":"Gongfu Xincun","public_transport":"stop_position","railway":"stop","subway":"yes"}},{"type":"node","id":3800583782,"lat":31.3822507,"lon":121.4234632,"tags":{"name":"友谊西路","name:en":"West Youyi Road","public_transport":"stop_position","railway":"stop","subway":"yes"}},{"type":"node","id":3800583785,"lat":31.3407871,"lon":121.4333835,"tags":{"name":"呼兰路","name:en":"Hulan Road","public_transport":"stop_position","railway":"stop","subway":"yes"}},{"type":"node","id":4249995828,"lat":31.1938143,"lon":121.2887136,"tags":{"name":"国家会展中心","name:en":"National Exhibiation and Convention Center","name:zh":"国家会展中心","public_transport":"stop_position","railway":"stop","subway":"yes"}},{"type":"node","id":4249995830,"lat":31.1884461,"lon":121.2742009,"tags":{"name":"蟠龙路","name:en":"Panlong Road","public_transport":"stop_position","railway":"stop","subway":"yes"}},{"type":"node","id":4249995831,"lat":31.18014,"lon":121.2498205,"tags":{"name":"徐盈路","name:en":"Xuying Road","public_transport":"stop_position","railway":"stop","subway":"yes"}},{"type":"node","id":4249995832,"lat":31.1775186,"lon":121.2372703,"tags":{"name":"徐泾北城","name:en":"Xujingbeicheng","public_transport":"stop_position","railway":"stop","subway":"yes"}},{"type":"node","id":4249995847,"lat":31.1660625,"lon":121.2192107,"tags":{"name":"嘉松中路","name:en":"Middle Jiasong Road","public_transport":"stop_position","railway":"stop","subway":"yes"}},{"type":"node","id":4249995871,"lat":31.163113,"lon":121.187692,"tags":{"name":"赵巷","name:en":"Zhaoxiang","public_transport":"stop_position","railway":"stop","subway":"yes"}},{"type":"node","id":4249995888,"lat":31.1632236,"lon":121.1466733,"tags":{"name":"汇金路","name:en":"Huijin Road","public_transport":"stop_position","railway":"stop","subway":"yes"}},{"type":"node","id":4249996891,"lat":31.1608076,"lon":121.1210939,"tags":{"name":"青浦新城","name:en":"Qingpu Xincheng","public_transport":"stop_position","railway":"stop","subway":"yes"}},{"type":"node","id":4249996913,"lat":31.1623496,"lon":121.0919505,"tags":{"name":"漕盈路","name:en":"Caoying Road","public_transport":"stop_position","railway":"stop","subway":"yes"}},{"type":"node","id":4249996945,"lat":31.1359033,"lon":121.0768138,"tags":{"name":"淀山湖大道","name:en":"Dianshanhu Avenue","public_transport":"stop_position","railway":"stop","subway":"yes"}},{"type":"node","id":4249997015,"lat":31.1005718,"lon":121.0146021,"tags":{"name":"东方绿舟","name:en":"Oriental Land","public_transport":"stop_position","railway":"stop","subway":"yes"}},{"type":"node","id":4249997016,"lat":31.1024975,"lon":121.0438824,"tags":{"alt_name":"朱家角地铁站","alt_name:zh":"朱家角地铁站","name":"朱家角","name:en":"Zhujiajiao","name:zh":"朱家角","public_transport":"stop_position","railway":"stop","subway":"yes","wikidata":"Q47005389","wikipedia":"zh:朱家角站"}},{"type":"node","id":4250052704,"lat":31.2664061,"lon":121.6351234,"tags":{"name":"金海路","name:en":"Jinhai Road","public_transport":"stop_position","railway":"stop","subway":"yes"}},{"type":"node","id":4250052747,"lat":31.2343776,"lon":121.5544342,"tags":{"name":"芳甸路","name:en":"Fangdian Road","public_transport":"stop_position","railway":"stop","subway":"yes"}},{"type":"node","id":4250052748,"lat":31.2431953,"lon":121.5736522,"tags":{"name":"蓝天路","name:en":"Lantian Road","name:zh":"蓝天路","network":"上海地铁","operator":"申通地铁集团","public_transport":"stop_position","railway":"stop","subway":"yes","wikidata":"Q46993434"}},{"type":"node","id":4250052749,"lat":31.2546642,"lon":121.5929494,"tags":{"name":"台儿庄路","name:en":"Taierzhuang Road","name:zh":"台儿庄路","public_transport":"stop_position","railway":"stop","subway":"yes"}},{"type":"node","id":4250052750,"lat":31.2630973,"lon":121.6072301,"tags":{"name":"金桥","name:en":"Jinqiao","public_transport":"stop_position","railway":"stop","subway":"yes"}},{"type":"node","id":4250052753,"lat":31.2682411,"lon":121.6522792,"tags":{"name":"顾唐路","name:en":"Gutang Road","public_transport":"stop_position","railway":"stop","subway":"yes"}},{"type":"node","id":4250052754,"lat":31.2704328,"lon":121.6638097,"tags":{"name":"民雷路","name:en":"Minlei Road","public_transport":"stop_position","railway":"stop","subway":"yes"}},{"type":"node","id":4250052755,"lat":31.2732552,"lon":121.6785346,"tags":{"name":"曹路","name:en":"Caolu","public_transport":"stop_position","railway":"stop","subway":"yes"}},{"type":"node","id":4460193671,"lat":31.1960852,"lon":121.313226,"tags":{"name":"虹桥火车站","name:en":"Hongqiao Railway Station","name:zh":"虹桥火车站","name:zh-Hans":"虹桥火车站","name:zh-Hant":"虹橋火車站","public_transport":"stop_position","railway":"stop","subway":"yes"}},{"type":"node","id":4559578257,"lat":31.2491107,"lon":121.4512065,"tags":{"name":"上海火车站","name:en":"Shanghai Railway Station","name:zh":"上海火车站","name:zh-Hans":"上海火车站","name:zh-Hant":"上海火車站","public_transport":"stop_position","railway":"stop","subway":"yes"}},{"type":"node","id":4559578270,"lat":31.2249557,"lon":121.4693343,"tags":{"alt_name":"黄陂南路","alt_name:en":"South Huangpi Road","alt_name:zh":"黄陂南路","name":"一大会址·黄陂南路","name:en":"Site of the First CPC National Congress·South Huangpi Road","name:zh":"一大会址·黄陂南路","network":"上海地铁","network:en":"Shanghai Metro","public_transport":"stop_position","railway":"stop","subway":"yes"}},{"type":"node","id":4559578275,"lat":31.2189248,"lon":121.4552521,"tags":{"name":"陕西南路","name:en":"South Shaanxi Road","name:zh":"陕西南路","name:zh-Hans":"陕西南路","name:zh-Hant":"陕西南路","public_transport":"stop_position","railway":"stop","subway":"yes"}},{"type":"node","id":4559578285,"lat":31.1950844,"lon":121.4338794,"tags":{"name":"徐家汇","name:en":"Xujiahui","public_transport":"stop_position","railway":"stop","subway":"yes"}},{"type":"node","id":4559664009,"lat":31.3074959,"lon":121.4439,"tags":{"name":"彭浦新村","name:en":"Pengpu Xincun","public_transport":"stop_position","railway":"stop","subway":"yes"}},{"type":"node","id":4559664016,"lat":31.2944979,"lon":121.4455635,"tags":{"name":"汶水路","name:en":"Wenshui Road","public_transport":"stop_position","railway":"stop","subway":"yes"}},{"type":"node","id":4559664017,"lat":31.2818119,"lon":121.4472265,"tags":{"name":"上海马戏城","name:en":"Shanghai Circus World","public_transport":"stop_position","railway":"stop","subway":"yes"}},{"type":"node","id":4559664024,"lat":31.2732712,"lon":121.4506583,"tags":{"name":"延长路","name:en":"Yanchang Road","public_transport":"stop_position","railway":"stop","subway":"yes"}},{"type":"node","id":4559664167,"lat":31.1125906,"lon":121.3801151,"tags":{"name":"莘庄","name:en":"Xinzhuang","public_transport":"stop_position","railway":"stop","subway":"yes"}},{"type":"node","id":4559664168,"lat":31.1136576,"lon":121.3811042,"tags":{"name":"莘庄","name:en":"Xinzhuang","public_transport":"stop_position","railway":"stop","subway":"yes"}},{"type":"node","id":4559664171,"lat":31.1328493,"lon":121.3982786,"tags":{"name":"莲花路","name:en":"Lianhua Road","public_transport":"stop_position","railway":"stop","subway":"yes"}},{"type":"node","id":4559664174,"lat":31.1227996,"lon":121.3884027,"tags":{"name":"外环路","name:en":"Waihuanlu","public_transport":"stop_position","railway":"stop","subway":"yes"}},{"type":"node","id":4559664183,"lat":31.1440802,"lon":121.4095046,"tags":{"name":"锦江乐园","name:en":"Jinjiang Park","public_transport":"stop_position","railway":"stop","subway":"yes"}},{"type":"node","id":4559664344,"lat":31.1135869,"lon":121.3814066,"tags":{"name":"莘庄","name:en":"Xinzhuang","public_transport":"stop_position","railway":"stop","subway":"yes"}},{"type":"node","id":4559664372,"lat":31.3324328,"lon":121.4370701,"tags":{"name":"通河新村","name:en":"Tonghe Xincun","public_transport":"stop_position","railway":"stop","subway":"yes"}},{"type":"node","id":4559664374,"lat":31.3216925,"lon":121.4419944,"tags":{"name":"共康路","name:en":"Gongkang Road","public_transport":"stop_position","railway":"stop","subway":"yes"}},{"type":"node","id":4559664399,"lat":31.2437538,"lon":121.4537124,"tags":{"name":"汉中路","name:en":"Hanzhong Road","name:zh":"汉中路","name:zh-Hans":"汉中路","name:zh-Hant":"漢中路","public_transport":"stop_position","railway":"stop","subway":"yes"}},{"type":"node","id":4559664404,"lat":31.2405396,"lon":121.4636428,"tags":{"name":"新闸路","name:en":"Xinzha Road","public_transport":"stop_position","railway":"stop","subway":"yes"}},{"type":"node","id":4559664491,"lat":31.2614875,"lon":121.4544335,"tags":{"name":"中山北路","name:en":"North Zhongshan Road","public_transport":"stop_position","railway":"stop","subway":"yes"}},{"type":"node","id":4559664568,"lat":31.2151926,"lon":121.446465,"tags":{"name":"常熟路","name:en":"Changshu Road","public_transport":"stop_position","railway":"stop","subway":"yes"}},{"type":"node","id":4559664576,"lat":31.2064633,"lon":121.4419144,"tags":{"name":"衡山路","name:en":"Hengshan Road","public_transport":"stop_position","railway":"stop","subway":"yes"}},{"type":"node","id":4559664579,"lat":31.1838659,"lon":121.4317243,"tags":{"name":"上海体育馆","name:en":"Shanghai Indoor Stadium","public_transport":"stop_position","railway":"stop","subway":"yes"}},{"type":"node","id":4559664585,"lat":31.1700701,"lon":121.4302635,"tags":{"name":"漕宝路","name:en":"Caobao Road","public_transport":"stop_position","railway":"stop","subway":"yes"}},{"type":"node","id":4559665792,"lat":31.1565972,"lon":121.425476,"tags":{"name":"上海南站","name:en":"Shanghai South Railway Station","public_transport":"stop_position","railway":"stop","subway":"yes"}},{"type":"node","id":4563677253,"lat":31.0056477,"lon":121.3765305,"tags":{"name":"文井路","name:en":"Wenjing Road","public_transport":"stop_position","railway":"stop","subway":"yes"}},{"type":"node","id":4563677254,"lat":31.0054608,"lon":121.3757073,"tags":{"name":"文井路","name:en":"Wenjing Road","public_transport":"stop_position","railway":"stop","subway":"yes"}},{"type":"node","id":4563677255,"lat":31.099816,"lon":121.3813013,"tags":{"name":"春申路","name:en":"Chunshen Road","public_transport":"stop_position","railway":"stop","subway":"yes"}},{"type":"node","id":4563677256,"lat":31.1004712,"lon":121.3809929,"tags":{"name":"春申路","name:en":"Chunshen Road","public_transport":"stop_position","railway":"stop","subway":"yes"}},{"type":"node","id":4563677257,"lat":31.0909175,"lon":121.3857873,"tags":{"name":"银都路","name:en":"Yindu Road","public_transport":"stop_position","railway":"stop","subway":"yes"}},{"type":"node","id":4563677258,"lat":31.091592,"lon":121.3854682,"tags":{"name":"银都路","name:en":"Yindu Road","public_transport":"stop_position","railway":"stop","subway":"yes"}},{"type":"node","id":4563677259,"lat":31.0685784,"lon":121.3973454,"tags":{"name":"颛桥","name:en":"Zhuanqiao","public_transport":"stop_position","railway":"stop","subway":"yes"}},{"type":"node","id":4563677260,"lat":31.0692574,"lon":121.397115,"tags":{"name":"颛桥","name:en":"Zhuanqiao","public_transport":"stop_position","railway":"stop","subway":"yes"}},{"type":"node","id":4563677261,"lat":31.0466834,"lon":121.4055012,"tags":{"name":"北桥","name:en":"Beiqiao","public_transport":"stop_position","railway":"stop","subway":"yes"}},{"type":"node","id":4563677262,"lat":31.0473809,"lon":121.405322,"tags":{"name":"北桥","name:en":"Beiqiao","public_transport":"stop_position","railway":"stop","subway":"yes"}},{"type":"node","id":4563678300,"lat":31.0280809,"lon":121.412061,"tags":{"name":"剑川路","name:en":"Jianchuan Road","public_transport":"stop_position","railway":"stop","subway":"yes"}},{"type":"node","id":4563678301,"lat":31.0287732,"lon":121.4118212,"tags":{"name":"剑川路","name:en":"Jianchuan Road","public_transport":"stop_position","railway":"stop","subway":"yes"}},{"type":"node","id":4563678302,"lat":31.0198086,"lon":121.4152455,"tags":{"name":"东川路","name:en":"Dongchuan Road","public_transport":"stop_position","railway":"stop","subway":"yes"}},{"type":"node","id":4563678303,"lat":31.0205621,"lon":121.4152685,"tags":{"name":"东川路","name:en":"Dongchuan Road","public_transport":"stop_position","railway":"stop","subway":"yes"}},{"type":"node","id":4563678304,"lat":31.0205267,"lon":121.4151396,"tags":{"name":"东川路","name:en":"Dongchuan Road","public_transport":"stop_position","railway":"stop","subway":"yes"}},{"type":"node","id":4563678305,"lat":31.0198441,"lon":121.4153754,"tags":{"name":"东川路","name:en":"Dongchuan Road","public_transport":"stop_position","railway":"stop","subway":"yes"}},{"type":"node","id":4563678306,"lat":31.0131349,"lon":121.4050856,"tags":{"name":"金平路","name:en":"Jinping Road","public_transport":"stop_position","railway":"stop","subway":"yes"}},{"type":"node","id":4563678307,"lat":31.0132667,"lon":121.405889,"tags":{"name":"金平路","name:en":"Jinping Road","public_transport":"stop_position","railway":"stop","subway":"yes"}},{"type":"node","id":4563678308,"lat":31.0093177,"lon":121.3901748,"tags":{"name":"华宁路","name:en":"Huaning Road","public_transport":"stop_position","railway":"stop","subway":"yes"}},{"type":"node","id":4563678309,"lat":31.0094993,"lon":121.3909794,"tags":{"name":"华宁路","name:en":"Huaning Road","public_transport":"stop_position","railway":"stop","subway":"yes"}},{"type":"node","id":4563678318,"lat":31.002676,"lon":121.3654379,"tags":{"name":"闵行开发区","name:en":"Minhang Development Zone","public_transport":"stop_position","railway":"stop","subway":"yes"}},{"type":"node","id":4563678319,"lat":31.0025069,"lon":121.3646274,"tags":{"name":"闵行开发区","name:en":"Minhang Development Zone","public_transport":"stop_position","railway":"stop","subway":"yes"}},{"type":"node","id":4771034252,"lat":30.2467412,"lon":120.206369,"tags":{"name":"市民中心","name:en":"Citizen Center","public_transport":"stop_position","railway":"stop","subway":"yes"}},{"type":"node","id":4877718158,"lat":30.1833578,"lon":120.2626139,"tags":{"name":"人民广场","name:en":"People Square","public_transport":"stop_position","railway":"stop","subway":"yes"}},{"type":"node","id":4922007174,"lat":30.3187827,"lon":120.1550278,"tags":{"name":"善贤","name:en":"Shanxian","public_transport":"stop_position","railway":"stop","subway":"yes"}},{"type":"node","id":4922007176,"lat":30.3194506,"lon":120.1431916,"tags":{"name":"拱宸桥东","name:en":"East Gongchen Bridge","public_transport":"stop_position","railway":"stop","subway":"yes"}},{"type":"node","id":4922007177,"lat":30.3216721,"lon":120.1269766,"tags":{"name":"大运河","name:en":"The Grand Canal","public_transport":"stop_position","railway":"stop","subway":"yes"}},{"type":"node","id":4922007178,"lat":30.3119315,"lon":120.1156229,"tags":{"name":"和睦","name:en":"Hemu","public_transport":"stop_position","railway":"stop","subway":"yes"}},{"type":"node","id":4922007180,"lat":30.3051606,"lon":120.1076816,"tags":{"name":"萍水街","name:en":"Pingshui Street","public_transport":"stop_position","railway":"stop","subway":"yes"}},{"type":"node","id":4922007182,"lat":30.296436,"lon":120.0720704,"tags":{"name":"浙大紫金港","name:en":"Zhejiang University Zijingang Campus","public_transport":"stop_position","railway":"stop","subway":"yes"}},{"type":"node","id":4922007184,"lat":30.2988368,"lon":120.0402706,"tags":{"name":"五常","name:en":"Wuchang","public_transport":"stop_position","railway":"stop","subway":"yes"}},{"type":"node","id":4922007185,"lat":30.2937636,"lon":120.0216224,"tags":{"name":"永福","name:en":"Yongfu","public_transport":"stop_position","railway":"stop","subway":"yes"}},{"type":"node","id":4922007186,"lat":30.2910525,"lon":120.0125309,"tags":{"name":"杭师大仓前","name:en":"Cangqian Campus Hangzhou Normal University","public_transport":"stop_position","railway":"stop","subway":"yes"}},{"type":"node","id":4922007187,"lat":30.288137,"lon":120.0025065,"tags":{"name":"良睦路","name:en":"Liangmu Road","public_transport":"stop_position","railway":"stop","subway":"yes"}},{"type":"node","id":4922007188,"lat":30.2805811,"lon":119.9932777,"tags":{"name":"创景路","name:en":"Chuangjing Road","public_transport":"stop_position","railway":"stop","subway":"yes"}},{"type":"node","id":4951685725,"lat":30.3016834,"lon":120.0932431,"tags":{"name":"三坝","public_transport":"stop_position","railway":"stop","subway":"yes"}},{"type":"node","id":5014435526,"lat":30.1708281,"lon":120.1323892,"tags":{"name":"西浦路","public_transport":"stop_position","railway":"stop","subway":"yes"}},{"type":"node","id":5014435528,"lat":30.1573651,"lon":120.0939357,"tags":{"construction":"station","name":"枫桦西路","public_transport":"stop_position","railway":"stop","subway":"yes"}},{"type":"node","id":5014435529,"lat":30.1533354,"lon":120.0760385,"tags":{"construction":"station","construction:railway":"station","name":"美院象山","public_transport":"stop_position","railway":"stop","subway":"yes"}},{"type":"node","id":5014435536,"lat":30.2156016,"lon":120.2193682,"tags":{"construction":"station","construction:railway":"station","name":"星民","name:en":"Xingmin","public_transport":"stop_position","railway":"stop","subway":"yes"}},{"type":"node","id":5014435537,"lat":30.2051953,"lon":120.2002463,"tags":{"construction":"station","construction:railway":"station","name":"江汉路","public_transport":"stop_position","railway":"stop","subway":"yes"}},{"type":"node","id":5014435539,"lat":30.1934798,"lon":120.1757932,"tags":{"construction":"station","construction:railway":"station","name":"建业路","public_transport":"stop_position","railway":"stop","subway":"yes"}},{"type":"node","id":5014435542,"lat":30.1889132,"lon":120.1651426,"tags":{"name":"诚业路","public_transport":"stop_position","railway":"stop","subway":"yes"}},{"type":"node","id":5014435552,"lat":30.1843346,"lon":120.2489223,"tags":{"name":"金鸡路","name:en":"Jinji Road","public_transport":"stop_position","railway":"stop","subway":"yes"}},{"type":"node","id":5014435553,"lat":30.1833738,"lon":120.2730364,"tags":{"name":"育才北路","name:en":"North Yucai Road","public_transport":"stop_position","railway":"stop","subway":"yes"}},{"type":"node","id":5017443419,"lat":30.1780838,"lon":120.1416399,"tags":{"name":"中医药大学","name:en":"Zhejiang Chinese Medical University","public_transport":"stop_position","railway":"stop","subway":"yes"}},{"type":"node","id":5017444133,"lat":30.1608325,"lon":120.1046441,"tags":{"alt_name":"之浦路","name":"之江文化中心","public_transport":"stop_position","railway":"stop","subway":"yes"}},{"type":"node","id":5017444203,"lat":30.1837284,"lon":120.2618096,"tags":{"name":"人民广场","name:en":"People's Square","public_transport":"stop_position","railway":"stop","subway":"yes"}},{"type":"node","id":5017444213,"lat":30.1852882,"lon":120.226608,"tags":{"name":"滨康路","name:en":"Binkang Road","public_transport":"stop_position","railway":"stop","subway":"yes"}},{"type":"node","id":5017444306,"lat":30.2963594,"lon":120.1743855,"tags":{"name":"杭氧","name:en":"Hangyang","public_transport":"stop_position","railway":"stop","subway":"yes"}},{"type":"node","id":5017444357,"lat":30.3025202,"lon":120.0931584,"tags":{"name":"三坝","name:en":"Sanba","public_transport":"stop_position","railway":"stop","subway":"yes"}},{"type":"node","id":5017605313,"lat":31.2037283,"lon":121.4851508,"tags":{"name":"西藏南路","name:en":"South Xizang Road","name:zh":"西藏南路","network":"上海地铁","public_transport":"stop_position","railway":"stop","subway":"yes"}},{"type":"node","id":5019789926,"lat":31.2306586,"lon":121.5226281,"tags":{"name":"世纪大道","name:en":"Century Avenue","name:zh":"世纪大道","network":"上海地铁","public_transport":"stop_position","railway":"stop","subway":"yes"}},{"type":"node","id":5019789935,"lat":31.2324199,"lon":121.511807,"tags":{"name":"商城路","name:en":"Shangcheng Road","public_transport":"stop_position","railway":"stop","subway":"yes"}},{"type":"node","id":5019789963,"lat":31.2190122,"lon":121.4940295,"tags":{"name":"小南门","name:en":"Xiaonanmen","public_transport":"stop_position","railway":"stop","subway":"yes","wheelchair":"yes"}},{"type":"node","id":5019789971,"lat":31.2138366,"lon":121.4811442,"tags":{"name":"陆家浜路","name:en":"Lujiabang Road","public_transport":"stop_position","railway":"stop","subway":"yes"}},{"type":"node","id":5019789980,"lat":31.2113075,"lon":121.4720223,"tags":{"name":"马当路","name:en":"Madang Road","public_transport":"stop_position","railway":"stop","subway":"yes"}},{"type":"node","id":5019789988,"lat":31.208257,"lon":121.4639618,"tags":{"name":"打浦桥","name:en":"Dapuqiao","public_transport":"stop_position","railway":"stop","subway":"yes"}},{"type":"node","id":5019789996,"lat":31.2046573,"lon":121.4563601,"tags":{"name":"嘉善路","name:en":"Jiashan Road","public_transport":"stop_position","railway":"stop","subway":"yes"}},{"type":"node","id":5019789999,"lat":31.2013953,"lon":121.4458118,"tags":{"name":"肇嘉浜路","name:en":"Zhaojiabang Road","name:zh":"肇嘉浜路","network":"上海地铁","public_transport":"stop_position","railway":"stop","subway":"yes"}},{"type":"node","id":5019790009,"lat":31.1975146,"lon":121.4323574,"tags":{"name":"徐家汇","name:en":"Xujiahui","public_transport":"stop_position","railway":"stop","subway":"yes"}},{"type":"node","id":5019790015,"lat":31.1861896,"lon":121.4227026,"tags":{"name":"宜山路","name:en":"Yishan Road","public_transport":"stop_position","railway":"stop","subway":"yes"}},{"type":"node","id":5019790122,"lat":31.1767324,"lon":121.4135206,"tags":{"name":"桂林路","name:en":"Guilin Road","public_transport":"stop_position","railway":"stop","subway":"yes"}},{"type":"node","id":5019790125,"lat":31.1725732,"lon":121.393231,"tags":{"name":"漕河泾开发区","name:en":"Caohejing Hi-Tech Park","public_transport":"stop_position","railway":"stop","subway":"yes"}},{"type":"node","id":5019790127,"lat":31.1684653,"lon":121.3801135,"tags":{"name":"合川路","name:en":"Hechuan Road","public_transport":"stop_position","railway":"stop","subway":"yes"}},{"type":"node","id":5019790131,"lat":31.1600615,"lon":121.3640653,"tags":{"name":"星中路","name:en":"Xingzhong Road","public_transport":"stop_position","railway":"stop","subway":"yes"}},{"type":"node","id":5019790135,"lat":31.1574984,"lon":121.3450977,"tags":{"name":"七宝","name:en":"Qibao","public_transport":"stop_position","railway":"stop","subway":"yes"}},{"type":"node","id":5019790137,"lat":31.1514683,"lon":121.3332238,"tags":{"name":"中春路","name:en":"Zhongchun Road","public_transport":"stop_position","railway":"stop","subway":"yes"}},{"type":"node","id":5019790141,"lat":31.1394156,"lon":121.3150048,"tags":{"name":"九亭","name:en":"Jiuting","public_transport":"stop_position","railway":"stop","subway":"yes"}},{"type":"node","id":5019790142,"lat":31.2293855,"lon":121.5436207,"tags":{"name":"杨高中路","name:en":"Middle Yanggao Road","name:zh":"杨高中路","public_transport":"stop_position","railway":"stop","subway":"yes"}},{"type":"node","id":5019790153,"lat":31.1202041,"lon":121.4937903,"tags":{"name":"芦恒路","name:en":"Luheng Road","public_transport":"stop_position","railway":"stop","subway":"yes"}},{"type":"node","id":5019790159,"lat":31.143227,"lon":121.4847416,"tags":{"name":"凌兆新村","name:en":"Lingzhao Xincun","public_transport":"stop_position","railway":"stop","subway":"yes"}},{"type":"node","id":5019790194,"lat":31.1554627,"lon":121.4757981,"tags":{"name":"东方体育中心","name:en":"Oriental Sports Center","public_transport":"stop_position","railway":"stop","subway":"yes"}},{"type":"node","id":5019790211,"lat":31.1630401,"lon":121.488995,"tags":{"name":"杨思","name:en":"Yangsi","public_transport":"stop_position","railway":"stop","subway":"yes"}},{"type":"node","id":5019790622,"lat":31.1727501,"lon":121.4917491,"tags":{"name":"成山路","name:en":"Chengshan Road","public_transport":"stop_position","railway":"stop","subway":"yes"}},{"type":"node","id":5019790625,"lat":31.1805507,"lon":121.4901518,"tags":{"name":"耀华路","name:en":"Yaohua Road","name:zh":"耀华路","public_transport":"stop_position","railway":"stop","subway":"yes"}},{"type":"node","id":5019790632,"lat":31.1871185,"lon":121.489267,"tags":{"name":"中华艺术宫","name:en":"China Art Museum","old_name":"周家渡","public_transport":"stop_position","railway":"stop","subway":"yes"}},{"type":"node","id":5019790646,"lat":31.2037089,"lon":121.4850976,"tags":{"name":"西藏南路","name:en":"South Xizang Road","name:zh":"西藏南路","network":"上海地铁","public_transport":"stop_position","railway":"stop","subway":"yes"}},{"type":"node","id":5019790655,"lat":31.2139023,"lon":121.4814189,"tags":{"name":"陆家浜路","name:en":"Lujiabang Road","public_transport":"stop_position","railway":"stop","subway":"yes"}},{"type":"node","id":5019790660,"lat":31.2208086,"lon":121.4784267,"tags":{"name":"老西门","name:en":"Laoximen","public_transport":"stop_position","railway":"stop","subway":"yes","wheelchair":"yes"}},{"type":"node","id":5019790667,"lat":31.2291352,"lon":121.4749042,"tags":{"name":"大世界","name:en":"Dashijie","name:zh":"大世界","name:zh-Hans":"大世界","name:zh-Hant":"大世界","public_transport":"stop_position","railway":"stop","subway":"yes"}},{"type":"node","id":5019790671,"lat":31.2341272,"lon":121.4710582,"tags":{"name":"人民广场","name:en":"People's Square","name:zh":"人民广场","name:zh-Hans":"人民广场","name:zh-Hant":"人民广场","public_transport":"stop_position","railway":"stop","subway":"yes"}},{"type":"node","id":5019790680,"lat":31.2441929,"lon":121.4669288,"tags":{"name":"曲阜路","name:en":"Qufu Road","public_transport":"stop_position","railway":"stop","subway":"yes"}},{"type":"node","id":5019790687,"lat":31.2550603,"lon":121.4643339,"tags":{"name":"中兴路","name:en":"Zhongxing Road","public_transport":"stop_position","railway":"stop","subway":"yes"}},{"type":"node","id":5019790698,"lat":31.2655805,"lon":121.4645539,"tags":{"name":"西藏北路","name:en":"North Xizang Road","public_transport":"stop_position","railway":"stop","subway":"yes"}},{"type":"node","id":5019790707,"lat":31.271966,"lon":121.4746853,"tags":{"name":"虹口足球场","name:en":"Hongkou Football Stadium","name:zh":"虹口足球场","public_transport":"stop_position","railway":"stop","subway":"yes"}},{"type":"node","id":5019791135,"lat":31.2785567,"lon":121.4857922,"tags":{"name":"曲阳路","name:en":"Quyang Road","public_transport":"stop_position","railway":"stop","subway":"yes"}},{"type":"node","id":5019791142,"lat":31.2769266,"lon":121.4971925,"tags":{"name":"四平路","name:en":"Siping Road","public_transport":"stop_position","railway":"stop","subway":"yes"}},{"type":"node","id":5019791153,"lat":31.2753303,"lon":121.5051663,"tags":{"name":"鞍山新村","name:en":"Anshan Xincun","name:zh":"鞍山新村","public_transport":"stop_position","railway":"stop","subway":"yes"}},{"type":"node","id":5019791160,"lat":31.2770139,"lon":121.5141856,"tags":{"name":"江浦路","name:en":"Jiangpu Road","name:zh":"江浦路","public_transport":"stop_position","railway":"stop","subway":"yes"}},{"type":"node","id":5019791165,"lat":31.2809721,"lon":121.5240853,"tags":{"name":"黄兴路","name:en":"Huangxing Road","public_transport":"stop_position","railway":"stop","subway":"yes"}},{"type":"node","id":5019791182,"lat":31.2907314,"lon":121.5305872,"tags":{"name":"延吉中路","name:en":"Middle Yanji Road","public_transport":"stop_position","railway":"stop","subway":"yes","wheelchair":"limited"}},{"type":"node","id":5019791188,"lat":31.2978486,"lon":121.5287925,"tags":{"name":"黄兴公园","name:en":"Huangxing Park","public_transport":"stop_position","railway":"stop","subway":"yes"}},{"type":"node","id":5019791196,"lat":31.3071134,"lon":121.5275526,"tags":{"name":"翔殷路","name:en":"Xiangyin Road","public_transport":"stop_position","railway":"stop","subway":"yes"}},{"type":"node","id":5019791202,"lat":31.3167575,"lon":121.5275307,"tags":{"name":"嫩江路","name:en":"Nenjiang Road","public_transport":"stop_position","railway":"stop","subway":"yes"}},{"type":"node","id":5019913666,"lat":31.3247952,"lon":121.5276093,"tags":{"name":"市光路","name:en":"Shiguang Road","public_transport":"stop_position","railway":"stop","subway":"yes"}},{"type":"node","id":5019913718,"lat":30.9864073,"lon":121.22653,"tags":{"name":"上海松江站","name:en":"Shanghai Songjiang Railway Station","name:zh":"上海松江站","public_transport":"stop_position","railway":"stop","subway":"yes"}},{"type":"node","id":5021644862,"lat":30.24209,"lon":120.1596221,"tags":{"name":"吴山广场","public_transport":"stop_position","railway":"stop","subway":"yes"}},{"type":"node","id":5021644871,"lat":30.2453565,"lon":120.1822363,"tags":{"name":"莫邪塘","name:en":"Moyetang","public_transport":"stop_position","railway":"stop","subway":"yes"}},{"type":"node","id":5022489946,"lat":30.2493696,"lon":120.1968231,"tags":{"name":"观音塘","name:en":"Guanyintang","public_transport":"stop_position","railway":"stop","subway":"yes"}},{"type":"node","id":5023272877,"lat":30.2749725,"lon":120.1596533,"tags":{"name":"武林广场","name:en":"Wulin Square","name:ja":"武林広場","public_transport":"stop_position","railway":"stop","subway":"yes"}},{"type":"node","id":5023274050,"lat":30.2628211,"lon":119.9874458,"tags":{"name":"绿汀路","name:en":"Lvting Road","public_transport":"stop_position","railway":"stop","subway":"yes"}},{"type":"node","id":5023306389,"lat":30.2092347,"lon":120.0061431,"tags":{"construction:railway":"station","name":"石马","name:en":"Shima","public_transport":"stop_position","railway":"stop","subway":"yes"}},{"type":"node","id":5023306392,"lat":30.2434352,"lon":120.0471729,"tags":{"name":"留下","public_transport":"stop_position","railway":"stop","subway":"yes"}},{"type":"node","id":5023521524,"lat":30.3024306,"lon":120.1439114,"tags":{"name":"香积寺","name:ja":"香積寺","public_transport":"stop_position","railway":"stop","subway":"yes"}},{"type":"node","id":5023521525,"lat":30.310398,"lon":120.1445066,"tags":{"name":"大关","name:en":"Daguan","public_transport":"stop_position","railway":"stop","subway":"yes"}},{"type":"node","id":5023551163,"lat":30.3236456,"lon":120.1750687,"tags":{"name":"新天地街","public_transport":"stop_position","railway":"stop","subway":"yes"}},{"type":"node","id":5023551192,"lat":30.337237,"lon":120.1836131,"tags":{"name":"汽轮广场","public_transport":"stop_position","railway":"stop","subway":"yes"}},{"type":"node","id":5023551213,"lat":30.3468296,"lon":120.2072191,"tags":{"name":"同协路","public_transport":"stop_position","railway":"stop","subway":"yes"}},{"type":"node","id":5023551667,"lat":30.3834416,"lon":120.2418906,"tags":{"name":"黄鹤山","public_transport":"stop_position","railway":"stop","subway":"yes"}},{"type":"node","id":5023551668,"lat":30.3731666,"lon":120.2334836,"tags":{"name":"华鹤街","public_transport":"stop_position","railway":"stop","subway":"yes"}},{"type":"node","id":5023551669,"lat":30.3581111,"lon":120.2295986,"tags":{"name":"丁桥","public_transport":"stop_position","railway":"stop","subway":"yes"}},{"type":"node","id":5023551670,"lat":30.3539288,"lon":120.2167533,"tags":{"name":"桃花湖公园","name:en":"Taohua Lake Park","public_transport":"stop_position","railway":"stop","subway":"yes"}},{"type":"node","id":5023551672,"lat":30.3424752,"lon":120.1980355,"tags":{"name":"华丰路","public_transport":"stop_position","railway":"stop","subway":"yes"}},{"type":"node","id":5024093343,"lat":30.2955419,"lon":120.2586486,"tags":{"name":"红普南路","name:en":"South Hongpu Road","public_transport":"stop_position","railway":"stop","station":"subway","subway":"yes"}},{"type":"node","id":5024093349,"lat":30.2764192,"lon":120.2316778,"tags":{"name":"御道","name:en":"Yudao","public_transport":"stop_position","railway":"stop","station":"subway","subway":"yes"}},{"type":"node","id":5024093352,"lat":30.2692619,"lon":120.2233715,"tags":{"construction":"station","name":"三堡","name:en":"Sanbao","public_transport":"stop_position","railway":"stop","subway":"yes"}},{"type":"node","id":5024132502,"lat":30.2734271,"lon":120.4074317,"tags":{"name":"杭州大会展中心","public_transport":"stop_position","railway":"stop","subway":"yes"}},{"type":"node","id":5024132503,"lat":30.2730441,"lon":120.4207814,"tags":{"construction:railway":"station","name":"港城大道","public_transport":"stop_position","railway":"stop","subway":"yes"}},{"type":"node","id":5024132520,"lat":30.2626193,"lon":120.4381042,"tags":{"construction:railway":"station","name":"向阳路","public_transport":"stop_position","railway":"stop","subway":"yes","wikidata":"Q58829190","wikipedia":"zh:向阳路站"}},{"type":"node","id":5024132921,"lat":30.272464,"lon":120.4311259,"tags":{"construction:railway":"station","name":"南阳","public_transport":"stop_position","railway":"stop","subway":"yes"}},{"type":"node","id":5024417924,"lat":30.3849414,"lon":120.2918186,"tags":{"name":"临平南高铁站","public_transport":"stop_position","railway":"stop","subway":"yes"}},{"type":"node","id":5024417927,"lat":30.4372795,"lon":120.4336604,"tags":{"name":"长安(东方学院)","name:en":"Changan(Dongfang College)","public_transport":"stop_position","railway":"stop","subway":"yes"}},{"type":"node","id":5024417961,"lat":30.4860878,"lon":120.5831818,"tags":{"name":"桐九公路","public_transport":"stop_position","railway":"stop","subway":"yes"}},{"type":"node","id":5024434385,"lat":30.5137204,"lon":120.6875683,"tags":{"name":"海昌路","name:en":"Haichang Road","public_transport":"stop_position","railway":"stop","subway":"yes"}},{"type":"node","id":5024434386,"lat":30.5086915,"lon":120.6598865,"tags":{"name":"皮革城","public_transport":"stop_position","railway":"stop","subway":"yes"}},{"type":"node","id":5024434387,"lat":30.4904083,"lon":120.6129853,"tags":{"name":"斜桥","public_transport":"stop_position","railway":"stop","subway":"yes"}},{"type":"node","id":5024434389,"lat":30.4519367,"lon":120.5007145,"tags":{"construction:railway":"station","name":"周王庙","public_transport":"stop_position","railway":"stop","subway":"yes"}},{"type":"node","id":5025346303,"lat":30.2070176,"lon":120.262938,"tags":{"name":"建设三路","public_transport":"stop_position","railway":"stop","subway":"yes"}},{"type":"node","id":5025346524,"lat":30.201852,"lon":120.3262796,"tags":{"name":"新街","name:en":"Xinjie","operator":"杭州地铁","public_transport":"stop_position","railway":"stop","subway":"yes"}},{"type":"node","id":5025346529,"lat":30.2004529,"lon":120.3384116,"tags":{"name":"合欢路","name:en":"Hehuan Road","operator":"杭州地铁","public_transport":"stop_position","railway":"stop","subway":"yes"}},{"type":"node","id":5025346582,"lat":30.2606574,"lon":120.4797253,"tags":{"name":"新镇路","name:en":"Xinzhen Road","public_transport":"stop_position","railway":"stop","subway":"yes"}},{"type":"node","id":5025346587,"lat":30.2867508,"lon":120.4858295,"tags":{"name":"塘新线","name:en":"Tangxinxian","public_transport":"stop_position","railway":"stop","subway":"yes"}},{"type":"node","id":5025350489,"lat":30.20724,"lon":120.2445659,"tags":{"name":"明星路","name:en":"Mingxing Road","operator":"杭州地铁","public_transport":"stop_position","railway":"stop","subway":"yes"}},{"type":"node","id":5025350491,"lat":30.2055134,"lon":120.3021741,"tags":{"name":"新汉路","name:en":"Xinhan Road","operator":"杭州地铁","public_transport":"stop_position","railway":"stop","subway":"yes"}},{"type":"node","id":5025350495,"lat":30.2000714,"lon":120.3583392,"tags":{"name":"盈中","name:en":"Yingzhong","public_transport":"stop_position","railway":"stop","subway":"yes"}},{"type":"node","id":5025350496,"lat":30.2001829,"lon":120.3909082,"tags":{"name":"坎山","name:en":"Kanshan","public_transport":"stop_position","railway":"stop","subway":"yes"}},{"type":"node","id":5025350497,"lat":30.2198424,"lon":120.4040732,"tags":{"name":"新港","name:en":"Xingang","operator":"杭州地铁","public_transport":"stop_position","railway":"stop","subway":"yes","wikidata":"Q104564771","wikipedia":"zh:新港站"}},{"type":"node","id":5025521957,"lat":31.1068028,"lon":121.2253423,"tags":{"name":"佘山","name:en":"Sheshan","name:zh":"佘山","public_transport":"stop_position","railway":"stop","subway":"yes"}},{"type":"node","id":5025521958,"lat":31.1056515,"lon":121.2254287,"tags":{"name":"佘山","name:en":"Sheshan","name:zh":"佘山","public_transport":"stop_position","railway":"stop","subway":"yes"}},{"type":"node","id":5025931593,"lat":30.4229237,"lon":120.2908501,"tags":{"name":"邱山大街","public_transport":"stop_position","railway":"stop","subway":"yes"}},{"type":"node","id":5025931606,"lat":30.4470201,"lon":120.2746172,"tags":{"name":"五洲路","name:en":"Wuzhou Road","public_transport":"stop_position","railway":"stop","subway":"yes"}},{"type":"node","id":5025931611,"lat":30.4578054,"lon":120.2690946,"tags":{"name":"龙安","name:en":"Long’an","public_transport":"stop_position","railway":"stop","subway":"yes"}},{"type":"node","id":5025931613,"lat":30.4368256,"lon":120.279984,"tags":{"name":"荷禹路","name:en":"Heyu Road","public_transport":"stop_position","railway":"stop","subway":"yes"}},{"type":"node","id":5026288781,"lat":30.3254854,"lon":120.2149368,"tags":{"name":"笕桥老街","public_transport":"stop_position","railway":"stop","start_date":"2022-02-21","subway":"yes"}},{"type":"node","id":5026336508,"lat":30.3264523,"lon":120.1970287,"tags":{"name":"华中南路","public_transport":"stop_position","railway":"stop","subway":"yes"}},{"type":"node","id":5037923648,"lat":30.2782369,"lon":120.2183254,"tags":{"name":"昙花庵路","name:en":"Tanhuaan Road","public_transport":"stop_position","railway":"stop","subway":"yes"}},{"type":"node","id":5037923649,"lat":30.2865812,"lon":120.2160905,"tags":{"name":"元宝塘","name:en":"Yuanbaotang","public_transport":"stop_position","railway":"stop","subway":"yes"}},{"type":"node","id":5037923658,"lat":30.2962938,"lon":120.2120115,"tags":{"colour":"#71cc98","name":"火车东站","name:en":"East Railway Station","public_transport":"stop_position","railway":"stop","subway":"yes"}},{"type":"node","id":5040598141,"lat":30.1243766,"lon":120.4067858,"tags":{"name":"钱清","name:en":"Qianqing","public_transport":"stop_position","railway":"stop","subway":"yes"}},{"type":"node","id":5040598148,"lat":30.1197826,"lon":120.4219086,"tags":{"name":"西沙路","name:en":"Xisha Road","public_transport":"stop_position","railway":"stop","subway":"yes"}},{"type":"node","id":5040598186,"lat":30.0841626,"lon":120.4851138,"tags":{"name":"中国轻纺城","name:en":"China Textile City","public_transport":"stop_position","railway":"stop","subway":"yes"}},{"type":"node","id":5040598189,"lat":30.089461,"lon":120.4758361,"tags":{"name":"越州大道","name:en":"Yuezhou Avenue","public_transport":"stop_position","railway":"stop","subway":"yes"}},{"type":"node","id":5040598191,"lat":30.1010223,"lon":120.4523706,"tags":{"name":"鉴水路","name:en":"Jianshui Road","public_transport":"stop_position","railway":"stop","subway":"yes"}},{"type":"node","id":5040598192,"lat":30.1125378,"lon":120.4364062,"tags":{"name":"临杭大道","name:en":"Linhang Avenue","public_transport":"stop_position","railway":"stop","subway":"yes"}},{"type":"node","id":5040598193,"lat":30.1261399,"lon":120.389504,"tags":{"name":"前梅","name:en":"Qianmei","public_transport":"stop_position","railway":"stop","subway":"yes"}},{"type":"node","id":5040598194,"lat":30.1467655,"lon":120.3606203,"tags":{"name":"杨汛桥","name:en":"Yangxunqiao","public_transport":"stop_position","railway":"stop","subway":"yes"}},{"type":"node","id":5040598195,"lat":30.1657878,"lon":120.3552642,"tags":{"name":"衙前","name:en":"Yaqian","public_transport":"stop_position","railway":"stop","subway":"yes"}},{"type":"node","id":5040622228,"lat":30.076748,"lon":120.504794,"tags":{"name":"瓜渚湖","name:en":"Guazhuhu","public_transport":"stop_position","railway":"stop","subway":"yes"}},{"type":"node","id":5040622428,"lat":29.9941769,"lon":120.5763849,"tags":{"name":"鲁迅故里","name:en":"Luxun Native Place","public_transport":"stop_position","railway":"stop","subway":"yes"}},{"type":"node","id":5040622450,"lat":29.9545311,"lon":120.5726824,"tags":{"name":"劳家葑","name:en":"Laojiafeng","public_transport":"stop_position","railway":"stop","subway":"yes"}},{"type":"node","id":5040622455,"lat":29.9418742,"lon":120.57164,"tags":{"name":"南池","name:en":"Nanchi","public_transport":"stop_position","railway":"stop","subway":"yes"}},{"type":"node","id":5040622461,"lat":29.9314069,"lon":120.5712164,"tags":{"name":"栖湖","name:en":"Qihu","public_transport":"stop_position","railway":"stop","subway":"yes"}},{"type":"node","id":5040714578,"lat":30.0710968,"lon":120.5174184,"tags":{"name":"镜水路","name:en":"Jingshui Road","public_transport":"stop_position","railway":"stop","subway":"yes"}},{"type":"node","id":5040714579,"lat":30.0554338,"lon":120.5496331,"tags":{"name":"张墅","name:en":"Zhangshu","public_transport":"stop_position","railway":"stop","subway":"yes"}},{"type":"node","id":5040714580,"lat":30.0588702,"lon":120.5658677,"tags":{"name":"奥体中心","name:en":"Olympic Sports Center","public_transport":"stop_position","railway":"stop","subway":"yes"}},{"type":"node","id":5040714583,"lat":30.0395372,"lon":120.5773754,"tags":{"name":"凤林","name:en":"Fenglin","public_transport":"stop_position","railway":"stop","subway":"yes"}},{"type":"node","id":5040714584,"lat":30.0261999,"lon":120.578401,"tags":{"name":"大滩","name:en":"Datan","public_transport":"stop_position","railway":"stop","subway":"yes"}},{"type":"node","id":5040714585,"lat":30.0157244,"lon":120.577066,"tags":{"name":"火车站","name:en":"Railway Station","public_transport":"stop_position","railway":"stop","subway":"yes"}},{"type":"node","id":5040714587,"lat":29.9788012,"lon":120.5762595,"tags":{"name":"城南大道","name:en":"Chengnan Avenue","public_transport":"stop_position","railway":"stop","subway":"yes"}},{"type":"node","id":5059785408,"lat":30.3325112,"lon":120.1673845,"tags":{"name":"皋亭坝","public_transport":"stop_position","railway":"stop","subway":"yes"}},{"type":"node","id":5122414388,"lat":30.2192993,"lon":120.1731355,"tags":{"name":"南星桥","name:en":"Nanxingqiao","public_transport":"stop_position","railway":"stop","subway":"yes"}},{"type":"node","id":5126097121,"lat":30.2792025,"lon":120.1242634,"tags":{"name":"文三路","proposed:railway":"station","public_transport":"stop_position","railway":"stop","station":"subway","subway":"yes"}},{"type":"node","id":5126097217,"lat":30.2306588,"lon":120.331448,"tags":{"name":"知行路","public_transport":"stop_position","railway":"stop","subway":"yes"}},{"type":"node","id":5141147710,"lat":30.2827324,"lon":120.0155594,"tags":{"name":"海创园","name:en":"Haichuangyuan","public_transport":"stop_position","railway":"stop","station":"subway","subway":"yes"}},{"type":"node","id":5141147711,"lat":30.2839817,"lon":120.0653403,"tags":{"name":"西溪湿地北","name:en":"North Xixi Wetland","public_transport":"stop_position","railway":"stop","station":"subway","subway":"yes"}},{"type":"node","id":5276636573,"lat":30.3050707,"lon":120.3772754,"tags":{"name":"云水","name:en":"Yunshui","name:zh":"云水","public_transport":"stop_position","railway":"stop","subway":"yes"}},{"type":"node","id":5276636574,"lat":30.3124168,"lon":120.3437709,"tags":{"name":"文泽路","name:en":"Wenze Road","public_transport":"stop_position","railway":"stop","subway":"yes"}},{"type":"node","id":5290779836,"lat":30.3433056,"lon":120.1740021,"tags":{"name":"桃源街","public_transport":"stop_position","railway":"stop","subway":"yes"}},{"type":"node","id":5306355586,"lat":31.2208201,"lon":121.4784849,"tags":{"name":"老西门","name:en":"Laoximen","public_transport":"stop_position","railway":"stop","subway":"yes"}},{"type":"node","id":5306355588,"lat":31.1553741,"lon":121.4759062,"tags":{"name":"东方体育中心","name:en":"Oriental Sports Center","public_transport":"stop_position","railway":"stop","subway":"yes"}},{"type":"node","id":5306402931,"lat":31.1203607,"lon":121.2552291,"tags":{"name":"泗泾","name:en":"Sijing","public_transport":"stop_position","railway":"stop","subway":"yes"}},{"type":"node","id":5306402932,"lat":31.1204413,"lon":121.25656,"tags":{"name":"泗泾","name:en":"Sijing","public_transport":"stop_position","railway":"stop","subway":"yes"}},{"type":"node","id":5306402933,"lat":31.0859548,"lon":121.2260194,"tags":{"name":"洞泾","name:en":"Dongjing","public_transport":"stop_position","railway":"stop","subway":"yes"}},{"type":"node","id":5306402934,"lat":31.0870874,"lon":121.2261127,"tags":{"name":"洞泾","name:en":"Dongjing","public_transport":"stop_position","railway":"stop","subway":"yes"}},{"type":"node","id":5306402935,"lat":31.0567667,"lon":121.2282186,"tags":{"name":"松江大学城","name:en":"Songjiang University Town","public_transport":"stop_position","railway":"stop","subway":"yes"}},{"type":"node","id":5306402936,"lat":31.0555385,"lon":121.2281675,"tags":{"name":"松江大学城","name:en":"Songjiang University Town","public_transport":"stop_position","railway":"stop","subway":"yes"}},{"type":"node","id":5306402937,"lat":31.0322088,"lon":121.2262128,"tags":{"name":"松江新城","name:en":"Songjiang Xincheng","public_transport":"stop_position","railway":"stop","subway":"yes"}},{"type":"node","id":5306402938,"lat":31.0179892,"lon":121.2261926,"tags":{"name":"松江体育中心","name:en":"Songjiang Sports Center","public_transport":"stop_position","railway":"stop","subway":"yes"}},{"type":"node","id":5306402939,"lat":31.0028466,"lon":121.2244158,"tags":{"name":"醉白池","name:en":"Zuibaichi Park","public_transport":"stop_position","railway":"stop","subway":"yes"}},{"type":"node","id":5306402953,"lat":31.2112622,"lon":121.4720339,"tags":{"name":"马当路","name:en":"Madang Road","public_transport":"stop_position","railway":"stop","subway":"yes"}},{"type":"node","id":5308116369,"lat":31.1024799,"lon":121.0451582,"tags":{"alt_name":"朱家角地铁站","alt_name:zh":"朱家角地铁站","name":"朱家角","name:en":"Zhujiajiao","name:zh":"朱家角","public_transport":"stop_position","railway":"stop","subway":"yes","wikidata":"Q47005389","wikipedia":"zh:朱家角站"}},{"type":"node","id":5308116383,"lat":31.1005196,"lon":121.0158053,"tags":{"name":"东方绿舟","name:en":"Oriental Land","public_transport":"stop_position","railway":"stop","subway":"yes"}},{"type":"node","id":5308116394,"lat":31.1631367,"lon":121.1478816,"tags":{"name":"汇金路","name:en":"Huijin Road","public_transport":"stop_position","railway":"stop","subway":"yes"}},{"type":"node","id":5308116405,"lat":31.1607546,"lon":121.1211049,"tags":{"name":"青浦新城","name:en":"Qingpu Xincheng","public_transport":"stop_position","railway":"stop","subway":"yes"}},{"type":"node","id":5308116427,"lat":31.1622802,"lon":121.0919672,"tags":{"name":"漕盈路","name:en":"Caoying Road","public_transport":"stop_position","railway":"stop","subway":"yes"}},{"type":"node","id":5308116459,"lat":31.1364572,"lon":121.0779264,"tags":{"name":"淀山湖大道","name:en":"Dianshanhu Avenue","public_transport":"stop_position","railway":"stop","subway":"yes"}},{"type":"node","id":5308116470,"lat":31.1800018,"lon":121.2498594,"tags":{"name":"徐盈路","name:en":"Xuying Road","public_transport":"stop_position","railway":"stop","subway":"yes"}},{"type":"node","id":5308116476,"lat":31.1773818,"lon":121.2373087,"tags":{"name":"徐泾北城","name:en":"Xujingbeicheng","public_transport":"stop_position","railway":"stop","subway":"yes"}},{"type":"node","id":5308116492,"lat":31.1660189,"lon":121.2201004,"tags":{"name":"嘉松中路","name:en":"Middle Jiasong Road","public_transport":"stop_position","railway":"stop","subway":"yes"}},{"type":"node","id":5308116509,"lat":31.1630614,"lon":121.1877099,"tags":{"name":"赵巷","name:en":"Zhaoxiang","public_transport":"stop_position","railway":"stop","subway":"yes"}},{"type":"node","id":5308116547,"lat":31.1936744,"lon":121.2888239,"tags":{"name":"国家会展中心","name:en":"National Exhibiation and Convention Center","name:zh":"国家会展中心","public_transport":"stop_position","railway":"stop","subway":"yes"}},{"type":"node","id":5308116552,"lat":31.1883968,"lon":121.2742263,"tags":{"name":"蟠龙路","name:en":"Panlong Road","public_transport":"stop_position","railway":"stop","subway":"yes"}},{"type":"node","id":5308116560,"lat":31.1960757,"lon":121.3143014,"tags":{"name":"虹桥火车站","name:en":"Hongqiao Railway Station","name:zh":"虹桥火车站","name:zh-Hans":"虹桥火车站","name:zh-Hant":"虹橋火車站","public_transport":"stop_position","railway":"stop","subway":"yes"}},{"type":"node","id":5308162433,"lat":31.2733223,"lon":121.6785209,"tags":{"name":"曹路","name:en":"Caolu","public_transport":"stop_position","railway":"stop","subway":"yes"}},{"type":"node","id":5308162444,"lat":31.270481,"lon":121.663797,"tags":{"name":"民雷路","name:en":"Minlei Road","public_transport":"stop_position","railway":"stop","subway":"yes"}},{"type":"node","id":5308162454,"lat":31.2682782,"lon":121.6522911,"tags":{"name":"顾唐路","name:en":"Gutang Road","public_transport":"stop_position","railway":"stop","subway":"yes"}},{"type":"node","id":5308162474,"lat":31.2664366,"lon":121.6351255,"tags":{"name":"金海路","name:en":"Jinhai Road","public_transport":"stop_position","railway":"stop","subway":"yes"}},{"type":"node","id":5308162504,"lat":31.2631086,"lon":121.6072293,"tags":{"name":"金桥","name:en":"Jinqiao","public_transport":"stop_position","railway":"stop","subway":"yes"}},{"type":"node","id":5308175721,"lat":31.2547498,"lon":121.5929284,"tags":{"name":"台儿庄路","name:en":"Taierzhuang Road","name:zh":"台儿庄路","public_transport":"stop_position","railway":"stop","subway":"yes"}},{"type":"node","id":5308175738,"lat":31.2432392,"lon":121.5736256,"tags":{"name":"蓝天路","name:en":"Lantian Road","name:zh":"蓝天路","network":"上海地铁","operator":"申通地铁集团","public_transport":"stop_position","railway":"stop","subway":"yes","wikidata":"Q46993434"}},{"type":"node","id":5308175761,"lat":31.2344202,"lon":121.5544049,"tags":{"name":"芳甸路","name:en":"Fangdian Road","public_transport":"stop_position","railway":"stop","subway":"yes"}},{"type":"node","id":5314448363,"lat":30.5150678,"lon":120.712305,"tags":{"name":"浙大国际校区","public_transport":"stop_position","railway":"stop","subway":"yes"}},{"type":"node","id":5392913693,"lat":30.2331983,"lon":120.1932186,"tags":{"name":"近江","name:en":"Jinjiang","public_transport":"stop_position","railway":"stop","subway":"yes"}},{"type":"node","id":5441682657,"lat":30.2965833,"lon":120.2112851,"tags":{"name":"火车东站","name:en":"East Railway Station (East Square)","public_transport":"stop_position","railway":"stop","subway":"yes"}},{"type":"node","id":5441693215,"lat":30.2654682,"lon":120.1589249,"tags":{"name":"凤起路","name:en":"Fengqi Road","public_transport":"stop_position","railway":"stop","subway":"yes"}},{"type":"node","id":5441693216,"lat":30.266187,"lon":120.1579356,"tags":{"name":"凤起路","name:en":"Fengqi Road","public_transport":"stop_position","railway":"stop","subway":"yes"}},{"type":"node","id":5443266643,"lat":30.2851224,"lon":120.1246456,"tags":{"name":"学院路","name:en":"Xueyuan Road","name:zh":"学院路","public_transport":"stop_position","railway":"stop","subway":"yes"}},{"type":"node","id":5447328790,"lat":30.3914234,"lon":120.2577807,"tags":{"name":"星桥","public_transport":"stop_position","railway":"stop","subway":"yes"}},{"type":"node","id":5454990227,"lat":30.2115695,"lon":120.2120323,"tags":{"name":"江陵路","name:en":"Jiangling Road","public_transport":"stop_position","railway":"stop","subway":"yes"}},{"type":"node","id":5519507251,"lat":31.0631485,"lon":121.5081256,"tags":{"light_rail":"yes","name":"沈杜公路","name:en":"Shendu Highway","public_transport":"stop_position","railway":"stop"}},{"type":"node","id":5519507252,"lat":31.0631547,"lon":121.5082674,"tags":{"light_rail":"yes","name":"沈杜公路","name:en":"Shendu Highway","public_transport":"stop_position","railway":"stop"}},{"type":"node","id":5519507253,"lat":31.0275287,"lon":121.5203008,"tags":{"light_rail":"yes","name":"汇臻路","name:en":"Huizhen Road","public_transport":"stop_position"}},{"type":"node","id":5519507263,"lat":31.0323991,"lon":121.5278159,"tags":{"light_rail":"yes","name":"东城一路","name:en":"Dongchengyi Road","public_transport":"stop_position"}},{"type":"node","id":5519507266,"lat":31.0430056,"lon":121.5263081,"tags":{"light_rail":"yes","name":"浦航路","name:en":"Puhang Road","public_transport":"stop_position"}},{"type":"node","id":5519507268,"lat":31.049978,"lon":121.526037,"tags":{"light_rail":"yes","name":"闵瑞路","name:en":"Minrui Road","public_transport":"stop_position"}},{"type":"node","id":5519507279,"lat":31.0582764,"lon":121.5233604,"tags":{"light_rail":"yes","name":"三鲁公路","name:en":"Sanlu Highway","public_transport":"stop_position","railway":"stop"}},{"type":"node","id":5580578789,"lat":30.2601582,"lon":120.2430643,"tags":{"name":"亚运村","name:en":"Asian Games Village","public_transport":"stop_position","railway":"stop","station":"subway","subway":"yes"}},{"type":"node","id":5637247563,"lat":30.3000891,"lon":120.4879543,"tags":{"name":"青六中路","name:en":"Middle Qingliu Road","public_transport":"stop_position","railway":"stop","subway":"yes"}},{"type":"node","id":5637272870,"lat":30.3143606,"lon":120.490192,"tags":{"name":"启成路","name:en":"Qicheng Road","public_transport":"stop_position","railway":"stop","subway":"yes"}},{"type":"node","id":5754592039,"lat":30.214332,"lon":120.2339722,"tags":{"name":"兴议","name:en":"Xingyi","public_transport":"stop_position","railway":"stop","subway":"yes"}},{"type":"node","id":5761771541,"lat":30.2749066,"lon":120.2314615,"tags":{"name":"御道","public_transport":"stop_position","railway":"stop","subway":"yes"}},{"type":"node","id":5761771542,"lat":30.2630751,"lon":120.2528152,"tags":{"name":"平澜路","proposed:railway":"station","public_transport":"stop_position","railway":"stop","subway":"yes"}},{"type":"node","id":5761771543,"lat":30.2424519,"lon":120.2973327,"tags":{"name":"耕文路","public_transport":"stop_position","railway":"stop","subway":"yes"}},{"type":"node","id":5791903440,"lat":30.2688528,"lon":120.224133,"tags":{"name":"三堡","name:en":"Sanbao","public_transport":"stop_position","railway":"stop","subway":"yes"}},{"type":"node","id":6009978808,"lat":30.3134633,"lon":120.274069,"tags":{"name":"客运中心","name:en":"Coach Center","public_transport":"stop_position","railway":"stop","ref":"2","subway":"yes"}},{"type":"node","id":6009978813,"lat":30.3134183,"lon":120.2740704,"tags":{"name":"客运中心","name:en":"Coach Center","public_transport":"stop_position","railway":"stop","ref":"3","subway":"yes"}},{"type":"node","id":6009978845,"lat":30.3121914,"lon":120.3078851,"tags":{"name":"下沙西","name:en":"West Xiasha","public_transport":"stop_position","railway":"stop","subway":"yes"}},{"type":"node","id":6009978863,"lat":30.3132362,"lon":120.2740771,"tags":{"name":"客运中心","name:en":"Coach Center","public_transport":"stop_position","railway":"stop","ref":"4","subway":"yes"}},{"type":"node","id":6009978892,"lat":30.3022462,"lon":120.2361452,"tags":{"name":"七堡","name:en":"Qibao","public_transport":"stop_position","railway":"stop","subway":"yes"}},{"type":"node","id":6009978909,"lat":30.3115493,"lon":120.3210804,"tags":{"name":"金沙湖","name:en":"Jinshahu","public_transport":"stop_position","railway":"stop","subway":"yes"}},{"type":"node","id":6009978921,"lat":30.312268,"lon":120.3437761,"tags":{"name":"文泽路","name:en":"Wenze Road","public_transport":"stop_position","railway":"stop","subway":"yes"}},{"type":"node","id":6009978946,"lat":30.3050716,"lon":120.3770989,"tags":{"name":"云水","name:en":"Yunshui","name:zh":"云水","public_transport":"stop_position","railway":"stop","subway":"yes"}},{"type":"node","id":6009978948,"lat":30.2899912,"lon":120.3770667,"tags":{"name":"下沙江滨","name:en":"Xiashajiangbin","public_transport":"stop_position","railway":"stop","subway":"yes","wikidata":"Q10868589","wikipedia":"zh:下沙江滨站"}},{"type":"node","id":6009978978,"lat":30.2935527,"lon":120.2081456,"tags":{"name":"火车东站","name:en":"East Railway Station","public_transport":"stop_position","railway":"stop","subway":"yes"}},{"type":"node","id":6009979187,"lat":30.2933743,"lon":120.2082924,"tags":{"name":"火车东站","name:en":"East Railway Station","public_transport":"stop_position","railway":"stop","subway":"yes"}},{"type":"node","id":6041457754,"lat":31.1607877,"lon":121.5672958,"tags":{"name":"御桥","name:en":"Yuqiao","name:zh":"御桥","public_transport":"stop_position","railway":"stop","subway":"yes"}},{"type":"node","id":6041457760,"lat":31.1719369,"lon":121.5615402,"tags":{"name":"莲溪路","name:en":"Lianxi Road","name:zh":"莲溪路","public_transport":"stop_position","railway":"stop","subway":"yes"}},{"type":"node","id":6041458196,"lat":31.267195,"lon":121.5190688,"tags":{"name":"江浦公园","name:en":"Jiangpu Park","name:zh":"江浦公园","public_transport":"stop_position","railway":"stop","subway":"yes"}},{"type":"node","id":6041458224,"lat":31.3235989,"lon":121.4909208,"tags":{"name":"殷高路","name:en":"Yingao Road","name:zh":"殷高路","public_transport":"stop_position","railway":"stop","subway":"yes"}},{"type":"node","id":6089140183,"lat":30.2582437,"lon":120.208356,"tags":{"name":"钱江路","name:en":"Qianjiang Road","public_transport":"stop_position","railway":"stop","subway":"yes"}},{"type":"node","id":6089151291,"lat":30.2580245,"lon":120.2082194,"tags":{"name":"钱江路","name:en":"Qianjiang Road","public_transport":"stop_position","railway":"stop","subway":"yes"}},{"type":"node","id":6089151325,"lat":30.2600057,"lon":120.1884326,"tags":{"name":"庆菱路","name:en":"Qingling Road","public_transport":"stop_position","railway":"stop","subway":"yes"}},{"type":"node","id":6089151376,"lat":30.2418298,"lon":120.2022447,"tags":{"name":"城星路","name:en":"Chengxing Road","public_transport":"stop_position","railway":"stop","subway":"yes"}},{"type":"node","id":6089171179,"lat":30.3193335,"lon":120.1431886,"tags":{"name":"拱宸桥东","name:en":"East Gongchen Bridge","public_transport":"stop_position","railway":"stop","subway":"yes"}},{"type":"node","id":6089172530,"lat":30.31185,"lon":120.1157442,"tags":{"name":"和睦","name:en":"Hemu","public_transport":"stop_position","railway":"stop","subway":"yes"}},{"type":"node","id":6089172545,"lat":30.3050452,"lon":120.1077325,"tags":{"name":"萍水街","name:en":"Pingshui Street","public_transport":"stop_position","railway":"stop","subway":"yes"}},{"type":"node","id":6089172559,"lat":30.3023737,"lon":120.0931547,"tags":{"name":"三坝","name:en":"Sanba","public_transport":"stop_position","railway":"stop","subway":"yes"}},{"type":"node","id":6089172600,"lat":30.2970093,"lon":120.0637701,"tags":{"name":"蒋村","name:en":"Jiangcun","public_transport":"stop_position","railway":"stop","subway":"yes"}},{"type":"node","id":6089172617,"lat":30.2987113,"lon":120.0402785,"tags":{"name":"五常","name:en":"Wuchang","public_transport":"stop_position","railway":"stop","subway":"yes"}},{"type":"node","id":6089172636,"lat":30.2909367,"lon":120.0125638,"tags":{"name":"杭师大仓前","name:en":"Cangqian Campus Hangzhou Normal University","public_transport":"stop_position","railway":"stop","subway":"yes"}},{"type":"node","id":6089172641,"lat":30.2880122,"lon":120.0025412,"tags":{"name":"良睦路","name:en":"Liangmu Road","public_transport":"stop_position","railway":"stop","subway":"yes"}},{"type":"node","id":6098961129,"lat":30.2877841,"lon":120.1721466,"tags":{"name":"打铁关","name:en":"Datieguan","name:ja":"打鉄関","public_transport":"stop_position","railway":"stop","subway":"yes"}},{"type":"node","id":6098961152,"lat":30.2819755,"lon":120.1609521,"tags":{"name":"西湖文化广场","name:en":"West Lake Cultural Square","name:ja":"西湖文化広場","public_transport":"stop_position","railway":"stop","subway":"yes"}},{"type":"node","id":6098961179,"lat":30.2654689,"lon":120.1590985,"tags":{"name":"凤起路","name:en":"Fengqi Road","public_transport":"stop_position","railway":"stop","subway":"yes"}},{"type":"node","id":6174639521,"lat":31.0077355,"lon":121.4186433,"tags":{"name":"江川路","name:en":"Jiangchuan Road","name:zh":"江川路","network":"上海地铁","public_transport":"stop_position","railway":"stop","subway":"yes"}},{"type":"node","id":6174639524,"lat":31.0071217,"lon":121.4189152,"tags":{"name":"江川路","name:en":"Jiangchuan Road","name:zh":"江川路","network":"上海地铁","public_transport":"stop_position","railway":"stop","subway":"yes"}},{"type":"node","id":6174663500,"lat":30.9915646,"lon":121.4277126,"tags":{"name":"西渡","name:en":"Xidu","name:zh":"西渡","network":"上海地铁","public_transport":"stop_position","railway":"stop","subway":"yes"}},{"type":"node","id":6174663503,"lat":30.9909425,"lon":121.4279383,"tags":{"name":"西渡","name:en":"Xidu","name:zh":"西渡","network":"上海地铁","public_transport":"stop_position","railway":"stop","subway":"yes"}},{"type":"node","id":6174668508,"lat":30.9681757,"lon":121.437324,"tags":{"name":"萧塘","name:en":"Xiaotang","name:zh":"萧塘","network":"上海地铁","public_transport":"stop_position","railway":"stop","subway":"yes"}},{"type":"node","id":6174668511,"lat":30.9675234,"lon":121.437477,"tags":{"name":"萧塘","name:en":"Xiaotang","name:zh":"萧塘","network":"上海地铁","public_transport":"stop_position","railway":"stop","subway":"yes"}},{"type":"node","id":6174743750,"lat":30.9344565,"lon":121.4792452,"tags":{"name":"望园路","name:en":"Wangyuan Road","name:zh":"望园路","name:zh-Hans":"望园路","name:zh-Hant":"望園路","network":"上海地铁","public_transport":"stop_position","railway":"stop","subway":"yes"}},{"type":"node","id":6174743753,"lat":30.9347265,"lon":121.480255,"tags":{"name":"望园路","name:en":"Wangyuan Road","name:zh":"望园路","name:zh-Hans":"望园路","name:zh-Hant":"望園路","network":"上海地铁","public_transport":"stop_position","railway":"stop","subway":"yes"}},{"type":"node","id":6174743763,"lat":30.9329791,"lon":121.4583558,"tags":{"name":"环城东路","name:en":"Huanchengdong Road","name:zh":"环城东路","network":"上海地铁","public_transport":"stop_position","railway":"stop","subway":"yes"}},{"type":"node","id":6174743765,"lat":30.9331817,"lon":121.4593941,"tags":{"name":"环城东路","name:en":"Huanchengdong Road","name:zh":"环城东路","network":"上海地铁","public_transport":"stop_position","railway":"stop","subway":"yes"}},{"type":"node","id":6174743773,"lat":30.9447808,"lon":121.4443214,"tags":{"name":"奉浦大道","name:en":"Fengpu Avenue","name:zh":"奉浦大道","network":"上海地铁","public_transport":"stop_position","railway":"stop","subway":"yes"}},{"type":"node","id":6174743776,"lat":30.9434813,"lon":121.4446213,"tags":{"name":"奉浦大道","name:en":"Fengpu Avenue","name:zh":"奉浦大道","network":"上海地铁","public_transport":"stop_position","railway":"stop","subway":"yes"}},{"type":"node","id":6174776550,"lat":30.9158512,"lon":121.4915886,"tags":{"name":"奉贤新城","name:en":"Fengxian Xincheng","name:zh":"奉贤新城","network":"上海地铁","public_transport":"stop_position","railway":"stop","subway":"yes"}},{"type":"node","id":6174776552,"lat":30.9167642,"lon":121.4914806,"tags":{"name":"奉贤新城","name:en":"Fengxian Xincheng","name:zh":"奉贤新城","network":"上海地铁","public_transport":"stop_position","railway":"stop","subway":"yes"}},{"type":"node","id":6174776562,"lat":30.9315536,"lon":121.4876194,"tags":{"name":"金海湖","name:en":"Jinhai Lake","name:zh":"金海湖","name:zh-Hans":"金海湖","name:zh-Hant":"金海湖","network":"上海地铁","public_transport":"stop_position","railway":"stop","subway":"yes"}},{"type":"node","id":6174776565,"lat":30.9306163,"lon":121.4878321,"tags":{"name":"金海湖","name:en":"Jinhai Lake","name:zh":"金海湖","network":"上海地铁","public_transport":"stop_position","railway":"stop","subway":"yes"}},{"type":"node","id":6253745537,"lat":30.3135031,"lon":119.9757386,"tags":{"name":"吴山前村","public_transport":"stop_position","railway":"stop","subway":"yes"}},{"type":"node","id":6255550255,"lat":30.2801424,"lon":119.9940461,"tags":{"name":"创景路","public_transport":"stop_position","railway":"stop","station":"subway","subway":"yes"}},{"type":"node","id":6269418115,"lat":30.2903864,"lon":119.9782225,"tags":{"name":"龙舟北路","public_transport":"stop_position","railway":"stop","subway":"yes"}},{"type":"node","id":6322877421,"lat":30.300552,"lon":120.1937312,"tags":{"name":"驿城路","name:en":"Yicheng Road","public_transport":"stop_position","railway":"stop","subway":"yes"}},{"type":"node","id":6503404528,"lat":30.2471391,"lon":120.176246,"tags":{"name":"城站","name:en":"Chengzhan","public_transport":"stop_position","railway":"stop","subway":"yes"}},{"type":"node","id":6503404536,"lat":30.2482287,"lon":120.1633096,"tags":{"name":"定安路","name:en":"Ding'an Road","public_transport":"stop_position","railway":"stop","subway":"yes"}},{"type":"node","id":6503404540,"lat":30.2483326,"lon":120.1633146,"tags":{"name":"定安路","name:en":"Ding'an Road","public_transport":"stop_position","railway":"stop","subway":"yes"}},{"type":"node","id":6503404553,"lat":30.2571143,"lon":120.1594809,"tags":{"name":"龙翔桥","name:en":"Longxiangqiao","public_transport":"stop_position","railway":"stop","subway":"yes"}},{"type":"node","id":6505798565,"lat":30.3101869,"lon":120.2617973,"tags":{"name":"九堡","name:en":"Jiubao","public_transport":"stop_position","railway":"stop","subway":"yes"}},{"type":"node","id":6505798568,"lat":30.367423,"lon":120.2906242,"tags":{"name":"翁梅","name:en":"Wengmei","network":"杭州地铁","public_transport":"stop_position","railway":"stop","subway":"yes"}},{"type":"node","id":6505798572,"lat":30.4079278,"lon":120.2995083,"tags":{"name":"临平","name:en":"Linping","public_transport":"stop_position","railway":"stop","subway":"yes"}},{"type":"node","id":6505798576,"lat":30.3975131,"lon":120.2980544,"tags":{"name":"南苑","name:en":"Nanyuan","public_transport":"stop_position","railway":"stop","subway":"yes"}},{"type":"node","id":6505799689,"lat":30.3297455,"lon":120.2862034,"tags":{"name":"乔司南","name:en":"South Qiaosi","public_transport":"stop_position","railway":"stop","subway":"yes"}},{"type":"node","id":6505799690,"lat":30.3297378,"lon":120.286257,"tags":{"name":"乔司南","name:en":"South Qiaosi","network":"杭州地铁","public_transport":"stop_position","railway":"stop","subway":"yes"}},{"type":"node","id":6505799691,"lat":30.3492751,"lon":120.2808403,"tags":{"name":"乔司","name:en":"Qiaosi","public_transport":"stop_position","railway":"stop","subway":"yes"}},{"type":"node","id":6505799694,"lat":30.2748703,"lon":120.1599031,"tags":{"name":"武林广场","name:en":"Wulin Square","name:ja":"武林広場","public_transport":"stop_position","railway":"stop","subway":"yes"}},{"type":"node","id":6505799695,"lat":30.2748566,"lon":120.1599358,"tags":{"name":"武林广场","name:en":"Wulin Square","name:ja":"武林広場","public_transport":"stop_position","railway":"stop","subway":"yes"}},{"type":"node","id":6505799704,"lat":30.1701861,"lon":120.2301186,"tags":{"name":"湘湖","name:en":"Xianghu","public_transport":"stop_position","railway":"stop","subway":"yes"}},{"type":"node","id":6505799721,"lat":30.1862408,"lon":120.226735,"tags":{"name":"滨康路","name:en":"Binkang Road","public_transport":"stop_position","railway":"stop","subway":"yes"}},{"type":"node","id":6505799737,"lat":30.1898536,"lon":120.2162201,"tags":{"name":"西兴","name:en":"Xixing","public_transport":"stop_position","railway":"stop","subway":"yes"}},{"type":"node","id":6505799745,"lat":30.2019322,"lon":120.2132705,"tags":{"name":"滨和路","name:en":"Binhe Road","public_transport":"stop_position","railway":"stop","subway":"yes"}},{"type":"node","id":6505799749,"lat":30.2116037,"lon":120.212218,"tags":{"name":"江陵路","name:en":"Jiangling Road","network":"杭州地铁","operator":"杭州杭港地铁有限公司","public_transport":"stop_position","railway":"stop","subway":"yes"}},{"type":"node","id":6505799756,"lat":30.2335017,"lon":120.1929781,"tags":{"name":"近江","name:en":"Jinjiang","public_transport":"stop_position","railway":"stop","subway":"yes"}},{"type":"node","id":6505799758,"lat":30.2394709,"lon":120.1862971,"tags":{"name":"婺江路","name:en":"Wujiang Road","public_transport":"stop_position","railway":"stop","subway":"yes"}},{"type":"node","id":6512837813,"lat":30.2128726,"lon":120.159154,"tags":{"name":"复兴路","name:en":"Fuxing Road","public_transport":"stop_position","railway":"stop","subway":"yes"}},{"type":"node","id":6521365355,"lat":30.2895126,"lon":120.2033171,"tags":{"name":"新风","name:en":"Xinfeng","public_transport":"stop_position","railway":"stop","subway":"yes"}},{"type":"node","id":6521365356,"lat":30.2894439,"lon":120.2034429,"tags":{"name":"新风","name:en":"Xinfeng","public_transport":"stop_position","railway":"stop","subway":"yes"}},{"type":"node","id":6521365358,"lat":30.2964516,"lon":120.2191133,"tags":{"name":"彭埠","name:en":"Pengbu","public_transport":"stop_position","railway":"stop","subway":"yes"}},{"type":"node","id":6836788391,"lat":31.1719751,"lon":121.5616638,"tags":{"name":"莲溪路","name:en":"Lianxi Road","name:zh":"莲溪路","public_transport":"stop_position","railway":"stop","subway":"yes"}},{"type":"node","id":6836788417,"lat":31.2030769,"lon":121.5525624,"tags":{"name":"龙阳路","name:en":"Longyang Road","name:zh":"龙阳路","public_transport":"stop_position","railway":"stop","subway":"yes"}},{"type":"node","id":6836788455,"lat":31.2610811,"lon":121.5226014,"tags":{"name":"平凉路","name:en":"Pingliang Road","name:zh":"平凉路","public_transport":"stop_position","railway":"stop","subway":"yes"}},{"type":"node","id":6836788461,"lat":31.267264,"lon":121.5191646,"tags":{"name":"江浦公园","name:en":"Jiangpu Park","name:zh":"江浦公园","public_transport":"stop_position","railway":"stop","subway":"yes"}},{"type":"node","id":6836788532,"lat":31.3235928,"lon":121.4910467,"tags":{"name":"殷高路","name:en":"Yingao Road","name:zh":"殷高路","public_transport":"stop_position","railway":"stop","subway":"yes"}},{"type":"node","id":6836788547,"lat":31.3338986,"lon":121.4855684,"tags":{"name":"长江南路","name:en":"South Changjiang Road","name:zh":"长江南路","public_transport":"stop_position","railway":"stop","subway":"yes"}},{"type":"node","id":6836788712,"lat":31.2610219,"lon":121.5224898,"tags":{"name":"平凉路","name:en":"Pingliang Road","name:zh":"平凉路","public_transport":"stop_position","railway":"stop","subway":"yes"}},{"type":"node","id":6836788759,"lat":31.3337851,"lon":121.4854715,"tags":{"name":"长江南路","name:en":"South Changjiang Road","name:zh":"长江南路","public_transport":"stop_position","railway":"stop","subway":"yes"}},{"type":"node","id":6898397613,"lat":31.0642713,"lon":121.4274016,"tags":{"name":"元江路","name:en":"Yuanjiang Road","public_transport":"stop_position","railway":"stop","subway":"yes"}},{"type":"node","id":6898397642,"lat":31.105664,"lon":121.4277135,"tags":{"name":"虹梅南路","name:en":"South Hongmei Road","public_transport":"stop_position","railway":"stop","subway":"yes"}},{"type":"node","id":6898397664,"lat":31.1456519,"lon":121.4241403,"tags":{"name":"华东理工大学","name:en":"East China University of Science & Technology","public_transport":"stop_position","railway":"stop","subway":"yes"}},{"type":"node","id":6898397672,"lat":31.1581233,"lon":121.4263811,"tags":{"name":"上海南站","name:en":"Shanghai South Railway Station","public_transport":"stop_position","railway":"stop","subway":"yes"}},{"type":"node","id":6898397680,"lat":31.1765884,"lon":121.4113868,"tags":{"name":"桂林路","name:en":"Guilin Road","name:zh":"桂林路","public_transport":"stop_position","railway":"stop","subway":"yes"}},{"type":"node","id":6898405603,"lat":31.2140286,"lon":121.3953379,"tags":{"name":"娄山关路","name:en":"Loushanguan Road","network":"上海地铁","public_transport":"stop_position","railway":"stop","subway":"yes"}},{"type":"node","id":6898405622,"lat":31.2651353,"lon":121.3966477,"tags":{"name":"上海西站","name:en":"Shanghai West Railway Station","name:zh":"上海西站","name:zh-Hans":"上海西站","name:zh-Hant":"上海西站","public_transport":"stop_position","railway":"stop","subway":"yes"}},{"type":"node","id":6898405633,"lat":31.2839223,"lon":121.387354,"tags":{"name":"古浪路","name:en":"Gulang Road","public_transport":"stop_position","railway":"stop","subway":"yes"}},{"type":"node","id":7042331038,"lat":30.2936519,"lon":120.0216705,"tags":{"name":"永福","name:en":"Yongfu","public_transport":"stop_position","railway":"stop","subway":"yes"}},{"type":"node","id":7042331043,"lat":30.2963167,"lon":120.072054,"tags":{"name":"浙大紫金港","name:en":"Zhejiang University Zijingang Campus","public_transport":"stop_position","railway":"stop","subway":"yes"}},{"type":"node","id":7042331048,"lat":30.3215485,"lon":120.1269808,"tags":{"name":"大运河","name:en":"The Grand Canal","public_transport":"stop_position","railway":"stop","subway":"yes"}},{"type":"node","id":7042331051,"lat":30.3186216,"lon":120.1549548,"tags":{"name":"善贤","name:en":"Shanxian","public_transport":"stop_position","railway":"stop","subway":"yes"}},{"type":"node","id":7042337500,"lat":30.2805405,"lon":119.9934356,"tags":{"name":"创景路","name:en":"Chuangjing Road","public_transport":"stop_position","railway":"stop","subway":"yes"}},{"type":"node","id":7183876863,"lat":31.2568658,"lon":121.5259942,"tags":{"name":"丹阳路","name:en":"Danyang Road","name:zh":"丹阳路","public_transport":"stop_position","railway":"stop","subway":"yes"}},{"type":"node","id":7183876865,"lat":31.2569392,"lon":121.526101,"tags":{"name":"丹阳路","name:en":"Danyang Road","name:zh":"丹阳路","public_transport":"stop_position","railway":"stop","subway":"yes"}},{"type":"node","id":7190211841,"lat":30.445662,"lon":120.4554254,"tags":{"name":"长安东","public_transport":"stop_position","railway":"stop","subway":"yes"}},{"type":"node","id":7239600643,"lat":30.2626601,"lon":120.4379333,"tags":{"name":"向阳路","public_transport":"stop_position","railway":"stop","subway":"yes","wikidata":"Q58829190","wikipedia":"zh:向阳路站"}},{"type":"node","id":7239600654,"lat":30.2723127,"lon":120.4311159,"tags":{"name":"南阳","public_transport":"stop_position","railway":"stop","subway":"yes"}},{"type":"node","id":7239600655,"lat":30.2728877,"lon":120.4207706,"tags":{"name":"港城大道","public_transport":"stop_position","railway":"stop","subway":"yes"}},{"type":"node","id":7239600659,"lat":30.2733741,"lon":120.4074284,"tags":{"name":"杭州大会展中心","public_transport":"stop_position","railway":"stop","subway":"yes"}},{"type":"node","id":7239600688,"lat":30.2383305,"lon":120.4299363,"tags":{"name":"萧山国际机场","public_transport":"stop_position","railway":"stop","subway":"yes"}},{"type":"node","id":7239600689,"lat":30.2386634,"lon":120.4296283,"tags":{"name":"萧山国际机场","name:en":"Xiaoshan International Airport","public_transport":"stop_position","railway":"stop","subway":"yes"}},{"type":"node","id":7255101967,"lat":30.2628563,"lon":119.9874554,"tags":{"name":"绿汀路","name:en":"Lvting Road","public_transport":"stop_position","railway":"stop","subway":"yes"}},{"type":"node","id":7255102054,"lat":30.2675887,"lon":119.9614486,"tags":{"name":"金星","name:en":"Jinxing","public_transport":"stop_position","railway":"stop","subway":"yes"}},{"type":"node","id":7273716287,"lat":30.4655339,"lon":120.5361363,"tags":{"name":"盐官","public_transport":"stop_position","railway":"stop","subway":"yes"}},{"type":"node","id":7273716289,"lat":30.4128305,"lon":120.3509442,"tags":{"name":"许村","name:en":"Xucun","public_transport":"stop_position","railway":"stop","subway":"yes"}},{"type":"node","id":7281782475,"lat":30.441814,"lon":120.3863037,"tags":{"name":"海宁高铁西站","public_transport":"stop_position","railway":"stop","subway":"yes"}},{"type":"node","id":7289615188,"lat":30.3131778,"lon":120.3718329,"tags":{"name":"文海南路","name:en":"South Wenhai Road","public_transport":"stop_position","railway":"stop","subway":"yes"}},{"type":"node","id":7383609293,"lat":30.2670242,"lon":120.1677413,"tags":{"name":"中河北路","name:en":"North Zhonghe Road","public_transport":"stop_position","railway":"stop","subway":"yes"}},{"type":"node","id":7383609314,"lat":30.2720843,"lon":120.150515,"tags":{"name":"武林门","name:en":"Wulinmen","public_transport":"stop_position","railway":"stop","subway":"yes"}},{"type":"node","id":7383609315,"lat":30.2721219,"lon":120.1506987,"tags":{"name":"武林门","name:en":"Wulinmen","public_transport":"stop_position","railway":"stop","subway":"yes"}},{"type":"node","id":7383609316,"lat":30.2660333,"lon":120.1579562,"tags":{"name":"凤起路","name:en":"Fengqi Road","public_transport":"stop_position","railway":"stop","subway":"yes"}},{"type":"node","id":7393848112,"lat":30.3064854,"lon":120.2663882,"tags":{"name":"九睦路","name:en":"Jiumu Road","public_transport":"stop_position","railway":"stop","subway":"yes"}},{"type":"node","id":7412924680,"lat":30.3084155,"lon":120.2486974,"tags":{"name":"九和路","name:en":"Jiuhe Road","public_transport":"stop_position","railway":"stop","subway":"yes"}},{"type":"node","id":7412924681,"lat":30.3083229,"lon":120.2487391,"tags":{"name":"九和路","name:en":"Jiuhe Road","public_transport":"stop_position","railway":"stop","subway":"yes"}},{"type":"node","id":7436573617,"lat":30.3023897,"lon":120.2360607,"tags":{"name":"七堡","name:en":"Qibao","public_transport":"stop_position","railway":"stop","subway":"yes"}},{"type":"node","id":7436573618,"lat":30.2869134,"lon":120.1877783,"tags":{"name":"闸弄口","name:en":"Zhalongkou","public_transport":"stop_position","railway":"stop","subway":"yes"}},{"type":"node","id":7436573619,"lat":30.2867943,"lon":120.1878206,"tags":{"name":"闸弄口","name:en":"Zhalongkou","public_transport":"stop_position","railway":"stop","subway":"yes"}},{"type":"node","id":7436573621,"lat":30.2879205,"lon":120.1721622,"tags":{"name":"打铁关","name:en":"Datieguan","name:ja":"打鉄関","public_transport":"stop_position","railway":"stop","subway":"yes"}},{"type":"node","id":7436573622,"lat":30.3118365,"lon":120.33083,"tags":{"name":"高沙路","name:en":"Gaosha Road","public_transport":"stop_position","railway":"stop","subway":"yes"}},{"type":"node","id":7436573623,"lat":30.311681,"lon":120.3308331,"tags":{"name":"高沙路","name:en":"Gaosha Road","public_transport":"stop_position","railway":"stop","subway":"yes"}},{"type":"node","id":7436573624,"lat":30.311706,"lon":120.3210745,"tags":{"name":"金沙湖","name:en":"Jinshahu","public_transport":"stop_position","railway":"stop","subway":"yes"}},{"type":"node","id":7438242092,"lat":30.2330831,"lon":120.1933566,"tags":{"name":"近江","name:en":"Jinjiang","public_transport":"stop_position","railway":"stop","subway":"yes"}},{"type":"node","id":7438242097,"lat":30.2785581,"lon":120.2028087,"tags":{"name":"新塘","name:en":"Xintang","public_transport":"stop_position","railway":"stop","subway":"yes"}},{"type":"node","id":7438242098,"lat":30.278553,"lon":120.2026434,"tags":{"name":"新塘","name:en":"Xintang","public_transport":"stop_position","railway":"stop","subway":"yes"}},{"type":"node","id":7438242103,"lat":30.2521899,"lon":120.2109104,"tags":{"name":"江锦路","public_transport":"stop_position","railway":"stop","subway":"yes"}},{"type":"node","id":7438242104,"lat":30.2521091,"lon":120.2110326,"tags":{"name":"江锦路","public_transport":"stop_position","railway":"stop","subway":"yes"}},{"type":"node","id":7440261400,"lat":30.2885361,"lon":120.1723161,"tags":{"name":"打铁关","name:en":"Datieguan","name:ja":"打鉄関","public_transport":"stop_position","railway":"stop","subway":"yes"}},{"type":"node","id":7440261410,"lat":30.2885485,"lon":120.1721539,"tags":{"name":"打铁关","name:en":"Datieguan","name:ja":"打鉄関","public_transport":"stop_position","railway":"stop","subway":"yes"}},{"type":"node","id":7440261423,"lat":30.2826478,"lon":120.1452519,"tags":{"name":"沈塘桥","name:en":"Shentangqiao","public_transport":"stop_position","railway":"stop","subway":"yes"}},{"type":"node","id":7440261424,"lat":30.2838733,"lon":120.1446622,"tags":{"name":"沈塘桥","name:en":"Shentangqiao","public_transport":"stop_position","railway":"stop","subway":"yes"}},{"type":"node","id":7440261434,"lat":30.2855055,"lon":120.1348396,"tags":{"name":"下宁桥","name:en":"Xianing Bridge","name:zh":"下宁桥","public_transport":"stop_position","railway":"stop","subway":"yes"}},{"type":"node","id":7440261435,"lat":30.2856214,"lon":120.1348299,"tags":{"name":"下宁桥","name:en":"Xianing Bridge","name:zh":"下宁桥","public_transport":"stop_position","railway":"stop","subway":"yes"}},