{"elements":[{"type":"node","id":462209509,"lat":44.793785,"lon":20.4313765,"tags":{"bench":"no","bin":"yes","gtfs:stop_id":"20023","int_name":"Gospodarska Mehana","lit":"yes","name":"Господарска Механа","name:sr":"Господарска Механа","name:sr-Latn":"Gospodarska Mehana","network":"БГ Превоз","operator":"ГСП Београд","operator:wikidata":"Q8227578","public_transport":"platform","railway":"tram_stop","ref":"23","shelter":"no","tram":"yes"}},{"type":"node","id":1493551533,"lat":44.8054488,"lon":20.4781609,"tags":{"bench":"no","bin":"yes","bus":"yes","gtfs:stop_id":"20064","highway":"bus_stop","int_name":"Vukov spomenik","lit":"yes","name":"Вуков споменик","name:sr":"Вуков споменик","name:sr-Latn":"Vukov spomenik","network":"БГ Превоз","operator":"ГСП Београд","operator:wikidata":"Q8227578","public_transport":"platform","railway":"tram_stop","ref":"64","shelter":"yes","tram":"yes"}},{"type":"node","id":1493551534,"lat":44.805503,"lon":20.4779845,"tags":{"bench":"no","bin":"yes","bus":"yes","gtfs:stop_id":"20063","highway":"bus_stop","int_name":"Vukov spomenik","lit":"yes","name":"Вуков споменик","name:sr":"Вуков споменик","name:sr-Latn":"Vukov spomenik","network":"БГ Превоз","operator":"ГСП Београд","operator:wikidata":"Q8227578","public_transport":"platform","railway":"tram_stop","ref":"63","shelter":"yes","tram":"yes"}},{"type":"node","id":1541440613,"lat":44.8067187,"lon":20.4801803,"tags":{"bench":"no","bin":"yes","bus":"yes","gtfs:stop_id":"20553","highway":"bus_stop","int_name":"Dalmatinska","lit":"yes","name":"Далматинска","name:sr":"Далматинска","name:sr-Latn":"Dalmatinska","network":"БГ Превоз","operator":"ГСП Београд","operator:wikidata":"Q8227578","public_transport":"platform","railway":"tram_stop","ref":"553","shelter":"yes","tram":"yes"}},{"type":"node","id":1541440631,"lat":44.807126,"lon":20.4805608,"tags":{"bench":"yes","bin":"yes","bus":"yes","gtfs:stop_id":"20551","highway":"bus_stop","int_name":"Dalmatinska","lit":"yes","name":"Далматинска","name:sr":"Далматинска","name:sr-Latn":"Dalmatinska","network":"БГ Превоз","operator":"ГСП Београд","operator:wikidata":"Q8227578","public_transport":"platform","railway":"tram_stop","ref":"551","shelter":"yes","tram":"yes"}},{"type":"node","id":1541440636,"lat":44.8099347,"lon":20.4849871,"tags":{"bench":"yes","bin":"yes","bus":"yes","gtfs:stop_id":"20079","highway":"bus_stop","int_name":"Novo groblje","lit":"yes","name":"Ново гробље","name:sr":"Ново гробље","name:sr-Latn":"Novo groblje","network":"БГ Превоз","operator":"ГСП Београд","operator:wikidata":"Q8227578","public_transport":"platform","railway":"tram_stop","ref":"79","shelter":"yes","tram":"yes"}},{"type":"node","id":1541440639,"lat":44.8108176,"lon":20.4865743,"tags":{"bench":"yes","bin":"yes","bus":"yes","gtfs:stop_id":"20080","highway":"bus_stop","int_name":"Novo groblje","lit":"yes","name":"Ново гробље","name:sr":"Ново гробље","name:sr-Latn":"Novo groblje","network":"БГ Превоз","operator":"ГСП Београд","operator:wikidata":"Q8227578","public_transport":"platform","railway":"tram_stop","ref":"80","shelter":"yes","tram":"yes"}},{"type":"node","id":1541440671,"lat":44.8261621,"lon":20.4551294,"tags":{"bench":"no","bin":"yes","gtfs:stop_id":"20003","lit":"no","name":"Тадеуша Кошћушка","name:en":"Tadeusa Koscuska","name:sr":"Тадеуша Кошћушка","name:sr-Latn":"Tadeuša Košćuška","network":"БГ Превоз","operator":"ГСП Београд","operator:wikidata":"Q8227578","public_transport":"platform","railway":"tram_stop","ref":"3","shelter":"no","tram":"yes"}},{"type":"node","id":1541440679,"lat":44.8014229,"lon":20.4660755,"tags":{"bench":"yes","bin":"no","bus":"yes","gtfs:stop_id":"20146","highway":"bus_stop","int_name":"Trg Slavija /Bulevar oslobodjenja/","lit":"no","name":"Трг Славија /Булевар ослобођења/","name:sr":"Трг Славија /Булевар ослобођења/","name:sr-Latn":"Trg Slavija /Bulevar oslobođenja/","network":"БГ Превоз","operator":"ГСП Београд","operator:wikidata":"Q8227578","public_transport":"platform","railway":"tram_stop","ref":"146","shelter":"yes","tram":"yes"}},{"type":"node","id":1541440685,"lat":44.8120692,"lon":20.4879832,"tags":{"bench":"yes","bin":"yes","bus":"yes","gtfs:stop_id":"20077","highway":"bus_stop","int_name":"Vatrogasna komanda","lit":"yes","name":"Ватрогасна команда","name:sr":"Ватрогасна команда","name:sr-Latn":"Vatrogasna komanda","network":"БГ Превоз","operator":"ГСП Београд","operator:wikidata":"Q8227578","public_transport":"platform","railway":"tram_stop","ref":"77","shelter":"yes","tram":"yes"}},{"type":"node","id":1541440688,"lat":44.8131277,"lon":20.489379,"tags":{"bench":"yes","bin":"yes","bus":"yes","gtfs:stop_id":"20078","highway":"bus_stop","int_name":"Vatrogasna komanda","lit":"yes","name":"Ватрогасна команда","name:sr":"Ватрогасна команда","name:sr-Latn":"Vatrogasna komanda","network":"БГ Превоз","operator":"ГСП Београд","operator:wikidata":"Q8227578","public_transport":"platform","railway":"tram_stop","ref":"78","shelter":"yes","tram":"yes"}},{"type":"node","id":1657430228,"lat":44.7937412,"lon":20.3743024,"tags":{"bench":"yes","bin":"yes","gtfs:stop_id":"20145","lit":"yes","name":"Блок 45","name:en":"Blok 45","name:sr":"Блок 45","name:sr-Latn":"Blok 45","network":"БГ Превоз","operator":"ГСП Београд","operator:wikidata":"Q8227578","public_transport":"platform","railway":"tram_stop","ref":"145","shelter":"yes","tram":"yes"}},{"type":"node","id":1657430253,"lat":44.7939187,"lon":20.3740034,"tags":{"bench":"no","bin":"yes","gtfs:stop_id":"20144","lit":"yes","name":"Блок 45","name:en":"Blok 45","name:sr":"Блок 45","name:sr-Latn":"Blok 45","network":"БГ Превоз","operator":"ГСП Београд","operator:wikidata":"Q8227578","public_transport":"platform","railway":"tram_stop","ref":"144","shelter":"no","tram":"yes"}},{"type":"node","id":1657430283,"lat":44.7969446,"lon":20.3716215,"tags":{"bench":"no","bin":"yes","gtfs:stop_id":"20142","lit":"yes","name":"Др Ивана Рибара","name:en":"Dr Ivana Ribara","name:sr":"Др Ивана Рибара","name:sr-Latn":"Dr Ivana Ribara","network":"БГ Превоз","operator":"ГСП Београд","operator:wikidata":"Q8227578","public_transport":"platform","railway":"tram_stop","ref":"142","shelter":"no","tram":"yes"}},{"type":"node","id":1790354844,"lat":44.7777465,"lon":20.4144969,"tags":{"bench":"no","bin":"yes","bus":"yes","gtfs:stop_id":"20183","highway":"bus_stop","lit":"yes","name":"Дом здравља","name:en":"Dom zdravlja","name:sr":"Дом здравља","name:sr-Latn":"Dom zdravlja","network":"БГ Превоз","operator":"ГСП Београд","operator:wikidata":"Q8227578","public_transport":"platform","railway":"tram_stop","ref":"183","shelter":"no","tram":"yes"}},{"type":"node","id":1800868636,"lat":44.7918444,"lon":20.5110716,"tags":{"bench":"yes","bus":"yes","gtfs:stop_id":"20101","highway":"bus_stop","int_name":"Dr Velizara Kosanovica","name":"Др Велизара Косановића","name:sr":"Др Велизара Косановића","name:sr-Latn":"Dr Velizara Kosanovića","network":"БГ Превоз","operator":"ГСП Београд","operator:wikidata":"Q8227578","public_transport":"platform","railway":"tram_stop","ref":"101","shelter":"yes","tram":"yes"}},{"type":"node","id":1800868637,"lat":44.7924988,"lon":20.5089071,"tags":{"bench":"no","bin":"yes","bus":"yes","gtfs:stop_id":"20100","highway":"bus_stop","int_name":"Dr Velizara Kosanovica","name":"Др Велизара Косановића","name:sr":"Др Велизара Косановића","name:sr-Latn":"Dr Velizara Kosanovića","network":"БГ Превоз","operator":"ГСП Београд","operator:wikidata":"Q8227578","public_transport":"platform","railway":"tram_stop","ref":"100","shelter":"no","tram":"yes"}},{"type":"node","id":1800868638,"lat":44.793075,"lon":20.5048249,"tags":{"bench":"yes","bin":"yes","bus":"yes","departures_board":"realtime","gtfs:stop_id":"20098","highway":"bus_stop","int_name":"Pijaca Zvezdara","lit":"yes","name":"Пијаца Звездара","name:sr":"Пијаца Звездара","name:sr-Latn":"Pijaca Zvezdara","network":"БГ Превоз","operator":"ГСП Београд","operator:wikidata":"Q8227578","public_transport":"platform","railway":"tram_stop","ref":"98","shelter":"yes","tram":"yes"}},{"type":"node","id":1800868639,"lat":44.7932135,"lon":20.5048234,"tags":{"bench":"no","bin":"yes","bus":"yes","departures_board":"realtime","gtfs:stop_id":"20099","highway":"bus_stop","int_name":"Pijaca Zvezdara","lit":"yes","name":"Пијаца Звездара","name:sr":"Пијаца Звездара","name:sr-Latn":"Pijaca Zvezdara","network":"БГ Превоз","operator":"ГСП Београд","operator:wikidata":"Q8227578","public_transport":"platform","railway":"tram_stop","ref":"99","shelter":"yes","tram":"yes"}},{"type":"node","id":1800868642,"lat":44.7904549,"lon":20.5136177,"tags":{"bench":"no","bin":"yes","gtfs:stop_id":"20102","int_name":"Mite Ruzica","lit":"yes","name":"Мите Ружића","name:sr":"Мите Ружића","name:sr-Latn":"Mite Ružića","network":"БГ Превоз","operator":"ГСП Београд","operator:wikidata":"Q8227578","public_transport":"platform","railway":"tram_stop","ref":"102","shelter":"no","tram":"yes"}},{"type":"node","id":1800868644,"lat":44.7886369,"lon":20.5162824,"tags":{"bench":"no","bin":"yes","bus":"yes","gtfs:stop_id":"20104","highway":"bus_stop","int_name":"Koste Trifkovica","lit":"yes","name":"Косте Трифковића","name:sr":"Косте Трифковића","name:sr-Latn":"Koste Trifkovića","network":"БГ Превоз","operator":"ГСП Београд","operator:wikidata":"Q8227578","public_transport":"platform","railway":"tram_stop","ref":"104","shelter":"no","tram":"yes"}},{"type":"node","id":1826622409,"lat":44.7690981,"lon":20.479104,"tags":{"bench":"no","bin":"yes","bus":"yes","gtfs:stop_id":"20166","highway":"bus_stop","int_name":"Visoka Skola Elektrotehnike","lit":"yes","name":"Висока Школа Електротехнике","name:sr":"Висока Школа Електротехнике","name:sr-Latn":"Visoka Škola elektrotehnike","network":"БГ Превоз","operator":"ГСП Београд","operator:wikidata":"Q8227578","public_transport":"platform","railway":"tram_stop","ref":"166","shelter":"yes","tram":"yes"}},{"type":"node","id":2059750352,"lat":44.7790516,"lon":20.4159114,"tags":{"bench":"yes","bin":"yes","bus":"yes","gtfs:stop_id":"20184","highway":"bus_stop","lit":"yes","name":"Дом здравља","name:en":"Dom zdravlja","name:sr":"Дом здравља","name:sr-Latn":"Dom zdravlja","network":"БГ Превоз","operator":"ГСП Београд","operator:wikidata":"Q8227578","public_transport":"platform","railway":"tram_stop","ref":"184","shelter":"yes","tram":"yes"}},{"type":"node","id":2059750403,"lat":44.77541,"lon":20.4135494,"tags":{"bench":"yes","bin":"yes","bus":"yes","gtfs:stop_id":"20185","highway":"bus_stop","int_name":"Kijevska","lit":"yes","name":"Кијевска","name:sr":"Кијевска","name:sr-Latn":"Kijevska","network":"БГ Превоз","operator":"ГСП Београд","operator:wikidata":"Q8227578","public_transport":"platform","railway":"tram_stop","ref":"185","shelter":"yes","tram":"yes"}},{"type":"node","id":2059750409,"lat":44.7758265,"lon":20.4138255,"tags":{"bench":"yes","bin":"yes","bus":"yes","gtfs:stop_id":"20186","highway":"bus_stop","int_name":"Kijevska","lit":"yes","name":"Кијевска","name:sr":"Кијевска","name:sr-Latn":"Kijevska","network":"БГ Превоз","operator":"ГСП Београд","operator:wikidata":"Q8227578","public_transport":"platform","railway":"tram_stop","ref":"186","shelter":"yes","tram":"yes"}},{"type":"node","id":2059750503,"lat":44.7810554,"lon":20.4171913,"tags":{"bench":"yes","bin":"yes","bus":"yes","gtfs:stop_id":"20181","highway":"bus_stop","int_name":"Skola Josif Pancic","lit":"yes","name":"Школа Јосиф Панчић","name:sr":"Школа Јосиф Панчић","name:sr-Latn":"Škola Josif Pančić","network":"БГ Превоз","operator":"ГСП Београд","operator:wikidata":"Q8227578","public_transport":"platform","railway":"tram_stop","ref":"181","shelter":"yes","tram":"yes"}},{"type":"node","id":2059750504,"lat":44.7814338,"lon":20.4177213,"tags":{"bench":"yes","bin":"yes","bus":"yes","gtfs:stop_id":"20182","highway":"bus_stop","int_name":"Skola Josif Pancic","lit":"yes","name":"Школа Јосиф Панчић","name:sr":"Школа Јосиф Панчић","name:sr-Latn":"Škola Josif Pančić","network":"БГ Превоз","operator":"ГСП Београд","operator:wikidata":"Q8227578","public_transport":"platform","railway":"tram_stop","ref":"182","shelter":"yes","tram":"yes"}},{"type":"node","id":2077480034,"lat":44.7683654,"lon":20.413867,"tags":{"bench":"no","bin":"yes","gtfs:stop_id":"110","int_name":"Banovo Brdo","lit":"no","name":"Баново Брдо","name:sr":"Баново Брдо","name:sr-Latn":"Banovo Brdo","network":"БГ Превоз","operator":"ГСП Београд","operator:wikidata":"Q8227578","public_transport":"platform","railway":"tram_stop","ref":"110","shelter":"no","tram":"yes"}},{"type":"node","id":2077480043,"lat":44.7684559,"lon":20.413403,"tags":{"bench":"yes","bin":"yes","gtfs:stop_id":"20189","int_name":"Banovo Brdo","lit":"yes","name":"Баново Брдо","name:sr":"Баново Брдо","name:sr-Latn":"Banovo Brdo","network":"БГ Превоз","operator":"ГСП Београд","operator:wikidata":"Q8227578","public_transport":"platform","railway":"tram_stop","ref":"189","shelter":"yes","tram":"yes"}},{"type":"node","id":2077480054,"lat":44.7570182,"lon":20.4779816,"tags":{"bench":"yes","bin":"yes","gtfs:stop_id":"20170","int_name":"Banjica","lit":"yes","name":"Бањица","name:sr":"Бањица","name:sr-Latn":"Banjica","network":"БГ Превоз","operator":"ГСП Београд","operator:wikidata":"Q8227578","public_transport":"platform","railway":"tram_stop","ref":"170","shelter":"yes","tram":"yes"}},{"type":"node","id":2077480094,"lat":44.7586437,"lon":20.4833028,"tags":{"gtfs:stop_id":"20543","int_name":"Bebelova","name":"Бебелова","name:sr":"Бебелова","name:sr-Latn":"Bebelova","network":"БГ Превоз","operator":"ГСП Београд","operator:wikidata":"Q8227578","public_transport":"platform","railway":"tram_stop","ref":"543","tram":"yes"}},{"type":"node","id":2077480111,"lat":44.7588143,"lon":20.483473,"tags":{"gtfs:stop_id":"20542","int_name":"Bebelova","name":"Бебелова","name:sr":"Бебелова","name:sr-Latn":"Bebelova","network":"БГ Превоз","operator":"ГСП Београд","operator:wikidata":"Q8227578","public_transport":"platform","railway":"tram_stop","ref":"542","tram":"yes"}},{"type":"node","id":2077480138,"lat":44.8042291,"lon":20.4098705,"tags":{"bench":"yes","bin":"yes","gtfs:stop_id":"21935","int_name":"Naselje Belvil","lit":"yes","name":"Насеље Белвил","name:sr":"Насеље Белвил","name:sr-Latn":"Naselje Belvil","network":"БГ Превоз","operator":"ГСП Београд","operator:wikidata":"Q8227578","passenger_information_display":"no","public_transport":"platform","railway":"tram_stop","ref":"1935","shelter":"yes","tactile_paving":"no","tram":"yes"}},{"type":"node","id":2077480195,"lat":44.7612216,"lon":20.4841161,"tags":{"bench":"yes","bin":"no","gtfs:stop_id":"20175","int_name":"Vozdovac","lit":"yes","name":"Вождовац","name:sr":"Вождовац","name:sr-Latn":"Voždovac","network":"БГ Превоз","operator":"ГСП Београд","operator:wikidata":"Q8227578","public_transport":"platform","railway":"tram_stop","ref":"175","shelter":"yes","tram":"yes"}},{"type":"node","id":2077480205,"lat":44.7613216,"lon":20.4842415,"tags":{"bench":"yes","bin":"no","gtfs:stop_id":"20174","int_name":"Vozdovac","lit":"yes","name":"Вождовац","name:sr":"Вождовац","name:sr-Latn":"Voždovac","network":"БГ Превоз","operator":"ГСП Београд","operator:wikidata":"Q8227578","public_transport":"platform","railway":"tram_stop","ref":"174","shelter":"yes","tram":"yes"}},{"type":"node","id":2077480212,"lat":44.7570063,"lon":20.4812669,"tags":{"gtfs:stop_id":"20172","int_name":"Vracarska","name":"Врачарска","name:sr":"Врачарска","name:sr-Latn":"Vračarska","network":"БГ Превоз","operator":"ГСП Београд","operator:wikidata":"Q8227578","public_transport":"platform","railway":"tram_stop","ref":"172","shelter":"yes","tram":"yes"}},{"type":"node","id":2077480267,"lat":44.7937912,"lon":20.4312418,"tags":{"bench":"no","bin":"yes","gtfs:stop_id":"20022","int_name":"Gospodarska Mehana","lit":"yes","name":"Господарска Механа","name:sr":"Господарска Механа","name:sr-Latn":"Gospodarska Mehana","network":"БГ Превоз","operator":"ГСП Београд","operator:wikidata":"Q8227578","public_transport":"platform","railway":"tram_stop","ref":"22","shelter":"no","tram":"yes"}},{"type":"node","id":2077480353,"lat":44.7886579,"lon":20.4657497,"tags":{"bench":"yes","bin":"yes","gtfs:stop_id":"20152","int_name":"Zvecanska","lit":"yes","name":"Звечанска","name:sr":"Звечанска","name:sr-Latn":"Zvečanska","network":"БГ Превоз","operator":"ГСП Београд","operator:wikidata":"Q8227578","phone":"*011*152#","public_transport":"platform","railway":"tram_stop","ref":"152","shelter":"yes","tram":"yes","wheelchair":"yes"}},{"type":"node","id":2077480369,"lat":44.7970483,"lon":20.4652601,"tags":{"bench":"yes","bin":"yes","bus":"yes","gtfs:stop_id":"20148","highway":"bus_stop","int_name":"Karadjordjev park","lit":"yes","name":"Карађорђев парк","name:sr":"Карађорђев парк","name:sr-Latn":"Karađorđev park","network":"БГ Превоз","operator":"ГСП Београд","operator:wikidata":"Q8227578","public_transport":"platform","railway":"tram_stop","ref":"148","shelter":"yes","tram":"yes"}},{"type":"node","id":2077480379,"lat":44.7981985,"lon":20.4657201,"tags":{"bench":"yes","bin":"yes","bus":"yes","gtfs:stop_id":"20149","highway":"bus_stop","int_name":"Karadjordjev park","lit":"yes","name":"Карађорђев парк","name:sr":"Карађорђев парк","name:sr-Latn":"Karađorđev park","network":"БГ Превоз","operator":"ГСП Београд","operator:wikidata":"Q8227578","public_transport":"platform","railway":"tram_stop","ref":"149","shelter":"yes","tram":"yes"}},{"type":"node","id":2077480398,"lat":44.783426,"lon":20.4226187,"tags":{"bench":"yes","bin":"yes","bus":"yes","gtfs:stop_id":"20180","highway":"bus_stop","int_name":"Sumarski fakultet","lit":"yes","name":"Шумарски факултет","name:sr":"Шумарски факултет","name:sr-Latn":"Šumarski fakultet","network":"БГ Превоз","operator":"ГСП Београд","operator:wikidata":"Q8227578","public_transport":"platform","railway":"tram_stop","ref":"180","shelter":"yes","tram":"yes"}},{"type":"node","id":2077480515,"lat":44.8062011,"lon":20.4638081,"tags":{"bench":"yes","bin":"yes","gtfs:stop_id":"20113","int_name":"RK „Beogradjanka”","lit":"yes","name":"РК „Београђанка”","name:sr":"РК „Београђанка”","name:sr-Latn":"RK „Beograđanka”","network":"БГ Превоз","operator":"ГСП Београд","operator:wikidata":"Q8227578","public_transport":"platform","railway":"tram_stop","ref":"113","shelter":"yes","tram":"yes"}},{"type":"node","id":2077480565,"lat":44.7658729,"lon":20.4822567,"tags":{"bench":"yes","bin":"yes","bus":"yes","gtfs:stop_id":"20168","highway":"bus_stop","int_name":"Saobracajni fakultet","lit":"yes","name":"Саобраћајни факултет","name:sr":"Саобраћајни факултет","name:sr-Latn":"Saobraćajni fakultet","network":"БГ Превоз","operator":"ГСП Београд","operator:wikidata":"Q8227578","public_transport":"platform","railway":"tram_stop","ref":"168","shelter":"yes","tram":"yes"}},{"type":"node","id":2077480581,"lat":44.796382,"lon":20.4425204,"tags":{"bench":"yes","bin":"yes","gtfs:stop_id":"20019","int_name":"Sajam","lit":"yes","name":"Сајам","name:sr":"Сајам","name:sr-Latn":"Sajam","network":"БГ Превоз","operator":"ГСП Београд","operator:wikidata":"Q8227578","public_transport":"platform","railway":"tram_stop","ref":"19","shelter":"yes","tram":"yes"}},{"type":"node","id":2077480601,"lat":44.8088455,"lon":20.4669605,"tags":{"bench":"yes","bin":"yes","gtfs:stop_id":"20111","lit":"yes","name":"Ташмајдан","name:en":"Tasmajdan","name:sr":"Ташмајдан","name:sr-Latn":"Tašmajdan","network":"БГ Превоз","operator":"ГСП Београд","operator:wikidata":"Q8227578","public_transport":"platform","railway":"tram_stop","ref":"111","shelter":"yes","tram":"yes"}},{"type":"node","id":2077480684,"lat":44.7926322,"lon":20.4662891,"tags":{"bench":"yes","bin":"yes","gtfs:stop_id":"20150","int_name":"Franse d'Eperea","lit":"yes","name":"Франше д'Епереа","name:fr":"Franchet d'Esperey","name:sr":"Франше д'Епереа","name:sr-Latn":"Franše d'Eperea","network":"БГ Превоз","operator":"ГСП Београд","operator:wikidata":"Q8227578","phone":"*011*150#","public_transport":"platform","railway":"tram_stop","ref":"150","shelter":"yes","tram":"yes"}},{"type":"node","id":2077480689,"lat":44.7930148,"lon":20.466205,"tags":{"bench":"yes","bin":"yes","gtfs:stop_id":"20151","int_name":"Franse d'Eperea","lit":"yes","name":"Франше д'Епереа","name:fr":"Franchet d'Esperey","name:sr":"Франше д'Епереа","name:sr-Latn":"Franše d'Eperea","network":"БГ Превоз","operator":"ГСП Београд","operator:wikidata":"Q8227578","public_transport":"platform","railway":"tram_stop","ref":"151","shelter":"yes","tram":"yes"}},{"type":"node","id":2077480692,"lat":44.7878451,"lon":20.4242921,"tags":{"bench":"no","bin":"no","gtfs:stop_id":"20177","int_name":"Hipodrom","lit":"yes","name":"Хиподром","name:sr":"Хиподром","name:sr-Latn":"Hipodrom","network":"БГ Превоз","operator":"ГСП Београд","operator:wikidata":"Q8227578","public_transport":"platform","railway":"tram_stop","ref":"177","shelter":"no","tram":"yes"}},{"type":"node","id":2077480693,"lat":44.7873732,"lon":20.423662,"tags":{"bench":"no","bin":"no","gtfs:stop_id":"178","int_name":"Hipodrom","lit":"yes","name":"Хиподром","name:sr":"Хиподром","name:sr-Latn":"Hipodrom","network":"БГ Превоз","operator":"ГСП Београд","operator:wikidata":"Q8227578","public_transport":"platform","railway":"tram_stop","ref":"178","shelter":"no","tram":"yes"}},{"type":"node","id":3889684920,"lat":44.8141323,"lon":20.4902792,"tags":{"bench":"yes","bin":"yes","bus":"yes","gtfs:stop_id":"20550","highway":"bus_stop","int_name":"Omladinski stadion","lit":"yes","name":"Омладински стадион","name:sr":"Омладински стадион","name:sr-Latn":"Omladinski stadion","network":"БГ Превоз","operator":"ГСП Београд","operator:wikidata":"Q8227578","public_transport":"platform","railway":"tram_stop","ref":"550","shelter":"yes","tram":"yes"}},{"type":"node","id":4049278991,"lat":44.7871721,"lon":20.4663062,"tags":{"bench":"no","bin":"yes","bus":"yes","gtfs:stop_id":"20153","highway":"bus_stop","int_name":"Trg Oslobodjenja","lit":"yes","name":"Трг Ослобођења","name:sr":"Трг Ослобођења","name:sr-Latn":"Trg Oslobođenja","network":"БГ Превоз","operator":"ГСП Београд","operator:wikidata":"Q8227578","public_transport":"platform","railway":"tram_stop","ref":"153","shelter":"yes","tram":"yes"}},{"type":"node","id":4049278992,"lat":44.7862282,"lon":20.4673205,"tags":{"bench":"no","bin":"yes","bus":"yes","gtfs:stop_id":"20154","highway":"bus_stop","int_name":"Trg Oslobodjenja","lit":"yes","name":"Трг Ослобођења","name:sr":"Трг Ослобођења","name:sr-Latn":"Trg Oslobođenja","network":"БГ Превоз","operator":"ГСП Београд","operator:wikidata":"Q8227578","public_transport":"platform","railway":"tram_stop","ref":"154","shelter":"yes","tram":"yes"}},{"type":"node","id":4049286568,"lat":44.7835089,"lon":20.4703706,"tags":{"bench":"no","bin":"yes","bus":"yes","gtfs:stop_id":"20156","highway":"bus_stop","int_name":"Boze Jankovica","lit":"yes","name":"Боже Јанковића","name:sr":"Боже Јанковића","name:sr-Latn":"Bože Jankovića","network":"БГ Превоз","operator":"ГСП Београд","operator:wikidata":"Q8227578","public_transport":"platform","railway":"tram_stop","ref":"156","shelter":"yes","tram":"yes"}},{"type":"node","id":4049286569,"lat":44.7820992,"lon":20.4714156,"tags":{"bench":"no","bin":"yes","bus":"yes","gtfs:stop_id":"20157","highway":"bus_stop","int_name":"Kralja Vladimira","lit":"yes","name":"Краља Владимира","name:sr":"Краља Владимира","name:sr-Latn":"Kralja Vladimira","network":"БГ Превоз","operator":"ГСП Београд","operator:wikidata":"Q8227578","public_transport":"platform","railway":"tram_stop","ref":"157","shelter":"no","tram":"yes"}},{"type":"node","id":4049286570,"lat":44.7816616,"lon":20.4717698,"tags":{"bench":"no","bin":"yes","bus":"yes","gtfs:stop_id":"20158","highway":"bus_stop","int_name":"Kralja Vladimira","lit":"yes","name":"Краља Владимира","name:sr":"Краља Владимира","name:sr-Latn":"Kralja Vladimira","network":"БГ Превоз","operator":"ГСП Београд","operator:wikidata":"Q8227578","public_transport":"platform","railway":"tram_stop","ref":"158","shelter":"yes","tram":"yes"}},{"type":"node","id":4049286571,"lat":44.7785966,"lon":20.4737376,"tags":{"bench":"yes","bin":"yes","bus":"yes","gtfs:stop_id":"20159","highway":"bus_stop","int_name":"Vitanovacka","lit":"yes","name":"Витановачка","name:sr":"Витановачка","name:sr-Latn":"Vitanovačka","network":"БГ Превоз","operator":"ГСП Београд","operator:wikidata":"Q8227578","public_transport":"platform","railway":"tram_stop","ref":"159","shelter":"yes","tram":"yes"}},{"type":"node","id":4049286572,"lat":44.7773049,"lon":20.4745804,"tags":{"bench":"yes","bin":"yes","bus":"yes","gtfs:stop_id":"20160","highway":"bus_stop","int_name":"Vitanovacka","lit":"yes","name":"Витановачка","name:sr":"Витановачка","name:sr-Latn":"Vitanovačka","network":"БГ Превоз","operator":"ГСП Београд","operator:wikidata":"Q8227578","public_transport":"platform","railway":"tram_stop","ref":"160","shelter":"yes","tram":"yes"}},{"type":"node","id":4049286573,"lat":44.7752301,"lon":20.4754304,"tags":{"bench":"yes","bin":"yes","bus":"yes","gtfs:stop_id":"20161","highway":"bus_stop","int_name":"Petrovacka","lit":"yes","name":"Петровачка","name:sr":"Петровачка","name:sr-Latn":"Petrovačka","network":"БГ Превоз","operator":"ГСП Београд","operator:wikidata":"Q8227578","public_transport":"platform","railway":"tram_stop","ref":"161","shelter":"yes","tram":"yes"}},{"type":"node","id":4049286574,"lat":44.7729763,"lon":20.4771825,"tags":{"bench":"no","bin":"yes","bus":"yes","gtfs:stop_id":"20164","highway":"bus_stop","int_name":"Niksicka","lit":"yes","name":"Никшићка","name:sr":"Никшићка","name:sr-Latn":"Nikšićka","network":"БГ Превоз","operator":"ГСП Београд","operator:wikidata":"Q8227578","public_transport":"platform","railway":"tram_stop","ref":"164","shelter":"yes","tram":"yes"}},{"type":"node","id":4049286575,"lat":44.7714852,"lon":20.4778632,"tags":{"bench":"no","bin":"yes","bus":"yes","gtfs:stop_id":"20163","highway":"bus_stop","int_name":"Niksicka","lit":"yes","name":"Никшићка","name:sr":"Никшићка","name:sr-Latn":"Nikšićka","network":"БГ Превоз","operator":"ГСП Београд","operator:wikidata":"Q8227578","public_transport":"platform","railway":"tram_stop","ref":"163","shelter":"yes","tram":"yes"}},{"type":"node","id":4119241489,"lat":44.768456,"lon":20.4795877,"tags":{"bench":"no","bin":"yes","bus":"yes","gtfs:stop_id":"20165","highway":"bus_stop","int_name":"Visoka Skola Elektrotehnike","lit":"yes","name":"Висока Школа Електротехнике","name:sr":"Висока Школа Електротехнике","name:sr-Latn":"Visoka Škola elektrotehnike","network":"БГ Превоз","operator":"ГСП Београд","operator:wikidata":"Q8227578","public_transport":"platform","railway":"tram_stop","ref":"165","shelter":"yes","tram":"yes"}},{"type":"node","id":4119257424,"lat":44.765182,"lon":20.4824584,"tags":{"bench":"no","bin":"yes","bus":"yes","gtfs:stop_id":"20167","highway":"bus_stop","int_name":"Saobracajni Fakultet","lit":"yes","name":"Саобраћајни Факултет","name:sr":"Саобраћајни Факултет","name:sr-Latn":"Saobraćajni Fakultet","network":"БГ Превоз","operator":"ГСП Београд","operator:wikidata":"Q8227578","public_transport":"platform","railway":"tram_stop","ref":"167","shelter":"yes","tram":"yes"}},{"type":"node","id":4664577045,"lat":44.7848822,"lon":20.5176965,"tags":{"bench":"no","gtfs:stop_id":"20106","int_name":"Ustanicka","name":"Устаничка","name:sr-Latn":"Ustanička","network":"БГ Превоз","operator":"ГСП Београд","operator:wikidata":"Q8227578","public_transport":"platform","railway":"tram_stop","ref":"106","shelter":"yes","tram":"yes"}},{"type":"node","id":4678513201,"lat":44.8213449,"lon":20.464052,"tags":{"bench":"yes","bin":"yes","bus":"yes","gtfs:stop_id":"20053","highway":"bus_stop","lit":"yes","name":"Дорћол /Кнегиње Љубице/","name:en":"Dorcol /Kneginje Ljubice/","name:sr":"Дорћол /Кнегиње Љубице/","name:sr-Latn":"Dorćol /Kneginje Ljubice/","network":"БГ Превоз","operator":"ГСП Београд","operator:wikidata":"Q8227578","public_transport":"platform","railway":"tram_stop","ref":"53","shelter":"yes","tram":"yes"}},{"type":"node","id":4678513204,"lat":44.8233975,"lon":20.4602437,"tags":{"bench":"yes","bin":"yes","bus":"yes","covered":"yes","gtfs:stop_id":"20074","highway":"bus_stop","lit":"yes","name":"Краља Петра","name:en":"Kralja Petra","name:sr":"Краља Петра","name:sr-Latn":"Kralja Petra","network":"БГ Превоз","operator":"ГСП Београд","operator:wikidata":"Q8227578","public_transport":"platform","railway":"tram_stop","ref":"74","tram":"yes"}},{"type":"node","id":4682111487,"lat":44.8251138,"lon":20.4570512,"tags":{"bench":"yes","bin":"yes","bus":"yes","gtfs:stop_id":"20072","highway":"bus_stop","int_name":"Braće Baruh","lit":"yes","name":"Браће Барух","name:sr":"Браће Барух","name:sr-Latn":"Braće Baruh","network":"БГ Превоз","operator":"ГСП Београд","operator:wikidata":"Q8227578","public_transport":"platform","railway":"tram_stop","ref":"72","shelter":"yes","tram":"yes"}},{"type":"node","id":4682111488,"lat":44.8246664,"lon":20.457518,"tags":{"bench":"yes","bin":"no","bus":"yes","gtfs:stop_id":"20071","highway":"bus_stop","int_name":"Braće Baruh","lit":"yes","name":"Браће Барух","name:sr":"Браће Барух","name:sr-Latn":"Braće Baruh","network":"БГ Превоз","operator":"ГСП Београд","operator:wikidata":"Q8227578","public_transport":"platform","railway":"tram_stop","ref":"71","shelter":"yes","tram":"yes"}},{"type":"node","id":4682134316,"lat":44.8210965,"lon":20.4640914,"tags":{"bench":"yes","bin":"yes","bus":"yes","gtfs:stop_id":"20052","highway":"bus_stop","lit":"yes","name":"Дорћол /Кнегиње Љубице/","name:en":"Dorcol /Kneginje Ljubice/","name:sr":"Дорћол /Кнегиње Љубице/","name:sr-Latn":"Dorćol /Kneginje Ljubice/","network":"БГ Превоз","operator":"ГСП Београд","operator:wikidata":"Q8227578","public_transport":"platform","railway":"tram_stop","ref":"52","shelter":"yes","tram":"yes"}},{"type":"node","id":4682134319,"lat":44.8165495,"lon":20.4693458,"tags":{"bench":"yes","bin":"yes","bus":"yes","gtfs:stop_id":"20057","highway":"bus_stop","int_name":"Bulevar despota Stefana","lit":"yes","name":"Булевар деспота Стефана","name:sr":"Булевар деспота Стефана","name:sr-Latn":"Bulevar despota Stefana","network":"БГ Превоз","operator":"ГСП Београд","operator:wikidata":"Q8227578","public_transport":"platform","railway":"tram_stop","ref":"57","shelter":"yes","tram":"yes"}},{"type":"node","id":4682134320,"lat":44.8165122,"lon":20.4691282,"tags":{"bench":"yes","bin":"yes","bus":"yes","gtfs:stop_id":"20056","highway":"bus_stop","int_name":"Bulevar despota Stefana","lit":"yes","name":"Булевар деспота Стефана","name:sr":"Булевар деспота Стефана","name:sr-Latn":"Bulevar despota Stefana","network":"БГ Превоз","operator":"ГСП Београд","operator:wikidata":"Q8227578","public_transport":"platform","railway":"tram_stop","ref":"56","shelter":"yes","tram":"yes"}},{"type":"node","id":4682134321,"lat":44.8135287,"lon":20.4719087,"tags":{"bench":"yes","bin":"yes","bus":"yes","gtfs:stop_id":"20058","highway":"bus_stop","lit":"yes","name":"Таковска","name:en":"Takovska","name:sr":"Таковска","name:sr-Latn":"Takovska","network":"БГ Превоз","operator":"ГСП Београд","operator:wikidata":"Q8227578","public_transport":"platform","railway":"tram_stop","ref":"58","shelter":"yes","tram":"yes"}},{"type":"node","id":4682134322,"lat":44.8130673,"lon":20.472488,"tags":{"bench":"yes","bin":"yes","bus":"yes","gtfs:stop_id":"20059","highway":"bus_stop","int_name":"Takovska","lit":"yes","name":"Таковска","name:sr":"Таковска","name:sr-Latn":"Takovska","network":"БГ Превоз","operator":"ГСП Београд","operator:wikidata":"Q8227578","public_transport":"platform","railway":"tram_stop","ref":"59","shelter":"yes","tram":"yes"}},{"type":"node","id":4682176364,"lat":44.810413,"lon":20.474501,"tags":{"bench":"yes","bin":"no","bus":"yes","gtfs:stop_id":"20743","highway":"bus_stop","int_name":"Palilulska pijaca","lit":"yes","name":"Палилулска пијаца","name:sr":"Палилулска пијаца","name:sr-Latn":"Palilulska pijaca","network":"БГ Превоз","operator":"ГСП Београд","operator:wikidata":"Q8227578","public_transport":"platform","railway":"tram_stop","ref":"743","shelter":"yes","tram":"yes"}},{"type":"node","id":4683760781,"lat":44.8064701,"lon":20.4642198,"tags":{"bench":"yes","bin":"yes","bus":"yes","gtfs:stop_id":"20114","highway":"bus_stop","int_name":"RK „Beogradjanka”","lit":"yes","name":"РК „Београђанка”","name:sr":"РК „Београђанка”","name:sr-Latn":"RK „Beograđanka”","network":"БГ Превоз","operator":"ГСП Београд","operator:wikidata":"Q8227578","public_transport":"platform","railway":"tram_stop","ref":"114","shelter":"yes","tram":"yes"}},{"type":"node","id":4699402884,"lat":44.7892755,"lon":20.515935,"tags":{"bench":"yes","bin":"yes","bus":"yes","gtfs:stop_id":"20105","highway":"bus_stop","int_name":"Koste Trifkovica","lit":"yes","name":"Косте Трифковића","name:sr":"Косте Трифковића","name:sr-Latn":"Koste Trifkovića","network":"БГ Превоз","operator":"ГСП Београд","operator:wikidata":"Q8227578","public_transport":"platform","railway":"tram_stop","ref":"105","shelter":"yes","tram":"yes"}},{"type":"node","id":4699402885,"lat":44.7910703,"lon":20.5126762,"tags":{"bus":"yes","gtfs:stop_id":"20103","highway":"bus_stop","int_name":"Mite Ruzica","name":"Мите Ружића","name:sr":"Мите Ружића","name:sr-Latn":"Mite Ružića","network":"БГ Превоз","operator":"ГСП Београд","operator:wikidata":"Q8227578","public_transport":"platform","railway":"tram_stop","ref":"103","tram":"yes"}},{"type":"node","id":4708808677,"lat":44.8014345,"lon":20.4662989,"tags":{"bench":"yes","bin":"no","bus":"yes","gtfs:stop_id":"20147","highway":"bus_stop","int_name":"Trg Slavija /Bulevar oslobodjenja/","lit":"yes","name":"Трг Славија /Булевар ослобођења/","name:sr":"Трг Славија /Булевар ослобођења/","name:sr-Latn":"Trg Slavija /Bulevar oslobođenja/","network":"БГ Превоз","operator":"ГСП Београд","operator:wikidata":"Q8227578","public_transport":"platform","railway":"tram_stop","ref":"147","shelter":"yes","tram":"yes"}},{"type":"node","id":4711601672,"lat":44.8148639,"lon":20.4508835,"tags":{"bench":"no","bin":"yes","gtfs:stop_id":"20008","int_name":"Brankov most","lit":"yes","name":"Бранков мост","name:sr":"Бранков мост","name:sr-Latn":"Brankov most","network":"БГ Превоз","operator":"ГСП Београд","operator:wikidata":"Q8227578","public_transport":"platform","railway":"tram_stop","ref":"8","shelter":"no","tram":"yes"}},{"type":"node","id":4715251009,"lat":44.8078317,"lon":20.4768342,"tags":{"bench":"yes","bin":"yes","bus":"yes","gtfs:stop_id":"20085","highway":"bus_stop","int_name":"Masinski fakultet","name":"Машински факултет","name:sr":"Машински факултет","name:sr-Latn":"Mašinski fakultet","network":"БГ Превоз","operator":"ГСП Београд","operator:wikidata":"Q8227578","public_transport":"platform","railway":"tram_stop","ref":"85","shelter":"yes","tram":"yes"}},{"type":"node","id":4723293167,"lat":44.7950788,"lon":20.4375576,"tags":{"bench":"yes","bin":"yes","gtfs:stop_id":"20021","int_name":"Ruska","lit":"yes","name":"Руска","name:sr-Latn":"Ruska","network":"БГ Превоз","operator":"ГСП Београд","operator:wikidata":"Q8227578","public_transport":"platform","railway":"tram_stop","ref":"21","shelter":"yes","tram":"yes"}},{"type":"node","id":4743850040,"lat":44.8145676,"lon":20.4910697,"tags":{"bench":"yes","bin":"yes","bus":"yes","gtfs:stop_id":"20076","highway":"bus_stop","int_name":"Omladinski stadion","lit":"yes","name":"Омладински стадион","name:sr":"Омладински стадион","name:sr-Latn":"Omladinski stadion","network":"БГ Превоз","operator":"ГСП Београд","operator:wikidata":"Q8227578","public_transport":"platform","railway":"tram_stop","ref":"76","shelter":"yes","tram":"yes"}},{"type":"node","id":5119929380,"lat":44.7844907,"lon":20.5180642,"tags":{"bench":"no","bin":"yes","gtfs:stop_id":"20107","int_name":"Ustanicka","lit":"yes","name":"Устаничка","name:etymology:wikidata":"Q124734","name:sr-Latn":"Ustanička","network":"БГ Превоз","operator":"ГСП Београд","operator:wikidata":"Q8227578","public_transport":"platform","railway":"tram_stop","ref":"107","shelter":"yes","tram":"yes"}},{"type":"node","id":5119930305,"lat":44.8074715,"lon":20.4720642,"tags":{"bench":"no","bin":"yes","bus":"yes","gtfs:stop_id":"20176","highway":"bus_stop","lit":"yes","name":"Правни факултет","name:en":"Pravni fakultet","name:sr":"Правни факултет","name:sr-Latn":"Pravni fakultet","network":"БГ Превоз","operator":"ГСП Београд","operator:wikidata":"Q8227578","public_transport":"platform","railway":"tram_stop","ref":"176","shelter":"no","tram":"yes"}},{"type":"node","id":5119930329,"lat":44.7714827,"lon":20.4143428,"tags":{"bench":"yes","bin":"yes","bus":"yes","gtfs:stop_id":"20188","highway":"bus_stop","int_name":"Trebevicka","lit":"yes","name":"Требевићка","name:sr":"Требевићка","name:sr-Latn":"Trebevićka","network":"БГ Превоз","operator":"ГСП Београд","operator:wikidata":"Q8227578","public_transport":"platform","railway":"tram_stop","ref":"188","shelter":"yes","tram":"yes"}},{"type":"node","id":5119930330,"lat":44.7713297,"lon":20.4141134,"tags":{"bench":"yes","bin":"yes","bus":"yes","gtfs:stop_id":"20187","highway":"bus_stop","int_name":"Trebevicka","lit":"yes","name":"Требевићка","name:sr":"Требевићка","name:sr-Latn":"Trebevićka","network":"БГ Превоз","operator":"ГСП Београд","operator:wikidata":"Q8227578","public_transport":"platform","railway":"tram_stop","ref":"187","shelter":"yes","tram":"yes"}},{"type":"node","id":5119930331,"lat":44.7830536,"lon":20.4210815,"tags":{"bench":"no","bin":"yes","bus":"yes","gtfs:stop_id":"20179","highway":"bus_stop","int_name":"Sumarski fakultet","lit":"yes","name":"Шумарски факултет","name:sr":"Шумарски факултет","name:sr-Latn":"Šumarski fakultet","network":"БГ Превоз","operator":"ГСП Београд","operator:wikidata":"Q8227578","public_transport":"platform","railway":"tram_stop","ref":"179","shelter":"yes","tram":"yes"}},{"type":"node","id":6525065692,"lat":44.7919259,"lon":20.4268818,"tags":{"bench":"yes","bin":"yes","gtfs:stop_id":"23030","int_name":"Petlja Radnicka","layer":"2","lit":"yes","name":"Петља Радничка","name:sr":"Петља Радничка","name:sr-Latn":"Petlja Radnička","network":"БГ Превоз","operator":"ГСП Београд","operator:wikidata":"Q8227578","public_transport":"platform","railway":"tram_stop","ref":"3030","shelter":"yes","tram":"yes"}},{"type":"node","id":6525065694,"lat":44.7925614,"lon":20.4268349,"tags":{"bench":"yes","bin":"yes","gtfs:stop_id":"23029","int_name":"Petlja Radnicka","layer":"2","lit":"yes","name":"Петља Радничка","name:sr":"Петља Радничка","name:sr-Latn":"Petlja Radnička","network":"БГ Превоз","operator":"ГСП Београд","operator:wikidata":"Q8227578","public_transport":"platform","railway":"tram_stop","ref":"3029","shelter":"yes","tram":"yes"}},{"type":"node","id":6525065695,"lat":44.8069535,"lon":20.4158104,"tags":{"bench":"yes","bin":"yes","gtfs:stop_id":"23028","int_name":"Djordja Stanojevica","layer":"1","lit":"yes","name":"Ђорђа Станојевића","name:sr":"Ђорђа Станојевића","name:sr-Latn":"Đorđa Stanojevića","network":"БГ Превоз","operator":"ГСП Београд","operator:wikidata":"Q8227578","public_transport":"platform","railway":"tram_stop","ref":"3028","shelter":"yes","tram":"yes"}},{"type":"node","id":6525071185,"lat":44.807336,"lon":20.4152546,"tags":{"bench":"yes","bin":"yes","gtfs:stop_id":"23027","int_name":"Djordja Stanojevica","layer":"1","lit":"yes","name":"Ђорђа Станојевића","name:sr":"Ђорђа Станојевића","name:sr-Latn":"Đorđa Stanojevića","network":"БГ Превоз","operator":"ГСП Београд","operator:wikidata":"Q8227578","public_transport":"platform","railway":"tram_stop","ref":"3027","shelter":"yes","tram":"yes"}},{"type":"node","id":6670711096,"lat":44.8040035,"lon":20.4787264,"tags":{"bench":"no","bin":"yes","departures_board":"realtime","gtfs:stop_id":"20086","int_name":"Vukov spomenik /Bulevar kralja Aleksandra/","lit":"yes","name":"Вуков споменик /Булевар краља Александра/","name:sr":"Вуков споменик /Булевар краља Александра/","name:sr-Latn":"Vukov spomenik /Bulevar kralja Aleksandra/","network":"БГ Превоз","operator":"ГСП Београд","operator:wikidata":"Q8227578","public_transport":"platform","railway":"tram_stop","ref":"86","shelter":"yes","tram":"yes"}},{"type":"node","id":6670711099,"lat":44.7951034,"lon":20.4373542,"tags":{"bench":"yes","bin":"yes","gtfs:stop_id":"20","int_name":"Ruska","lit":"yes","name":"Руска","name:sr-Latn":"Ruska","network":"БГ Превоз","operator":"ГСП Београд","operator:wikidata":"Q8227578","public_transport":"platform","railway":"tram_stop","ref":"20","shelter":"yes","tram":"yes"}},{"type":"node","id":6670711101,"lat":44.8029802,"lon":20.4647005,"tags":{"bench":"no","bin":"yes","gtfs:stop_id":"20068","int_name":"Trg Slavija /Nemanjina/","lit":"yes","name":"Трг Славија /Немањина/","name:sr-Latn":"Trg Slavija /Nemanjina/","network":"БГ Превоз","operator":"ГСП Београд","operator:wikidata":"Q8227578","public_transport":"platform","railway":"tram_stop","ref":"68","shelter":"yes","source":"Bing aerial imagery","tram":"yes"}},{"type":"node","id":6670711105,"lat":44.8092739,"lon":20.467604,"tags":{"bench":"no","bin":"yes","gtfs:stop_id":"20112","lit":"yes","name":"Ташмајдан","name:en":"Tasmajdan","name:sr":"Ташмајдан","name:sr-Latn":"Tašmajdan","network":"БГ Превоз","operator":"ГСП Београд","operator:wikidata":"Q8227578","public_transport":"platform","railway":"tram_stop","ref":"112","shelter":"no","tram":"yes"}},{"type":"node","id":6670711108,"lat":44.807562,"lon":20.4708483,"tags":{"bench":"no","bin":"yes","gtfs:stop_id":"20109","lit":"yes","name":"Правни факултет","name:en":"Pravni fakultet","name:sr":"Правни факултет","name:sr-Latn":"Pravni fakultet","network":"БГ Превоз","operator":"ГСП Београд","operator:wikidata":"Q8227578","public_transport":"platform","railway":"tram_stop","ref":"109","shelter":"no","tram":"yes"}},{"type":"node","id":6670711120,"lat":44.8039373,"lon":20.4163444,"tags":{"bench":"yes","bin":"yes","gtfs:stop_id":"20128","int_name":"Beogradska autobuska stanica","lit":"yes","name":"Београдска аутобуска станица","name:sr":"Београдска аутобуска станица","name:sr-Latn":"Beogradska autobuska stanica","network":"БГ Превоз","operator":"ГСП Београд","operator:wikidata":"Q8227578","public_transport":"platform","railway":"tram_stop","ref":"128","shelter":"yes","tram":"yes"}},{"type":"node","id":6670711121,"lat":44.8044847,"lon":20.4002706,"tags":{"bench":"yes","bin":"yes","departures_board":"realtime","gtfs:stop_id":"20133","int_name":"Omladinskih Brigada","lit":"yes","name":"Омладинских Бригада","name:sr":"Омладинских Бригада","name:sr-Latn":"Omladinskih Brigada","network":"БГ Превоз","operator":"ГСП Београд","operator:wikidata":"Q8227578","public_transport":"platform","railway":"tram_stop","ref":"133","shelter":"yes","tram":"yes"}},{"type":"node","id":6670711195,"lat":44.7969689,"lon":20.4955123,"tags":{"bench":"no","bin":"yes","gtfs:stop_id":"20094","int_name":"Lion","lit":"yes","name":"Лион","name:sr-Latn":"Lion","network":"БГ Превоз","operator":"ГСП Београд","operator:wikidata":"Q8227578","public_transport":"platform","railway":"tram_stop","ref":"94","shelter":"yes","tram":"yes"}},{"type":"node","id":6670711196,"lat":44.7974347,"lon":20.4945983,"tags":{"bench":"no","bin":"yes","gtfs:stop_id":"20095","int_name":"Lion","lit":"yes","name":"Лион","name:sr":"Лион","name:sr-Latn":"Lion","network":"БГ Превоз","operator":"ГСП Београд","operator:wikidata":"Q8227578","public_transport":"platform","railway":"tram_stop","ref":"95","shelter":"yes","tram":"yes"}},{"type":"node","id":6670711199,"lat":44.8045006,"lon":20.4777214,"tags":{"bench":"no","bin":"yes","departures_board":"realtime","gtfs:stop_id":"20108","int_name":"Vukov spomenik /Bulevar kralja Aleksandra/","lit":"yes","name":"Вуков споменик /Булевар краља Александра/","name:sr":"Вуков споменик /Булевар краља Александра/","name:sr-Latn":"Vukov spomenik /Bulevar kralja Aleksandra/","network":"БГ Превоз","operator":"ГСП Београд","operator:wikidata":"Q8227578","public_transport":"platform","railway":"tram_stop","ref":"108","shelter":"yes","tram":"yes"}},{"type":"node","id":6670711200,"lat":44.8054253,"lon":20.4540206,"tags":{"bench":"yes","bin":"yes","gtfs:stop_id":"15","int_name":"Palata pravde","lit":"yes","name":"Палата правде","name:sr":"Палата правде","name:sr-Latn":"Palata pravde","network":"БГ Превоз","operator":"ГСП Београд","operator:wikidata":"Q8227578","public_transport":"platform","railway":"tram_stop","ref":"15","shelter":"yes","tram":"yes"}},{"type":"node","id":6670711202,"lat":44.804121,"lon":20.4528248,"tags":{"bench":"yes","bin":"yes","gtfs:stop_id":"20014","int_name":"Palata pravde","lit":"yes","name":"Палата правде","name:sr":"Палата правде","name:sr-Latn":"Palata pravde","network":"БГ Превоз","operator":"ГСП Београд","operator:wikidata":"Q8227578","public_transport":"platform","railway":"tram_stop","ref":"14","shelter":"yes","tram":"yes"}},{"type":"node","id":6670711206,"lat":44.8065853,"lon":20.4181299,"tags":{"bench":"no","bin":"yes","gtfs:stop_id":"20126","int_name":"Zeleznicka stanica „Novi Beograd”","lit":"yes","name":"Железничка станица „Нови Београд”","name:sr":"Железничка станица „Нови Београд”","name:sr-Latn":"Železnička stanica „Novi Beograd”","network":"БГ Превоз","operator":"ГСП Београд","operator:wikidata":"Q8227578","public_transport":"platform","railway":"tram_stop","ref":"126","shelter":"yes","tram":"yes"}},{"type":"node","id":6670711207,"lat":44.8045412,"lon":20.4028062,"tags":{"bench":"yes","bin":"yes","departures_board":"realtime","gtfs:stop_id":"20130","lit":"yes","name":"Агостина Нета","name:en":"Agostina Neta","name:sr":"Агостина Нета","name:sr-Latn":"Agostina Neta","network":"БГ Превоз","operator":"ГСП Београд","operator:wikidata":"Q8227578","public_transport":"platform","railway":"tram_stop","ref":"130","shelter":"yes","tram":"yes"}},{"type":"node","id":6670711289,"lat":44.757333,"lon":20.477658,"tags":{"bench":"no","bin":"no","gtfs:stop_id":"20171","int_name":"Banjica","lit":"yes","name":"Бањица","name:sr":"Бањица","name:sr-Latn":"Banjica","network":"БГ Превоз","operator":"ГСП Београд","operator:wikidata":"Q8227578","public_transport":"platform","railway":"tram_stop","ref":"171","shelter":"no","tram":"yes"}},{"type":"node","id":6670711290,"lat":44.7959134,"lon":20.4981869,"tags":{"bench":"yes","bin":"yes","gtfs:stop_id":"20097","int_name":"Batutova","lit":"yes","name":"Батутова","name:sr":"Батутова","name:sr-Latn":"Batutova","network":"БГ Превоз","operator":"ГСП Београд","operator:wikidata":"Q8227578","public_transport":"platform","railway":"tram_stop","ref":"97","shelter":"yes","tram":"yes"}},{"type":"node","id":6670711291,"lat":44.8009801,"lon":20.4861572,"tags":{"bench":"no","bin":"yes","departures_board":"realtime","gtfs:stop_id":"20090","int_name":"Pijaca Djeram","lit":"yes","name":"Пијаца Ђерам","name:sr":"Пијаца Ђерам","name:sr-Latn":"Pijaca Đeram","network":"БГ Превоз","operator":"ГСП Београд","operator:wikidata":"Q8227578","public_transport":"platform","railway":"tram_stop","ref":"90","shelter":"yes","tram":"yes"}},{"type":"node","id":6670711305,"lat":44.8045937,"lon":20.4173241,"tags":{"bench":"yes","bin":"yes","gtfs:stop_id":"20129","int_name":"Beogradska autobuska stanica","lit":"yes","name":"Београдска аутобуска станица","name:sr":"Београдска аутобуска станица","name:sr-Latn":"Beogradska autobuska stanica","network":"БГ Превоз","operator":"ГСП Београд","operator:wikidata":"Q8227578","public_transport":"platform","railway":"tram_stop","ref":"129","shelter":"yes","tram":"yes"}},{"type":"node","id":6670711308,"lat":44.8041667,"lon":20.3939661,"tags":{"bench":"yes","bin":"yes","departures_board":"realtime","gtfs:stop_id":"20135","int_name":"Blok 70","lit":"yes","name":"Блок 70","name:sr":"Блок 70","name:sr-Latn":"Blok 70","network":"БГ Превоз","operator":"ГСП Београд","operator:wikidata":"Q8227578","public_transport":"platform","railway":"tram_stop","ref":"135","shelter":"yes","tram":"yes"}},{"type":"node","id":6670711392,"lat":44.7986142,"lon":20.4916495,"tags":{"bench":"no","bin":"yes","gtfs:stop_id":"20092","int_name":"Pop Stojanova","lit":"yes","name":"Поп Стојанова","name:sr-Latn":"Pop Stojanova","network":"БГ Превоз","operator":"ГСП Београд","operator:wikidata":"Q8227578","public_transport":"platform","railway":"tram_stop","ref":"92","shelter":"yes","tram":"yes"}},{"type":"node","id":6670711394,"lat":44.8022519,"lon":20.4828973,"tags":{"bench":"yes","bin":"yes","gtfs:stop_id":"20087","int_name":"GO Zvezdara","lit":"yes","name":"ГО Звездара","name:sr":"ГО Звездара","name:sr-Latn":"GO Zvezdara","network":"БГ Превоз","operator":"ГСП Београд","operator:wikidata":"Q8227578","public_transport":"platform","railway":"tram_stop","ref":"87","shelter":"yes","tram":"yes"}},{"type":"node","id":6670711400,"lat":44.7985485,"lon":20.4485929,"tags":{"bench":"no","bin":"yes","gtfs:stop_id":"20016","int_name":"Mostar","lit":"yes","name":"Мостар","name:sr":"Мостар","name:sr-Latn":"Mostar","network":"БГ Превоз","operator":"ГСП Београд","operator:wikidata":"Q8227578","public_transport":"platform","railway":"tram_stop","ref":"16","shelter":"yes","tram":"yes"}},{"type":"node","id":6670711401,"lat":44.8035244,"lon":20.4639959,"tags":{"bench":"no","bin":"yes","gtfs:stop_id":"20067","int_name":"Trg Slavija /Nemanjina/","lit":"yes","name":"Трг Славија /Немањина/","name:sr-Latn":"Trg Slavija /Nemanjina/","network":"БГ Превоз","operator":"ГСП Београд","operator:wikidata":"Q8227578","public_transport":"platform","railway":"tram_stop","ref":"67","shelter":"yes","tram":"yes"}},{"type":"node","id":6670711409,"lat":44.8041006,"lon":20.4107373,"tags":{"bench":"yes","bin":"yes","gtfs:stop_id":"21936","int_name":"Naselje Belvil","lit":"yes","name":"Насеље Белвил","name:sr":"Насеље Белвил","name:sr-Latn":"Naselje Belvil","network":"БГ Превоз","operator":"ГСП Београд","operator:wikidata":"Q8227578","public_transport":"platform","railway":"tram_stop","ref":"1936","shelter":"yes","tram":"yes"}},{"type":"node","id":6670711410,"lat":44.8043777,"lon":20.404668,"tags":{"bench":"yes","bin":"yes","gtfs:stop_id":"20131","lit":"yes","name":"Агостина Нета","name:en":"Agostina Neta","name:sr":"Агостина Нета","name:sr-Latn":"Agostina Neta","network":"БГ Превоз","operator":"ГСП Београд","operator:wikidata":"Q8227578","public_transport":"platform","railway":"tram_stop","ref":"131","shelter":"yes","tram":"yes"}},{"type":"node","id":6670711411,"lat":44.8045414,"lon":20.3984286,"tags":{"bench":"yes","bin":"yes","departures_board":"realtime","gtfs:stop_id":"20132","int_name":"Omladinskih Brigada","lit":"yes","name":"Омладинских Бригада","name:sr":"Омладинских Бригада","name:sr-Latn":"Omladinskih Brigada","network":"БГ Превоз","operator":"ГСП Београд","operator:wikidata":"Q8227578","public_transport":"platform","railway":"tram_stop","ref":"132","shelter":"yes","tram":"yes"}},{"type":"node","id":6670711413,"lat":44.8042033,"lon":20.3934195,"tags":{"bench":"yes","bin":"yes","departures_board":"realtime","gtfs:stop_id":"20134","int_name":"Blok 70","lit":"yes","name":"Блок 70","name:sr":"Блок 70","name:sr-Latn":"Blok 70","network":"БГ Превоз","operator":"ГСП Београд","operator:wikidata":"Q8227578","public_transport":"platform","railway":"tram_stop","ref":"134","shelter":"yes","tram":"yes"}},{"type":"node","id":6670711415,"lat":44.8018903,"lon":20.3818158,"tags":{"bench":"yes","bin":"yes","gtfs:stop_id":"20139","lit":"yes","name":"Нехруова","name:en":"Nehruova","name:sr":"Нехруова","name:sr-Latn":"Nehruova","network":"БГ Превоз","operator":"ГСП Београд","operator:wikidata":"Q8227578","public_transport":"platform","railway":"tram_stop","ref":"139","shelter":"yes","tram":"yes"}},{"type":"node","id":6670711416,"lat":44.8002646,"lon":20.3768757,"tags":{"bench":"yes","bin":"yes","gtfs:stop_id":"20141","int_name":"OS Branko Radicevic","lit":"yes","name":"ОШ Бранко Радичевић","name:sr-Latn":"OŠ Branko Radičević","network":"БГ Превоз","operator":"ГСП Београд","operator:wikidata":"Q8227578","public_transport":"platform","railway":"tram_stop","ref":"141","shelter":"yes","tram":"yes"}},{"type":"node","id":6670711496,"lat":44.7997825,"lon":20.3754419,"tags":{"bench":"yes","bin":"yes","gtfs:stop_id":"20140","int_name":"OS Branko Radicevic","lit":"yes","name":"ОШ Бранко Радичевић","name:sr":"ОШ Бранко Радичевић","name:sr-Latn":"OŠ Branko Radičević","network":"БГ Превоз","operator":"ГСП Београд","operator:wikidata":"Q8227578","public_transport":"platform","railway":"tram_stop","ref":"140","shelter":"yes","tram":"yes"}},{"type":"node","id":6670711497,"lat":44.7982179,"lon":20.3721235,"tags":{"bench":"yes","bin":"yes","gtfs:stop_id":"20143","lit":"yes","name":"Др Ивана Рибара","name:en":"Dr Ivana Ribara","name:sr":"Др Ивана Рибара","name:sr-Latn":"Dr Ivana Ribara","network":"БГ Превоз","operator":"ГСП Београд","operator:wikidata":"Q8227578","public_transport":"platform","railway":"tram_stop","ref":"143","shelter":"yes","tram":"yes"}},{"type":"node","id":6670711887,"lat":44.7573177,"lon":20.4800545,"tags":{"bench":"no","bin":"no","gtfs:stop_id":"173","int_name":"Vracarska","lit":"yes","name":"Врачарска","name:sr":"Врачарска","name:sr-Latn":"Vračarska","network":"БГ Превоз","operator":"ГСП Београд","operator:wikidata":"Q8227578","public_transport":"platform","railway":"tram_stop","ref":"173","shelter":"no","tram":"yes"}},{"type":"node","id":6670711888,"lat":44.7987837,"lon":20.4489344,"tags":{"bench":"no","bin":"yes","gtfs:stop_id":"20017","int_name":"Mostar","lit":"yes","name":"Мостар","name:sr":"Мостар","name:sr-Latn":"Mostar","network":"БГ Превоз","operator":"ГСП Београд","operator:wikidata":"Q8227578","public_transport":"platform","railway":"tram_stop","ref":"17","shelter":"no","tram":"yes"}},{"type":"node","id":6670712085,"lat":44.7951298,"lon":20.4998009,"tags":{"bench":"no","bin":"yes","gtfs:stop_id":"20096","int_name":"Batutova","lit":"yes","name":"Батутова","name:sr":"Батутова","name:sr-Latn":"Batutova","network":"БГ Превоз","operator":"ГСП Београд","operator:wikidata":"Q8227578","public_transport":"platform","railway":"tram_stop","ref":"96","shelter":"yes","tram":"yes"}},{"type":"node","id":6670712086,"lat":44.799452,"lon":20.4898299,"tags":{"bench":"no","bin":"yes","gtfs:stop_id":"20093","int_name":"Pop Stojanova","lit":"yes","name":"Поп Стојанова","name:sr":"Поп Стојанова","name:sr-Latn":"Pop Stojanova","network":"БГ Превоз","operator":"ГСП Београд","operator:wikidata":"Q8227578","public_transport":"platform","railway":"tram_stop","ref":"93","shelter":"yes","tram":"yes"}},{"type":"node","id":6670712088,"lat":44.8003628,"lon":20.4874332,"tags":{"bench":"no","bin":"yes","departures_board":"realtime","gtfs:stop_id":"20089","int_name":"Pijaca Djeram","lit":"yes","name":"Пијаца Ђерам","name:sr":"Пијаца Ђерам","name:sr-Latn":"Pijaca Đeram","network":"БГ Превоз","operator":"ГСП Београд","operator:wikidata":"Q8227578","public_transport":"platform","railway":"tram_stop","ref":"89","shelter":"yes","tram":"yes"}},{"type":"node","id":6670712090,"lat":44.8026243,"lon":20.4821846,"tags":{"bench":"yes","bin":"yes","gtfs:stop_id":"20088","int_name":"GO Zvezdara","lit":"yes","name":"ГО Звездара","name:sr":"ГО Звездара","name:sr-Latn":"GO Zvezdara","network":"БГ Превоз","operator":"ГСП Београд","operator:wikidata":"Q8227578","public_transport":"platform","railway":"tram_stop","ref":"88","shelter":"yes","tram":"yes"}},{"type":"node","id":6670712096,"lat":44.8069382,"lon":20.4185495,"tags":{"bench":"no","bin":"yes","gtfs:stop_id":"20127","int_name":"Zeleznicka stanica „Novi Beograd”","lit":"yes","name":"Железничка станица „Нови Београд”","name:sr":"Железничка станица „Нови Београд”","name:sr-Latn":"Železnička stanica „Novi Beograd”","network":"БГ Превоз","operator":"ГСП Београд","operator:wikidata":"Q8227578","public_transport":"platform","railway":"tram_stop","ref":"127","shelter":"yes","tram":"yes"}},{"type":"node","id":6670712098,"lat":44.801496,"lon":20.380217,"tags":{"bench":"yes","bin":"yes","gtfs:stop_id":"20138","lit":"yes","name":"Нехруова","name:en":"Nehruova","name:sr":"Нехруова","name:sr-Latn":"Nehruova","network":"БГ Превоз","operator":"ГСП Београд","operator:wikidata":"Q8227578","public_transport":"platform","railway":"tram_stop","ref":"138","shelter":"yes","tram":"yes"}},{"type":"node","id":6670712486,"lat":44.812416,"lon":20.4532985,"tags":{"bench":"yes","bin":"yes","gtfs:stop_id":"20011","int_name":"Ekonomski Fakultet","lit":"yes","name":"Економски Факултет","name:sr":"Економски Факултет","name:sr-Latn":"Ekonomski Fakultet","network":"БГ Превоз","operator":"ГСП Београд","operator:wikidata":"Q8227578","public_transport":"platform","railway":"tram_stop","ref":"11","shelter":"yes","tram":"yes"}},{"type":"node","id":6670712487,"lat":44.8032778,"lon":20.3872214,"tags":{"bench":"yes","bin":"yes","departures_board":"realtime","gtfs:stop_id":"20136","lit":"yes","name":"Гандијева","name:en":"Gandijeva","name:sr":"Гандијева","name:sr-Latn":"Gandijeva","network":"БГ Превоз","operator":"ГСП Београд","operator:wikidata":"Q8227578","public_transport":"platform","railway":"tram_stop","ref":"136","shelter":"yes","tram":"yes"}},{"type":"node","id":6763738687,"lat":44.8145482,"lon":20.4511624,"tags":{"bench":"no","bin":"yes","gtfs:stop_id":"9","int_name":"Brankov most","lit":"yes","name":"Бранков мост","name:sr":"Бранков мост","name:sr-Latn":"Brankov most","network":"БГ Превоз","operator":"ГСП Београд","operator:wikidata":"Q8227578","public_transport":"platform","railway":"tram_stop","ref":"9","shelter":"no","tram":"yes"}},{"type":"node","id":7297763694,"lat":44.8095426,"lon":20.4679812,"tags":{"bench":"no","bin":"yes","gtfs:stop_id":"20084","int_name":"Tasmajdan /park/","lit":"yes","name":"Ташмајдан /парк/","name:sr":"Ташмајдан /парк/","name:sr-Latn":"Tašmajdan /park/","network":"БГ Превоз","operator":"ГСП Београд","operator:wikidata":"Q8227578","public_transport":"platform","railway":"tram_stop","ref":"84","shelter":"no","tram":"yes"}},{"type":"node","id":7359705485,"lat":44.8073159,"lon":20.4575581,"tags":{"bench":"yes","bin":"yes","covered":"yes","gtfs:stop_id":"20070","int_name":"Savski trg","lit":"yes","name":"Савски трг","name:sr":"Савски трг","name:sr-Latn":"Savski trg","network":"БГ Превоз","operator":"ГСП Београд","operator:wikidata":"Q8227578","public_transport":"platform","railway":"tram_stop","ref":"70","tram":"yes","wheelchair":"yes"}},{"type":"node","id":7359705486,"lat":44.8076866,"lon":20.4571183,"tags":{"bench":"yes","bin":"yes","bus":"yes","covered":"yes","gtfs:stop_id":"20069","highway":"bus_stop","int_name":"Savski trg","lit":"yes","name":"Савски трг","name:sr":"Савски трг","name:sr-Latn":"Savski trg","network":"БГ Превоз","operator":"ГСП Београд","operator:wikidata":"Q8227578","public_transport":"platform","railway":"tram_stop","ref":"69","tram":"yes","wheelchair":"yes"}},{"type":"node","id":7833581425,"lat":44.8185513,"lon":20.4670294,"tags":{"bench":"yes","bin":"yes","bus":"yes","gtfs:stop_id":"20055","highway":"bus_stop","int_name":"Pijaca Skadarlija","lit":"yes","name":"Пијаца Скадарлија","name:de":"Skadarlia Market","name:sr":"Пијаца Скадарлија","name:sr-Latn":"Pijaca Skadarlija","network":"БГ Превоз","operator":"ГСП Београд","operator:wikidata":"Q8227578","public_transport":"platform","railway":"tram_stop","ref":"55","shelter":"yes","tram":"yes"}},{"type":"node","id":8214822869,"lat":44.7930116,"lon":20.4661804,"tags":{"int_name":"Franse d'Eperea","name":"Франше д'Епереа","name:sr":"Франше д'Епереа","name:sr-Latn":"Franše d'Eperea","network":"БГ Превоз","operator":"ГСП Београд","public_transport":"stop_position","tram":"yes"}},{"type":"node","id":8214822870,"lat":44.768461,"lon":20.4795956,"tags":{"int_name":"Visoka Skola Elektrotehnike","name":"Висока Школа Електротехнике","name:sr":"Висока Школа Електротехнике","name:sr-Latn":"Visoka Škola elektrotehnike","network":"БГ Превоз","operator":"ГСП Београд","public_transport":"stop_position","railway":"tram_stop","tram":"yes"}},{"type":"node","id":8214822871,"lat":44.7690978,"lon":20.4790962,"tags":{"int_name":"Visoka Skola Elektrotehnike","name":"Висока Школа Електротехнике","name:sr":"Висока Школа Електротехнике","name:sr-Latn":"Visoka Škola elektrotehnike","network":"БГ Превоз","operator":"ГСП Београд","public_transport":"stop_position","railway":"tram_stop","tram":"yes"}},{"type":"node","id":8274588306,"lat":44.7932059,"lon":20.504814,"tags":{"int_name":"Pijaca Zvezdara","name":"Пијаца Звездара","network":"БГ Превоз","operator":"ГСП Београд","public_transport":"stop_position","railway":"tram_stop","tram":"yes"}},{"type":"node","id":8275722937,"lat":44.8202538,"lon":20.4532522,"tags":{"bench":"yes","bin":"yes","gtfs:stop_id":"20004","lit":"yes","name":"Калемегдан","name:de":"Kalemegdan","name:en":"Kalemegdan","name:sr-Latn":"Kalemegdan","network":"БГ Превоз","operator":"ГСП Београд","operator:wikidata":"Q8227578","public_transport":"platform","railway":"tram_stop","ref":"4","shelter":"yes","tram":"yes"}},{"type":"node","id":8275722944,"lat":44.8271485,"lon":20.4532539,"tags":{"bench":"no","bin":"no","gtfs:stop_id":"20001","int_name":"Kalemegdan (Donji Grad)","lit":"yes","name":"Калемегдан (Доњи Град)","name:sr":"Калемегдан (Доњи Град)","name:sr-Latn":"Kalemegdan (Donji Grad)","network":"БГ Превоз","operator":"ГСП Београд","operator:wikidata":"Q8227578","public_transport":"platform","railway":"tram_stop","ref":"1","shelter":"no","tram":"yes"}},{"type":"node","id":8275722945,"lat":44.8259558,"lon":20.4551462,"tags":{"bench":"no","bin":"yes","gtfs:stop_id":"20002","lit":"yes","name":"Тадеуша Кошћушка","name:en":"Tadeusa Koscuska","name:sr":"Тадеуша Кошћушка","name:sr-Latn":"Tadeuša Košćuška","network":"БГ Превоз","operator":"ГСП Београд","operator:wikidata":"Q8227578","public_transport":"platform","railway":"tram_stop","ref":"2","shelter":"no","tram":"yes"}},{"type":"node","id":8275982698,"lat":44.8075997,"lon":20.4772838,"tags":{"bench":"yes","bin":"yes","bus":"yes","gtfs:stop_id":"20062","highway":"bus_stop","int_name":"Masinski fakultet","lit":"yes","name":"Машински факултет","name:sr":"Машински факултет","name:sr-Latn":"Mašinski fakultet","network":"БГ Превоз","operator":"ГСП Београд","operator:wikidata":"Q8227578","public_transport":"platform","railway":"tram_stop","ref":"62","shelter":"yes","tram":"yes"}},{"type":"node","id":8278923905,"lat":44.8181025,"lon":20.4671769,"tags":{"bench":"yes","bin":"yes","bus":"yes","gtfs:stop_id":"20054","highway":"bus_stop","int_name":"Pijaca Skadarlija","lit":"yes","name":"Пијаца Скадарлија","name:de":"Skadarlia Market","name:sr":"Пијаца Скадарлија","name:sr-Latn":"Pijaca Skadarlija","network":"БГ Превоз","operator":"ГСП Београд","operator:wikidata":"Q8227578","public_transport":"platform","railway":"tram_stop","ref":"54","shelter":"yes","tram":"yes"}},{"type":"node","id":8278923906,"lat":44.8104312,"lon":20.4747404,"tags":{"bench":"yes","bin":"yes","bus":"yes","gtfs:stop_id":"20061","highway":"bus_stop","int_name":"Palilulska pijaca","lit":"yes","name":"Палилулска пијаца","name:sr":"Палилулска пијаца","name:sr-Latn":"Palilulska pijaca","network":"БГ Превоз","operator":"ГСП Београд","operator:wikidata":"Q8227578","public_transport":"platform","railway":"tram_stop","ref":"61","shelter":"yes","tram":"yes"}},{"type":"node","id":8287534003,"lat":44.8067313,"lon":20.4710931,"tags":{"bench":"no","bin":"yes","gtfs:stop_id":"20065","lit":"yes","name":"Правни факултет","name:en":"Pravni fakultet","name:sr":"Правни факултет","name:sr-Latn":"Pravni fakultet","network":"БГ Превоз","operator":"ГСП Београд","operator:wikidata":"Q8227578","public_transport":"platform","railway":"tram_stop","ref":"65","shelter":"no","tram":"yes"}},{"type":"node","id":8287534004,"lat":44.806355,"lon":20.4731658,"tags":{"bench":"no","bin":"no","gtfs:stop_id":"20066","lit":"yes","name":"Правни факултет","name:en":"Pravni fakultet","name:sr":"Правни факултет","name:sr-Latn":"Pravni fakultet","network":"БГ Превоз","operator":"ГСП Београд","operator:wikidata":"Q8227578","public_transport":"platform","railway":"tram_stop","ref":"66","shelter":"no","tram":"yes"}},{"type":"node","id":8287534005,"lat":44.8209187,"lon":20.4541651,"tags":{"bench":"no","bin":"no","gtfs:stop_id":"20005","lit":"yes","name":"Калемегдан","name:de":"Kalemegdan","name:en":"Kalemegdan","name:sr":"Калемегдан","name:sr-Latn":"Kalemegdan","network":"БГ Превоз","operator":"ГСП Београд","operator:wikidata":"Q8227578","public_transport":"platform","railway":"tram_stop","ref":"5","shelter":"yes","tram":"yes"}},{"type":"node","id":8287534006,"lat":44.8186651,"lon":20.4494513,"tags":{"bench":"no","bin":"yes","gtfs:stop_id":"20006","int_name":"Pristaniste ka Bloku 45","lit":"yes","name":"Пристаниште ка Блоку 45","name:sr":"Пристаниште ка Блоку 45","name:sr-Latn":"Pristanište ka Bloku 45","network":"БГ Превоз","operator":"ГСП Београд","operator:wikidata":"Q8227578","public_transport":"platform","railway":"tram_stop","ref":"6","shelter":"yes","tram":"yes"}},{"type":"node","id":8321226002,"lat":44.8104285,"lon":20.474732,"tags":{"int_name":"Palilulska pijaca","name":"Палилулска пијаца","name:sr":"Палилулска пијаца","name:sr-Latn":"Palilulska pijaca","network":"БГ Превоз","operator":"ГСП Београд","public_transport":"stop_position","tram":"yes"}},{"type":"node","id":8335748367,"lat":44.803513,"lon":20.388915,"tags":{"bench":"yes","bin":"yes","departures_board":"realtime","gtfs:stop_id":"20137","lit":"yes","name":"Гандијева","name:en":"Gandijeva","name:sr":"Гандијева","name:sr-Latn":"Gandijeva","network":"БГ Превоз","operator":"ГСП Београд","operator:wikidata":"Q8227578","public_transport":"platform","railway":"tram_stop","ref":"137","shelter":"yes","tram":"yes"}},{"type":"node","id":8495150052,"lat":44.8232255,"lon":20.4601641,"tags":{"bench":"yes","bin":"yes","bus":"yes","gtfs:stop_id":"20073","highway":"bus_stop","lit":"yes","name":"Краља Петра","name:en":"Kralja Petra","name:sr":"Краља Петра","name:sr-Latn":"Kralja Petra","network":"БГ Превоз","operator":"ГСП Београд","operator:wikidata":"Q8227578","public_transport":"platform","railway":"tram_stop","ref":"73","shelter":"yes","tram":"yes"}},{"type":"node","id":8779074558,"lat":44.7963628,"lon":20.4421115,"tags":{"bench":"yes","bin":"yes","gtfs:stop_id":"18","int_name":"Sajam","lit":"yes","name":"Сајам","name:sr":"Сајам","name:sr-Latn":"Sajam","network":"БГ Превоз","operator":"ГСП Београд","operator:wikidata":"Q8227578","public_transport":"platform","railway":"tram_stop","ref":"18","shelter":"yes","tram":"yes"}},{"type":"node","id":10223720568,"lat":44.7970441,"lon":20.4652919,"tags":{"int_name":"Karadjordjev park","name":"Карађорђев парк","name:sr":"Карађорђев парк","name:sr-Latn":"Karađorđev park","public_transport":"stop_position","tram":"yes"}},{"type":"node","id":10223720569,"lat":44.801435,"lon":20.4662858,"tags":{"int_name":"Trg Slavija /Bulevar oslobodjenja/","name":"Трг Славија /Булевар ослобођења/","name:sr":"Трг Славија /Булевар ослобођења/","name:sr-Latn":"Trg Slavija /Bulevar oslobođenja/","public_transport":"stop_position","railway":"tram_stop","tram":"yes"}},{"type":"node","id":10226370106,"lat":44.8019098,"lon":20.381805,"tags":{"name":"Нехруова","name:en":"Nehruova","network":"БГ Превоз","operator":"ГСП Београд","public_transport":"stop_position","railway":"tram_stop","tram":"yes"}},{"type":"node","id":10226370108,"lat":44.80755,"lon":20.4708335,"tags":{"name":"Правни факултет","name:en":"Pravni fakultet","name:sr":"Правни факултет","name:sr-Latn":"Pravni fakultet","network":"БГ Превоз","operator":"ГСП Београд","public_transport":"stop_position","railway":"tram_stop","tram":"yes"}},{"type":"node","id":10226370109,"lat":44.7958976,"lon":20.4981734,"tags":{"int_name":"Batutova","name":"Батутова","network":"БГ Превоз","operator":"ГСП Београд","public_transport":"stop_position","railway":"tram_stop","tram":"yes"}},{"type":"node","id":10226370110,"lat":44.8014785,"lon":20.3802277,"tags":{"name":"Нехруова","name:en":"Nehruova","network":"БГ Превоз","operator":"ГСП Београд","public_transport":"stop_position","railway":"tram_stop","tram":"yes"}},{"type":"node","id":10226370111,"lat":44.7951453,"lon":20.4998141,"tags":{"int_name":"Batutova","name":"Батутова","network":"БГ Превоз","operator":"ГСП Београд","public_transport":"stop_position","railway":"tram_stop","tram":"yes"}},{"type":"node","id":10226370113,"lat":44.7904705,"lon":20.5136335,"tags":{"int_name":"Mite Ruzica","name":"Мите Ружића","network":"БГ Превоз","operator":"ГСП Београд","public_transport":"stop_position","railway":"tram_stop","tram":"yes"}},{"type":"node","id":10226427518,"lat":44.8063633,"lon":20.4731728,"tags":{"name":"Правни факултет","name:en":"Pravni fakultet","name:sr":"Правни факултет","name:sr-Latn":"Pravni fakultet","network":"БГ Превоз","operator":"ГСП Београд","public_transport":"stop_position","railway":"tram_stop","tram":"yes"}},{"type":"node","id":10226427519,"lat":44.8067203,"lon":20.4711114,"tags":{"name":"Правни факултет","name:en":"Pravni fakultet","name:sr":"Правни факултет","name:sr-Latn":"Pravni fakultet","network":"БГ Превоз","operator":"ГСП Београд","public_transport":"stop_position","railway":"tram_stop","tram":"yes"}},{"type":"node","id":10226427533,"lat":44.7982268,"lon":20.3721151,"tags":{"name":"Др Ивана Рибара","name:en":"Dr Ivana Ribara","network":"БГ Превоз","operator":"ГСП Београд","public_transport":"stop_position","railway":"tram_stop","tram":"yes"}},{"type":"node","id":10226427536,"lat":44.7918315,"lon":20.5110592,"tags":{"int_name":"Dr Velizara Kosanovica","name":"Др Велизара Косановића","network":"БГ Превоз","operator":"ГСП Београд","public_transport":"stop_position","railway":"tram_stop","tram":"yes"}},{"type":"node","id":10226427537,"lat":44.7930843,"lon":20.5048323,"tags":{"bus":"yes","int_name":"Pijaca Zvezdara","name":"Пијаца Звездара","network":"БГ Превоз","operator":"ГСП Београд","public_transport":"stop_position","railway":"tram_stop","tram":"yes"}},{"type":"node","id":10226427541,"lat":44.8104269,"lon":20.4745312,"tags":{"bus":"yes","int_name":"Palilulska pijaca","name":"Палилулска пијаца","name:sr":"Палилулска пијаца","name:sr-Latn":"Palilulska pijaca","network":"БГ Превоз","operator":"ГСП Београд","public_transport":"stop_position","tram":"yes"}},{"type":"node","id":10226495631,"lat":44.7926365,"lon":20.466309,"tags":{"int_name":"Franse d'Eperea","name":"Франше д'Епереа","name:sr":"Франше д'Епереа","name:sr-Latn":"Franše d'Eperea","network":"БГ Превоз","operator":"ГСП Београд","public_transport":"stop_position","tram":"yes"}},{"type":"node","id":10226530559,"lat":44.8073235,"lon":20.4152421,"tags":{"int_name":"Djordja Stanojevica","name":"Ђорђа Станојевића","network":"БГ Превоз","operator":"ГСП Београд","public_transport":"stop_position","railway":"tram_stop","tram":"yes"}},{"type":"node","id":10226530560,"lat":44.8069632,"lon":20.4158202,"tags":{"int_name":"Djordja Stanojevica","name":"Ђорђа Станојевића","network":"БГ Превоз","operator":"ГСП Београд","public_transport":"stop_position","railway":"tram_stop","tram":"yes"}},{"type":"node","id":10226530569,"lat":44.8065788,"lon":20.4181444,"tags":{"int_name":"Zeleznicka stanica „Novi Beograd”","name":"Железничка станица „Нови Београд”","name:sr":"Железничка станица „Нови Београд”","name:sr-Latn":"Železnička stanica „Novi Beograd”","public_transport":"stop_position","railway":"tram_stop","tram":"yes"}},{"type":"node","id":10226530570,"lat":44.8069456,"lon":20.4185333,"tags":{"int_name":"Zeleznicka stanica „Novi Beograd”","name":"Железничка станица „Нови Београд”","name:sr":"Железничка станица „Нови Београд”","name:sr-Latn":"Železnička stanica „Novi Beograd”","public_transport":"stop_position","railway":"tram_stop","tram":"yes"}},{"type":"node","id":11235450416,"lat":44.8072922,"lon":20.4555407,"tags":{"bench":"yes","bin":"yes","gtfs:stop_id":"20013","int_name":"Savski trg","lit":"yes","name":"Савски трг","name:sr":"Савски трг","name:sr-Latn":"Savski trg","network":"БГ Превоз","operator":"ГСП Београд","operator:wikidata":"Q8227578","public_transport":"platform","railway":"tram_stop","ref":"13","shelter":"yes","tram":"yes"}},{"type":"node","id":11235450418,"lat":44.8068332,"lon":20.4550263,"tags":{"bench":"yes","bin":"yes","gtfs:stop_id":"20012","int_name":"Savski trg","lit":"yes","name":"Савски трг","name:sr":"Савски трг","name:sr-Latn":"Savski trg","network":"БГ Превоз","operator":"ГСП Београд","operator:wikidata":"Q8227578","public_transport":"platform","railway":"tram_stop","ref":"12","shelter":"yes","tram":"yes"}},{"type":"node","id":11294018396,"lat":44.8190575,"lon":20.449555,"tags":{"bench":"yes","bin":"yes","gtfs:stop_id":"20007","int_name":"Pristaniste","lit":"yes","name":"Пристаниште","name:sr":"Пристаниште","name:sr-Latn":"Pristanište","network":"БГ Превоз","operator":"ГСП Београд","operator:wikidata":"Q8227578","public_transport":"platform","railway":"tram_stop","ref":"7","shelter":"yes","tram":"yes"}},{"type":"node","id":12547994156,"lat":44.7910464,"lon":20.512655,"tags":{"int_name":"Mite Ruzica","name":"Мите Ружића","network":"БГ Превоз","operator":"ГСП Београд","public_transport":"stop_position","tram":"yes"}},{"type":"node","id":1147534225,"lat":44.7841753,"lon":20.4363003,"tags":{"bench":"no","bin":"no","gtfs:stop_id":"27","int_name":"Topciderska pozornica","lit":"no","name":"Топчидерска позорница","name:sr":"Топчидерска позорница","name:sr-Latn":"Topčiderska pozornica","network":"БГ Превоз","operator":"ГСП Београд","operator:wikidata":"Q8227578","public_transport":"platform","railway":"tram_stop","ref":"27","shelter":"no","tram":"yes"}},{"type":"node","id":1386508324,"lat":44.7607128,"lon":20.4455396,"tags":{"gtfs:stop_id":"37","int_name":"Rasadnik","name":"Расадник","name:sr":"Расадник","name:sr-Latn":"Rasadnik","network":"БГ Превоз","operator":"ГСП Београд","operator:wikidata":"Q8227578","public_transport":"platform","railway":"tram_stop","ref":"37","tram":"yes"}},{"type":"node","id":1543499031,"lat":44.7509564,"lon":20.4462792,"tags":{"gtfs:stop_id":"41","int_name":"Vareska","name":"Варешка","name:sr":"Варешка","name:sr-Latn":"Vareška","network":"БГ Превоз","operator":"ГСП Београд","operator:wikidata":"Q8227578","public_transport":"platform","railway":"tram_stop","ref":"41","tram":"yes"}},{"type":"node","id":1543499036,"lat":44.7466839,"lon":20.4437252,"tags":{"bench":"no","bin":"no","gtfs:stop_id":"43","int_name":"Rakovica","lit":"no","name":"Раковица","name:sr":"Раковица","name:sr-Latn":"Rakovica","network":"БГ Превоз","operator":"ГСП Београд","operator:wikidata":"Q8227578","public_transport":"platform","railway":"tram_stop","ref":"43","shelter":"yes","tram":"yes"}},{"type":"node","id":2077480388,"lat":44.7345019,"lon":20.4319365,"tags":{"gtfs:stop_id":"51","int_name":"Knezevac","name":"Кнежевац","name:sr":"Кнежевац","name:sr-Latn":"Kneževac","network":"БГ Превоз","operator":"ГСП Београд","operator:wikidata":"Q8227578","public_transport":"platform","railway":"tram_stop","ref":"51","tram":"yes"}},{"type":"node","id":2077480393,"lat":44.7339983,"lon":20.4315891,"tags":{"gtfs:stop_id":"50","int_name":"Knezevac","name":"Кнежевац","name:sr":"Кнежевац","name:sr-Latn":"Kneževac","network":"БГ Превоз","operator":"ГСП Београд","operator:wikidata":"Q8227578","public_transport":"platform","railway":"tram_stop","ref":"50","tram":"yes"}},{"type":"node","id":2077480408,"lat":44.756764,"lon":20.4462171,"tags":{"gtfs:stop_id":"38","int_name":"Kosutnjak","name":"Кошутњак","name:sr":"Кошутњак","name:sr-Latn":"Košutnjak","network":"БГ Превоз","operator":"ГСП Београд","operator:wikidata":"Q8227578","public_transport":"platform","railway":"tram_stop","ref":"38","tram":"yes"}},{"type":"node","id":2077480413,"lat":44.7573972,"lon":20.4462417,"tags":{"gtfs:stop_id":"39","int_name":"Kosutnjak","name":"Кошутњак","name:sr":"Кошутњак","name:sr-Latn":"Košutnjak","network":"БГ Превоз","operator":"ГСП Београд","operator:wikidata":"Q8227578","public_transport":"platform","railway":"tram_stop","ref":"39","tram":"yes"}},{"type":"node","id":2077480429,"lat":44.7427711,"lon":20.4412303,"tags":{"gtfs:stop_id":"45","int_name":"Miska Kranjca","name":"Мишка Крањца","name:sr":"Мишка Крањца","name:sr-Latn":"Miška Kranjca","network":"БГ Превоз","operator":"ГСП Београд","operator:wikidata":"Q8227578","public_transport":"platform","railway":"tram_stop","ref":"45","tram":"yes"}},{"type":"node","id":2077480438,"lat":44.7432264,"lon":20.441271,"tags":{"gtfs:stop_id":"44","int_name":"Miska Kranjca","name":"Мишка Крањца","name:sr":"Мишка Крањца","name:sr-Latn":"Miška Kranjca","network":"БГ Превоз","operator":"ГСП Београд","operator:wikidata":"Q8227578","public_transport":"platform","railway":"tram_stop","ref":"44","tram":"yes"}},{"type":"node","id":2077480489,"lat":44.7647018,"lon":20.4450461,"tags":{"gtfs:stop_id":"34","int_name":"Patrijarha Pavla","name":"Патријарха Павла","name:sr":"Патријарха Павла","name:sr-Latn":"Patrijarha Pavla","network":"БГ Превоз","operator":"ГСП Београд","operator:wikidata":"Q8227578","public_transport":"platform","railway":"tram_stop","ref":"34","shelter":"no","tram":"yes"}},{"type":"node","id":2077480493,"lat":44.7648961,"lon":20.4449226,"tags":{"bench":"no","bin":"no","fixme":"Not working","gtfs:stop_id":"35","int_name":"Patrijarha Pavla","lit":"no","name":"Патријарха Павла","name:sr":"Патријарха Павла","name:sr-Latn":"Patrijarha Pavla","network":"БГ Превоз","operator":"ГСП Београд","operator:wikidata":"Q8227578","public_transport":"platform","railway":"tram_stop","ref":"35","shelter":"no","tram":"yes"}},{"type":"node","id":2077480532,"lat":44.7605585,"lon":20.4455202,"tags":{"gtfs:stop_id":"36","int_name":"Rasadnik","name":"Расадник","name:sr":"Расадник","name:sr-Latn":"Rasadnik","network":"БГ Превоз","operator":"ГСП Београд","operator:wikidata":"Q8227578","public_transport":"platform","railway":"tram_stop","ref":"36","tram":"yes"}},{"type":"node","id":2077480586,"lat":44.7390196,"lon":20.4343386,"tags":{"bench":"yes","bin":"no","gtfs:stop_id":"49","int_name":"Slavka Rodica","lit":"no","name":"Славка Родића","name:sr":"Славка Родића","name:sr-Latn":"Slavka Rodića","network":"БГ Превоз","operator":"ГСП Београд","operator:wikidata":"Q8227578","public_transport":"platform","railway":"tram_stop","ref":"49","shelter":"no","tram":"yes"}},{"type":"node","id":2077480589,"lat":44.7388952,"lon":20.4341778,"tags":{"bench":"no","bin":"yes","gtfs:stop_id":"48","int_name":"Slavka Rodica","lit":"no","name":"Славка Родића","name:sr":"Славка Родића","name:sr-Latn":"Slavka Rodića","network":"БГ Превоз","operator":"ГСП Београд","operator:wikidata":"Q8227578","public_transport":"platform","railway":"tram_stop","ref":"48","shelter":"yes","tram":"yes"}},{"type":"node","id":2077480615,"lat":44.7749737,"lon":20.4378954,"tags":{"gtfs:stop_id":"33","int_name":"Topciderska okretnica","name":"Топчидерска окретница","name:sr":"Топчидерска окретница","name:sr-Latn":"Topčiderska okretnica","network":"БГ Превоз","operator":"ГСП Београд","operator:wikidata":"Q8227578","public_transport":"platform","railway":"tram_stop","ref":"33","tram":"yes"}},{"type":"node","id":2077480665,"lat":44.7384709,"lon":20.4376313,"tags":{"bench":"yes","gtfs:stop_id":"47","int_name":"Ulica Oslobodjenja","name":"Улица Ослобођења","name:sr":"Улица Ослобођења","name:sr-Latn":"Ulica Oslobođenja","network":"БГ Превоз","operator":"ГСП Београд","operator:wikidata":"Q8227578","public_transport":"platform","railway":"tram_stop","ref":"47","shelter":"yes","tram":"yes"}},{"type":"node","id":2077480669,"lat":44.7386381,"lon":20.4372467,"tags":{"bench":"yes","bin":"yes","gtfs:stop_id":"46","int_name":"Ulica Oslobodjenja","name":"Улица Ослобођења","name:sr":"Улица Ослобођења","name:sr-Latn":"Ulica Oslobođenja","network":"БГ Превоз","operator":"ГСП Београд","operator:wikidata":"Q8227578","public_transport":"platform","railway":"tram_stop","ref":"46","shelter":"no","tram":"yes"}},{"type":"node","id":2077480698,"lat":44.7866408,"lon":20.4315922,"tags":{"gtfs:stop_id":"24","int_name":"Careva cuprija","name":"Царева ћуприја","name:sr":"Царева ћуприја","name:sr-Latn":"Careva ćuprija","network":"БГ Превоз","operator":"ГСП Београд","operator:wikidata":"Q8227578","public_transport":"platform","railway":"tram_stop","ref":"24","tram":"yes"}},{"type":"node","id":2077480703,"lat":44.786795,"lon":20.4315689,"tags":{"gtfs:stop_id":"25","int_name":"Careva cuprija","name":"Царева ћуприја","name:sr":"Царева ћуприја","name:sr-Latn":"Careva ćuprija","network":"БГ Превоз","operator":"ГСП Београд","operator:wikidata":"Q8227578","public_transport":"platform","railway":"tram_stop","ref":"25","tram":"yes"}},{"type":"node","id":3971364275,"lat":44.7504657,"lon":20.4459883,"tags":{"bench":"no","bin":"yes","gtfs:stop_id":"40","int_name":"Vareska","lit":"no","name":"Варешка","name:sr":"Варешка","name:sr-Latn":"Vareška","network":"БГ Превоз","operator":"ГСП Београд","operator:wikidata":"Q8227578","public_transport":"platform","railway":"tram_stop","ref":"40","shelter":"no","tram":"yes"}},{"type":"node","id":3972828942,"lat":44.7469065,"lon":20.4438798,"tags":{"bench":"no","bin":"yes","gtfs:stop_id":"42","int_name":"Rakovica","lit":"no","name":"Раковица","name:sr":"Раковица","name:sr-Latn":"Rakovica","network":"БГ Превоз","operator":"ГСП Београд","operator:wikidata":"Q8227578","public_transport":"platform","railway":"tram_stop","ref":"42","shelter":"no","tram":"yes"}},{"type":"node","id":6670711089,"lat":44.7769795,"lon":20.4372017,"tags":{"bench":"no","bin":"yes","gtfs:stop_id":"31","int_name":"Zeleznicka stanica „Topcider”","name":"Железничка станица „Топчидер”","name:sr":"Железничка станица „Топчидер”","name:sr-Latn":"Železnička stanica „Topčider”","network":"БГ Превоз","operator":"ГСП Београд","operator:wikidata":"Q8227578","public_transport":"platform","railway":"tram_stop","ref":"31","shelter":"no","tram":"yes"}},{"type":"node","id":6670711090,"lat":44.7767272,"lon":20.4371965,"tags":{"bench":"no","bin":"no","gtfs:stop_id":"30","int_name":"Zeleznicka stanica „Topcider”","lit":"no","name":"Железничка станица „Топчидер”","name:sr":"Железничка станица „Топчидер”","name:sr-Latn":"Železnička stanica „Topčider”","network":"БГ Превоз","operator":"ГСП Београд","operator:wikidata":"Q8227578","public_transport":"platform","railway":"tram_stop","ref":"30","shelter":"no","tram":"yes"}},{"type":"node","id":6670711091,"lat":44.7833931,"lon":20.4369865,"tags":{"bench":"no","bin":"no","gtfs:stop_id":"26","int_name":"Topciderska pozornica","lit":"no","name":"Топчидерска позорница","name:sr":"Топчидерска позорница","name:sr-Latn":"Topčiderska pozornica","network":"БГ Превоз","operator":"ГСП Београд","operator:wikidata":"Q8227578","public_transport":"platform","railway":"tram_stop","ref":"26","shelter":"no","tram":"yes"}},{"type":"node","id":6670711288,"lat":44.781161,"lon":20.4384203,"tags":{"int_name":"Topciderski park","name":"Топчидерски парк","operator":"ГСП Београд","public_transport":"platform","railway":"tram_stop","tram":"yes"}},{"type":"node","id":6670711486,"lat":44.7814437,"lon":20.438371,"tags":{"gtfs:stop_id":"29","int_name":"Topciderski park","name":"Топчидерски парк","name:sr":"Топчидерски парк","name:sr-Latn":"Topčiderski park","network":"БГ Превоз","operator":"ГСП Београд","operator:wikidata":"Q8227578","public_transport":"platform","railway":"tram_stop","ref":"29","tram":"yes"}}]}