{"elements":[{"type":"node","id":24357989,"lat":22.358341,"lon":114.1074211,"tags":{"name":"青衣 Tsing Yi","name:en":"Tsing Yi","name:zh":"青衣","note":"AEL up","public_transport":"stop_position","railway":"stop","ref":"TSY","subway":"yes"}},{"type":"node","id":243844812,"lat":22.5281624,"lon":114.113146,"tags":{"access":"permit","border_control":"no","border_zone":"yes","brand":"港鐵 MTR","brand:en":"MTR","brand:ref":"MTR","brand:wikidata":"Q14751","brand:zh":"港鐵","name":"羅湖 Lo Wu","name:en":"Lo Wu","name:zh":"羅湖","network":"港鐵 MTR","network:en":"MTR","network:ref":"MTR","network:wikidata":"Q14751","network:zh":"港鐵","operator":"香港鐵路有限公司 MTR Corporation Limited","operator:en":"MTR Corporation Limited","operator:wikidata":"Q1479375","operator:zh":"香港鐵路有限公司","owner":"九廣鐵路公司 Kowloon-Canton Railway Corporation","owner:en":"Kowloon-Canton Railway Corporation","owner:wikidata":"Q838436","owner:zh":"九廣鐵路公司","ownership":"public","permit":"travel_document","public_transport":"stop_position","railway":"stop","ref":"LOW","security_area":"no","security_check":"no","subway":"yes"}},{"type":"node","id":243844834,"lat":22.501124,"lon":114.1280498,"tags":{"name":"上水 Sheung Shui","name:en":"Sheung Shui","name:zh":"上水","network":"MTR","operator":"香港鐵路有限公司 MTR Corporation","public_transport":"stop_position","railway":"stop","ref":"SHS","subway":"yes"}},{"type":"node","id":243844839,"lat":22.492096,"lon":114.1386694,"tags":{"name":"粉嶺 Fanling","name:en":"Fanling","name:zh":"粉嶺","network":"MTR","old_name:en":"Fan Ling","operator":"香港鐵路有限公司 MTR Corporation","public_transport":"stop_position","railway":"stop","ref":"FAN","subway":"yes"}},{"type":"node","id":243844884,"lat":22.4445147,"lon":114.1707659,"tags":{"name":"大埔墟 Tai Po Market","name:en":"Tai Po Market","name:zh":"大埔墟","network":"MTR","operator":"香港鐵路有限公司 MTR Corporation","public_transport":"stop_position","railway":"stop","ref":"TAP","subway":"yes","wikidata":"Q996781","wikipedia":"en:Tai Po Market station"}},{"type":"node","id":243844926,"lat":22.4133852,"lon":114.2100545,"tags":{"name":"大學 University","name:en":"University","name:zh":"大學","network":"MTR","operator":"香港鐵路有限公司 MTR Corporation","public_transport":"stop_position","railway":"stop","ref":"UNI","subway":"yes"}},{"type":"node","id":243844947,"lat":22.3953371,"lon":114.198366,"tags":{"name":"火炭 Fo Tan","name:en":"Fo Tan","name:zh":"火炭","network":"MTR","operator":"香港鐵路有限公司 MTR Corporation","public_transport":"stop_position","railway":"stop","ref":"FOT","subway":"yes"}},{"type":"node","id":243844957,"lat":22.3827727,"lon":114.1877677,"tags":{"name":"沙田 Sha Tin","name:en":"Sha Tin","name:zh":"沙田","network":"MTR","operator":"香港鐵路有限公司 MTR Corporation","public_transport":"stop_position","railway":"stop","ref":"SHT","subway":"yes"}},{"type":"node","id":243844966,"lat":22.3731177,"lon":114.1785062,"tags":{"brand":"港鐵 MTR","brand:en":"MTR","brand:zh":"港鐵","loc_ref":"2","name":"大圍 Tai Wai","name:en":"Tai Wai","name:zh":"大圍","network":"港鐵 MTR","network:en":"MTR","network:wikidata":"Q14751","network:zh":"港鐵","operator":"香港鐵路有限公司 MTR Corporation Limited","operator:en":"MTR Corporation Limited","operator:wikidata":"Q1479375","operator:zh":"香港鐵路有限公司","owner":"九廣鐵路公司 Kowloon-Canton Railway Corporation","owner:en":"Kowloon-Canton Railway Corporation","owner:wikidata":"Q838436","owner:zh":"九廣鐵路公司","ownership":"public","public_transport":"stop_position","railway":"stop","ref":"TAW","subway":"yes"}},{"type":"node","id":243845056,"lat":22.3219527,"lon":114.1726048,"tags":{"name":"旺角東 Mong Kok East","name:en":"Mong Kok East","name:zh":"旺角東","network":"MTR","operator":"香港鐵路有限公司 MTR Corporation","public_transport":"stop_position","railway":"stop","ref":"MKK","subway":"yes"}},{"type":"node","id":253288836,"lat":22.2912399,"lon":114.2003787,"tags":{"name":"北角 North Point","name:en":"North Point","name:zh":"北角","note":"ISL down","public_transport":"stop_position","railway":"stop","ref":"NOP","subway":"yes"}},{"type":"node","id":253288849,"lat":22.2816237,"lon":114.2222818,"tags":{"name":"西灣河 Sai Wan Ho","name:en":"Sai Wan Ho","name:zh":"西灣河","name:zh-Hans":"西湾河","name:zh-Hant":"西灣河","public_transport":"stop_position","railway":"stop","ref":"SWH","subway":"yes"}},{"type":"node","id":253288859,"lat":22.276619,"lon":114.2397239,"tags":{"name":"杏花邨 Heng Fa Chuen","name:en":"Heng Fa Chuen","name:zh":"杏花邨","public_transport":"stop_position","railway":"stop","ref":"HFC","subway":"yes"}},{"type":"node","id":253288867,"lat":22.2646033,"lon":114.2370517,"tags":{"loc_ref":"2","name":"柴灣 Chai Wan","name:en":"Chai Wan","name:zh":"柴灣","public_transport":"stop_position","railway":"stop","ref":"CHW","subway":"yes"}},{"type":"node","id":253333824,"lat":22.3158892,"lon":113.9365583,"tags":{"name":"機場 Airport","name:en":"Airport","name:zh":"機場","public_transport":"stop_position","railway":"stop","ref":"AIR","subway":"yes"}},{"type":"node","id":262119934,"lat":22.3050921,"lon":114.1716158,"tags":{"name":"佐敦 Jordan","name:en":"Jordan","name:zh":"佐敦","public_transport":"stop_position","railway":"stop","ref":"JOR","subway":"yes"}},{"type":"node","id":262135162,"lat":22.4292202,"lon":114.243854,"tags":{"name":"烏溪沙 Wu Kai Sha","name:en":"Wu Kai Sha","name:zh":"烏溪沙","network":"MTR","operator":"香港鐵路有限公司 MTR Corporation","public_transport":"stop_position","railway":"stop","ref":"WKS","subway":"yes"}},{"type":"node","id":262135171,"lat":22.4249134,"lon":114.2317637,"tags":{"name":"馬鞍山 Ma On Shan","name:en":"Ma On Shan","name:zh":"馬鞍山","network":"MTR","operator":"香港鐵路有限公司 MTR Corporation","public_transport":"stop_position","railway":"stop","ref":"MOS","subway":"yes"}},{"type":"node","id":262135570,"lat":22.3769634,"lon":114.1947694,"tags":{"name":"沙田圍 Sha Tin Wai","name:en":"Sha Tin Wai","name:zh":"沙田圍","network":"MTR","operator":"香港鐵路有限公司 MTR Corporation","public_transport":"stop_position","railway":"stop","ref":"STW","subway":"yes"}},{"type":"node","id":262135577,"lat":22.3747809,"lon":114.1860976,"tags":{"name":"車公廟 Che Kung Temple","name:en":"Che Kung Temple","name:zh":"車公廟","name:zh-Hans":"车公庙","network":"MTR","operator":"香港鐵路有限公司 MTR Corporation","public_transport":"stop_position","railway":"stop","ref":"CKT","subway":"yes"}},{"type":"node","id":262146161,"lat":22.3041946,"lon":114.166541,"tags":{"name":"柯士甸 Austin","name:en":"Austin","name:zh":"柯士甸","name:zh-Hans":"柯士甸","name:zh-Hant":"柯士甸","public_transport":"stop_position","railway":"stop","ref":"AUS","subway":"yes"}},{"type":"node","id":262146168,"lat":22.3264779,"lon":114.1539138,"tags":{"name":"南昌 Nam Cheong","name:en":"Nam Cheong","name:zh":"南昌","public_transport":"stop_position","railway":"stop","ref":"NAC","subway":"yes"}},{"type":"node","id":262761250,"lat":22.3225369,"lon":114.2579671,"tags":{"name":"寶琳 Po Lam","name:en":"Po Lam","name:zh":"寶琳","network":"MTR","operator":"香港鐵路有限公司 MTR Corporation","public_transport":"stop_position","railway":"stop","ref":"POA","subway":"yes"}},{"type":"node","id":278943742,"lat":22.2845712,"lon":114.2161428,"tags":{"name":"太古 Tai Koo","name:en":"Tai Koo","name:zh":"太古","public_transport":"stop_position","railway":"stop","ref":"TAK","subway":"yes"}},{"type":"node","id":278952085,"lat":22.3048965,"lon":114.1616963,"tags":{"name":"九龍 Kowloon","name:en":"Kowloon","name:zh":"九龍","name:zh-Hans":"九龙","name:zh-Hant":"九龍","public_transport":"stop_position","railway":"stop","ref":"KOW","subway":"yes"}},{"type":"node","id":279126405,"lat":22.317703,"lon":114.1604114,"tags":{"name":"奧運 Olympic","name:en":"Olympic","name:zh":"奧運","public_transport":"stop_position","railway":"stop","ref":"OLY","subway":"yes"}},{"type":"node","id":279126413,"lat":22.3263199,"lon":114.1537684,"tags":{"name":"南昌 Nam Cheong","name:en":"Nam Cheong","name:zh":"南昌","public_transport":"stop_position","railway":"stop","ref":"NAC","subway":"yes"}},{"type":"node","id":279126759,"lat":22.3388904,"lon":114.136522,"tags":{"name":"美孚 Mei Foo","name:en":"Mei Foo","name:zh":"美孚","public_transport":"stop_position","railway":"stop","ref":"MEF","subway":"yes"}},{"type":"node","id":279130944,"lat":22.4346473,"lon":114.0634136,"tags":{"loc_ref":"1","name":"錦上路 Kam Sheung Road","name:en":"Kam Sheung Road","name:zh":"錦上路","note:train":"yes","public_transport":"stop_position","railway":"stop","ref":"KSR","subway":"yes"}},{"type":"node","id":279244979,"lat":22.4459905,"lon":114.0352444,"tags":{"name":"元朗 Yuen Long","name:en":"Yuen Long","name:zh":"元朗","public_transport":"stop_position","railway":"stop","ref":"YUL","subway":"yes"}},{"type":"node","id":279248191,"lat":22.447583,"lon":114.0254341,"tags":{"name":"朗屏 Long Ping","name:en":"Long Ping","name:zh":"朗屏","public_transport":"stop_position","railway":"stop","ref":"LOP","subway":"yes"}},{"type":"node","id":279248202,"lat":22.4480421,"lon":114.004696,"tags":{"name":"天水圍 Tin Shui Wai","name:en":"Tin Shui Wai","name:zh":"天水圍","platforms":"2","public_transport":"stop_position","railway":"stop","ref":"TIS","subway":"yes"}},{"type":"node","id":279248223,"lat":22.4117934,"lon":113.9790219,"tags":{"name":"兆康 Siu Hong","name:en":"Siu Hong","name:zh":"兆康","name:zh-Hans":"兆康","name:zh-Hant":"兆康","public_transport":"stop_position","railway":"stop","ref":"SIH","subway":"yes"}},{"type":"node","id":279248230,"lat":22.3952837,"lon":113.9733214,"tags":{"name":"屯門 Tuen Mun","name:en":"Tuen Mun","name:zh":"屯門","name:zh-Hans":"屯门","name:zh-Hant":"屯門","public_transport":"stop_position","railway":"stop","ref":"TUM","subway":"yes"}},{"type":"node","id":288376094,"lat":22.2891578,"lon":113.9414054,"tags":{"local_ref":"1","name":"東涌 Tung Chung","name:en":"Tung Chung","name:zh":"東涌","name:zh-Hans":"东涌","name:zh-Hant":"東涌","public_transport":"stop_position","railway":"stop","ref":"TUC","subway":"yes"}},{"type":"node","id":288376916,"lat":22.3583861,"lon":114.1074312,"tags":{"name":"青衣 Tsing Yi","name:en":"Tsing Yi","name:zh":"青衣","note":"TCL up","public_transport":"stop_position","railway":"stop","ref":"TSY","subway":"yes"}},{"type":"node","id":288378585,"lat":22.3484986,"lon":114.1262633,"tags":{"name":"荔景 Lai King","name:en":"Lai King","name:zh":"荔景","public_transport":"stop_position","railway":"stop","ref":"LAK","subway":"yes"}},{"type":"node","id":288378895,"lat":22.3049472,"lon":114.1615535,"tags":{"name":"九龍 Kowloon","name:en":"Kowloon","name:zh":"九龍","name:zh-Hans":"九龙","name:zh-Hant":"九龍","public_transport":"stop_position","railway":"stop","ref":"KOW","subway":"yes"}},{"type":"node","id":288379179,"lat":22.3130841,"lon":114.1707361,"tags":{"name":"油麻地 Yau Ma Tei","name:en":"Yau Ma Tei","name:ko":"야우마테이","name:zh":"油麻地","public_transport":"stop_position","railway":"stop","ref":"YMT","subway":"yes"}},{"type":"node","id":288379264,"lat":22.3244406,"lon":114.1682327,"tags":{"local_ref":"4","name":"太子 Prince Edward","name:en":"Prince Edward","name:ko":"프린스에드워드","name:zh":"太子","public_transport":"stop_position","railway":"stop","ref":"PRE","subway":"yes"}},{"type":"node","id":288379318,"lat":22.3192386,"lon":114.1693132,"tags":{"name":"旺角 Mong Kok","name:en":"Mong Kok","name:ko":"몽콕","name:zh":"旺角","public_transport":"stop_position","railway":"stop","ref":"MOK","subway":"yes"}},{"type":"node","id":288379339,"lat":22.3355274,"lon":114.156174,"tags":{"name":"長沙灣 Cheung Sha Wan","name:en":"Cheung Sha Wan","name:zh":"長沙灣","public_transport":"stop_position","railway":"stop","ref":"CSW","subway":"yes"}},{"type":"node","id":288379363,"lat":22.3306332,"lon":114.1624588,"tags":{"name":"深水埗 Sham Shui Po","name:en":"Sham Shui Po","name:zh":"深水埗","public_transport":"stop_position","railway":"stop","ref":"SSP","subway":"yes"}},{"type":"node","id":288379517,"lat":22.3374427,"lon":114.1483992,"tags":{"name":"荔枝角 Lai Chi Kok","name:en":"Lai Chi Kok","name:zh":"荔枝角","public_transport":"stop_position","railway":"stop","ref":"LCK","subway":"yes"}},{"type":"node","id":288379522,"lat":22.3379838,"lon":114.1392054,"tags":{"name":"美孚 Mei Foo","name:en":"Mei Foo","name:zh":"美孚","public_transport":"stop_position","railway":"stop","ref":"MEF","subway":"yes"}},{"type":"node","id":288379611,"lat":22.3568855,"lon":114.1278558,"tags":{"name":"葵芳 Kwai Fong","name:en":"Kwai Fong","name:zh":"葵芳","public_transport":"stop_position","railway":"stop","ref":"KWF","subway":"yes","wikidata":"Q838803","wikipedia":"en:Kwai Fong station"}},{"type":"node","id":288379617,"lat":22.3630265,"lon":114.131206,"tags":{"name":"葵興 Kwai Hing","name:en":"Kwai Hing","name:zh":"葵興","public_transport":"stop_position","railway":"stop","ref":"KWH","subway":"yes","wikidata":"Q839727","wikipedia":"en:Kwai Hing station"}},{"type":"node","id":288457559,"lat":22.3368912,"lon":114.1772614,"tags":{"name":"九龍塘 Kowloon Tong","name:en":"Kowloon Tong","name:zh":"九龍塘","public_transport":"stop_position","railway":"stop","ref":"KOT","subway":"yes"}},{"type":"node","id":288699135,"lat":22.332964,"lon":114.1687987,"tags":{"level":"-3","level:ref":"P","loc_ref":"1","name":"石硤尾 Shek Kip Mei","name:en":"Shek Kip Mei","name:zh":"石硤尾","public_transport":"stop_position","railway":"stop","ref":"SKM","subway":"yes"}},{"type":"node","id":288703656,"lat":22.338231,"lon":114.1876606,"tags":{"name":"樂富 Lok Fu","name:en":"Lok Fu","name:zh":"樂富","public_transport":"stop_position","railway":"stop","ref":"LOF","subway":"yes"}},{"type":"node","id":288704399,"lat":22.3417863,"lon":114.1951039,"tags":{"name":"黃大仙 Wong Tai Sin","name:en":"Wong Tai Sin","name:zh":"黃大仙","public_transport":"stop_position","railway":"stop","ref":"WTS","subway":"yes"}},{"type":"node","id":288704403,"lat":22.3400859,"lon":114.2016471,"tags":{"name":"鑽石山 Diamond Hill","name:en":"Diamond Hill","name:zh":"鑽石山","public_transport":"stop_position","railway":"stop","ref":"DIH","subway":"yes"}},{"type":"node","id":288704409,"lat":22.3343989,"lon":114.2099149,"tags":{"name":"彩虹 Choi Hung","name:en":"Choi Hung","name:zh":"彩虹","public_transport":"stop_position","railway":"stop","ref":"CHH","subway":"yes"}},{"type":"node","id":288705599,"lat":22.3235575,"lon":114.2141658,"tags":{"name":"九龍灣 Kowloon Bay","name:en":"Kowloon Bay","name:zh":"九龍灣","operator":"香港鐵路有限公司 MTR Corporation","public_transport":"stop_position","railway":"stop","ref":"KOB","subway":"yes"}},{"type":"node","id":288705608,"lat":22.3154285,"lon":114.2191988,"tags":{"name":"牛頭角 Ngau Tau Kok","name:en":"Ngau Tau Kok","name:zh":"牛頭角","operator":"香港鐵路有限公司 MTR Corporation","public_transport":"stop_position","railway":"stop","ref":"NTK","subway":"yes"}},{"type":"node","id":288705614,"lat":22.3122845,"lon":114.2264543,"tags":{"name":"觀塘 Kwun Tong","name:en":"Kwun Tong","name:zh":"觀塘","operator":"香港鐵路有限公司 MTR Corporation","public_transport":"stop_position","railway":"stop","ref":"KWT","subway":"yes"}},{"type":"node","id":288706017,"lat":22.2978445,"lon":114.2372215,"tags":{"name":"油塘 Yau Tong","name:en":"Yau Tong","name:zh":"油塘","name:zh-Hans":"油塘","name:zh-Hant":"油塘","operator":"香港鐵路有限公司 MTR Corporation","public_transport":"stop_position","railway":"stop","ref":"YAT","subway":"yes","wheelchair":"limited"}},{"type":"node","id":307391103,"lat":22.3074422,"lon":114.2599465,"tags":{"name":"將軍澳 Tseung Kwan O","name:en":"Tseung Kwan O","name:zh":"將軍澳","network":"MTR","operator":"香港鐵路有限公司 MTR Corporation","public_transport":"stop_position","railway":"stop","ref":"TKO","subway":"yes"}},{"type":"node","id":307394049,"lat":22.3040201,"lon":114.2524315,"tags":{"name":"調景嶺 Tiu Keng Leng","name:en":"Tiu Keng Leng","name:zh":"調景嶺","public_transport":"stop_position","railway":"stop","subway":"yes"}},{"type":"node","id":307394050,"lat":22.3041145,"lon":114.2523284,"tags":{"name":"調景嶺 Tiu Keng Leng","name:en":"Tiu Keng Leng","name:zh":"調景嶺","public_transport":"stop_position","railway":"stop","subway":"yes"}},{"type":"node","id":316729749,"lat":22.5143748,"lon":114.065685,"tags":{"access":"permit","brand":"港鐵 MTR","brand:en":"MTR","brand:ref":"MTR","brand:wikidata":"Q14751","brand:zh":"港鐵","loc_ref":"1","name":"落馬洲 Lok Ma Chau","name:en":"Lok Ma Chau","name:zh":"落馬洲","network":"港鐵 MTR","network:en":"MTR","network:ref":"MTR","network:wikidata":"Q14751","network:zh":"港鐵","operator":"香港鐵路有限公司 MTR Corporation Limited","operator:en":"MTR Corporation Limited","operator:wikidata":"Q1479375","operator:zh":"香港鐵路有限公司","owner":"九廣鐵路公司 Kowloon-Canton Railway Corporation","owner:en":"Kowloon-Canton Railway Corporation","owner:wikidata":"Q838436","owner:zh":"九廣鐵路公司","ownership":"public","public_transport":"stop_position","railway":"stop","ref":"LMC","subway":"yes","train":"yes"}},{"type":"node","id":316731315,"lat":22.4004416,"lon":114.2029649,"tags":{"name":"馬場 Racecourse","name:en":"Racecourse","name:zh":"馬場","network":"MTR","operator":"香港鐵路有限公司 MTR Corporation","public_transport":"stop_position","railway":"stop","ref":"RAC","subway":"yes"}},{"type":"node","id":357138078,"lat":22.3155384,"lon":114.0451419,"tags":{"name":"迪士尼 Disneyland Resort","name:en":"Disneyland Resort","name:zh":"迪士尼","public_transport":"stop_position","railway":"stop","ref":"DIS","subway":"yes"}},{"type":"node","id":384143704,"lat":22.2954745,"lon":114.1751008,"tags":{"name":"尖東 East Tsim Sha Tsui","name:en":"East Tsim Sha Tsui","name:zh":"尖東","public_transport":"stop_position","railway":"stop","subway":"yes"}},{"type":"node","id":506479328,"lat":22.3261443,"lon":114.1535975,"tags":{"name":"南昌 Nam Cheong","name:en":"Nam Cheong","name:zh":"南昌","public_transport":"stop_position","railway":"stop","ref":"NAC","subway":"yes"}},{"type":"node","id":515673758,"lat":22.2839642,"lon":114.1354563,"tags":{"name":"香港大學 HKU","name:en":"HKU","name:zh":"香港大學","public_transport":"stop_position","railway":"stop","ref":"HKU","subway":"yes"}},{"type":"node","id":515677041,"lat":22.2812239,"lon":114.128455,"tags":{"name":"堅尼地城 Kennedy Town","name:en":"Kennedy Town","name:zh":"堅尼地城","name:zh-Hans":"坚尼地城","name:zh-Hant":"堅尼地城","public_transport":"stop_position","railway":"stop","ref":"KET","subway":"yes"}},{"type":"node","id":623891093,"lat":22.4509658,"lon":114.1612012,"tags":{"name":"太和 Tai Wo","name:en":"Tai Wo","name:zh":"太和","network":"MTR","operator":"香港鐵路有限公司 MTR Corporation","public_transport":"stop_position","railway":"stop","ref":"TWO","subway":"yes"}},{"type":"node","id":644564532,"lat":22.5011468,"lon":114.1280755,"tags":{"name":"上水 Sheung Shui","name:en":"Sheung Shui","name:zh":"上水","network":"MTR","operator":"香港鐵路有限公司 MTR Corporation","public_transport":"stop_position","railway":"stop","ref":"SHS","subway":"yes"}},{"type":"node","id":984409361,"lat":22.2904837,"lon":114.2005605,"tags":{"name":"北角 North Point","name:en":"North Point","name:zh":"北角","name:zh-Hans":"北角","name:zh-Hant":"北角","public_transport":"stop_position","railway":"stop","ref":"NOP","subway":"yes"}},{"type":"node","id":984409448,"lat":22.2790834,"lon":114.2288177,"tags":{"name":"筲箕灣 Shau Kei Wan","name:en":"Shau Kei Wan","name:zh":"筲箕灣","public_transport":"stop_position","railway":"stop","ref":"SKW","subway":"yes"}},{"type":"node","id":984741544,"lat":22.3041111,"lon":114.2523323,"tags":{"name":"調景嶺 Tiu Keng Leng","name:en":"Tiu Keng Leng","name:zh":"調景嶺","name:zh-Hans":"调景岭","name:zh-Hant":"調景嶺","note":"KTL","public_transport":"stop_position","railway":"stop","subway":"yes"}},{"type":"node","id":984741558,"lat":22.2890063,"lon":114.2082975,"tags":{"name":"鰂魚涌 Quarry Bay","name:en":"Quarry Bay","name:zh":"鰂魚涌","name:zh-Hans":"鲗鱼涌","name:zh-Hant":"鰂魚涌","public_transport":"stop_position","railway":"stop","ref":"QUB","subway":"yes"}},{"type":"node","id":991294660,"lat":22.31308,"lon":114.1707196,"tags":{"name":"油麻地 Yau Ma Tei","name:en":"Yau Ma Tei","name:ko":"야우마테이","name:zh":"油麻地","public_transport":"stop_position","railway":"stop","ref":"YMT","subway":"yes"}},{"type":"node","id":991294915,"lat":22.3244648,"lon":114.1683614,"tags":{"local_ref":"3","name":"太子 Prince Edward","name:en":"Prince Edward","name:ko":"프린스에드워드","name:zh":"太子","public_transport":"stop_position","railway":"stop","ref":"PRE","subway":"yes"}},{"type":"node","id":991294975,"lat":22.319263,"lon":114.1694488,"tags":{"name":"旺角 Mong Kok","name:en":"Mong Kok","name:ko":"몽콕","name:zh":"旺角","public_transport":"stop_position","railway":"stop","ref":"MOK","subway":"yes"}},{"type":"node","id":991295084,"lat":22.2977986,"lon":114.2370945,"tags":{"name":"油塘 Yau Tong","name:en":"Yau Tong","name:zh":"油塘","name:zh-Hans":"油塘","name:zh-Hant":"油塘","public_transport":"stop_position","railway":"stop","ref":"YAT","subway":"yes"}},{"type":"node","id":1295654768,"lat":22.3482836,"lon":114.125984,"tags":{"name":"荔景 Lai King","name:en":"Lai King","name:zh":"荔景","public_transport":"stop_position","railway":"stop","ref":"LAK","subway":"yes"}},{"type":"node","id":1295654775,"lat":22.3583861,"lon":114.1074313,"tags":{"name":"青衣 Tsing Yi","name:en":"Tsing Yi","name:zh":"青衣","note":"TCL down","public_transport":"stop_position","railway":"stop","ref":"TSY","subway":"yes"}},{"type":"node","id":1295654784,"lat":22.3731463,"lon":114.1784831,"tags":{"brand":"港鐵 MTR","brand:en":"MTR","brand:zh":"港鐵","loc_ref":"1","name":"大圍 Tai Wai","name:en":"Tai Wai","name:zh":"大圍","network":"港鐵 MTR","network:en":"MTR","network:wikidata":"Q14751","network:zh":"港鐵","operator":"香港鐵路有限公司 MTR Corporation Limited","operator:en":"MTR Corporation Limited","operator:wikidata":"Q1479375","operator:zh":"香港鐵路有限公司","owner":"九廣鐵路公司 Kowloon-Canton Railway Corporation","owner:en":"Kowloon-Canton Railway Corporation","owner:wikidata":"Q838436","owner:zh":"九廣鐵路公司","ownership":"public","public_transport":"stop_position","railway":"stop","ref":"TAW","subway":"yes"}},{"type":"node","id":1295654804,"lat":22.3319141,"lon":114.0287808,"tags":{"loc_ref":"2","name":"欣澳 Sunny Bay","name:en":"Sunny Bay","name:zh":"欣澳","public_transport":"stop_position","railway":"stop","ref":"SUN","subway":"yes"}},{"type":"node","id":1295654836,"lat":22.3049115,"lon":114.1616488,"tags":{"name":"九龍 Kowloon","name:en":"Kowloon","name:zh":"九龍","name:zh-Hans":"九龙","name:zh-Hant":"九龍","network":"MTR","operator":"香港鐵路有限公司 MTR Corporation","public_transport":"stop_position","railway":"stop","ref":"KOW","subway":"yes"}},{"type":"node","id":1295654882,"lat":22.2783603,"lon":114.1660981,"tags":{"loc_ref":"5","name":"金鐘 Admiralty","name:en":"Admiralty","name:zh":"金鐘","name:zh-Hans":"金钟","name:zh-Hant":"金鐘","public_transport":"stop_position","railway":"stop","ref":"ADM","subway":"yes"}},{"type":"node","id":1295654891,"lat":22.3369989,"lon":114.1758397,"tags":{"name":"九龍塘 Kowloon Tong","name:en":"Kowloon Tong","name:zh":"九龍塘","public_transport":"stop_position","railway":"stop","ref":"KOT","subway":"yes"}},{"type":"node","id":1295654897,"lat":22.3317036,"lon":114.0290377,"tags":{"name":"欣澳 Sunny Bay","name:en":"Sunny Bay","name:zh":"欣澳","public_transport":"stop_position","railway":"stop","ref":"SUN","subway":"yes"}},{"type":"node","id":1492217236,"lat":22.5145627,"lon":114.065664,"tags":{"access":"permit","brand":"港鐵 MTR","brand:en":"MTR","brand:ref":"MTR","brand:wikidata":"Q14751","brand:zh":"港鐵","loc_ref":"2","name":"落馬洲 Lok Ma Chau","name:en":"Lok Ma Chau","name:zh":"落馬洲","name:zh-Hans":"落马洲","name:zh-Hant":"落馬洲","network":"港鐵 MTR","network:en":"MTR","network:ref":"MTR","network:wikidata":"Q14751","network:zh":"港鐵","operator":"香港鐵路有限公司 MTR Corporation Limited","operator:en":"MTR Corporation Limited","operator:wikidata":"Q1479375","operator:zh":"香港鐵路有限公司","owner":"九廣鐵路公司 Kowloon-Canton Railway Corporation","owner:en":"Kowloon-Canton Railway Corporation","owner:wikidata":"Q838436","owner:zh":"九廣鐵路公司","ownership":"public","public_transport":"stop_position","railway":"stop","ref":"LMC","subway":"yes","train":"yes"}},{"type":"node","id":1506594356,"lat":22.3728022,"lon":114.1787838,"tags":{"brand":"港鐵 MTR","brand:en":"MTR","brand:zh":"港鐵","loc_ref":"3","name":"大圍 Tai Wai","name:en":"Tai Wai","name:zh":"大圍","network":"港鐵 MTR","network:en":"MTR","network:wikidata":"Q14751","network:zh":"港鐵","operator":"香港鐵路有限公司 MTR Corporation Limited","operator:en":"MTR Corporation Limited","operator:wikidata":"Q1479375","operator:zh":"香港鐵路有限公司","owner":"九廣鐵路公司 Kowloon-Canton Railway Corporation","owner:en":"Kowloon-Canton Railway Corporation","owner:wikidata":"Q838436","owner:zh":"九廣鐵路公司","ownership":"public","public_transport":"stop_position","railway":"stop","ref":"TAW","subway":"yes"}},{"type":"node","id":1703859087,"lat":22.4447575,"lon":114.1707875,"tags":{"name":"大埔墟 Tai Po Market","name:en":"Tai Po Market","name:zh":"大埔墟","network":"MTR","operator":"香港鐵路有限公司 MTR Corporation","public_transport":"stop_position","railway":"stop","ref":"TAP","subway":"yes","wikidata":"Q996781","wikipedia":"en:Tai Po Market station"}},{"type":"node","id":2031291862,"lat":22.3877892,"lon":114.2085474,"tags":{"name":"石門 Shek Mun","name:en":"Shek Mun","name:zh":"石門","network":"MTR","operator":"香港鐵路有限公司 MTR Corporation","public_transport":"stop_position","railway":"stop","ref":"SHM","subway":"yes"}},{"type":"node","id":2031291900,"lat":22.4174379,"lon":114.2258047,"tags":{"name":"恆安 Heng On","name:en":"Heng On","name:zh":"恆安","network":"MTR","operator":"香港鐵路有限公司 MTR Corporation","public_transport":"stop_position","railway":"stop","ref":"HEO","subway":"yes"}},{"type":"node","id":2031291916,"lat":22.4247822,"lon":114.2318125,"tags":{"name":"馬鞍山 Ma On Shan","name:en":"Ma On Shan","name:zh":"馬鞍山","network":"MTR","operator":"香港鐵路有限公司 MTR Corporation","public_transport":"stop_position","railway":"stop","ref":"MOS","subway":"yes"}},{"type":"node","id":2031291917,"lat":22.3830131,"lon":114.203784,"tags":{"name":"第一城 City One","name:en":"City One","name:zh":"第一城","network":"MTR","operator":"香港鐵路有限公司 MTR Corporation","public_transport":"stop_position","railway":"stop","ref":"CIO","subway":"yes"}},{"type":"node","id":2031291951,"lat":22.4290802,"lon":114.2438864,"tags":{"name":"烏溪沙 Wu Kai Sha","name:en":"Wu Kai Sha","name:zh":"烏溪沙","network":"MTR","operator":"香港鐵路有限公司 MTR Corporation","public_transport":"stop_position","railway":"stop","ref":"WKS","subway":"yes"}},{"type":"node","id":2031291969,"lat":22.3727593,"lon":114.1788126,"tags":{"brand":"港鐵 MTR","brand:en":"MTR","brand:zh":"港鐵","loc_ref":"4","name":"大圍 Tai Wai","name:en":"Tai Wai","name:zh":"大圍","network":"港鐵 MTR","network:en":"MTR","network:wikidata":"Q14751","network:zh":"港鐵","operator":"香港鐵路有限公司 MTR Corporation Limited","operator:en":"MTR Corporation Limited","operator:wikidata":"Q1479375","operator:zh":"香港鐵路有限公司","owner":"九廣鐵路公司 Kowloon-Canton Railway Corporation","owner:en":"Kowloon-Canton Railway Corporation","owner:wikidata":"Q838436","owner:zh":"九廣鐵路公司","ownership":"public","public_transport":"stop_position","railway":"stop","ref":"TAW","subway":"yes"}},{"type":"node","id":2031292033,"lat":22.374738,"lon":114.186095,"tags":{"name":"車公廟 Che Kung Temple","name:en":"Che Kung Temple","name:zh":"車公廟","name:zh-Hans":"车公庙","network":"MTR","operator":"香港鐵路有限公司 MTR Corporation","public_transport":"stop_position","railway":"stop","ref":"CKT","subway":"yes"}},{"type":"node","id":2031292042,"lat":22.3878743,"lon":114.2084283,"tags":{"name":"石門 Shek Mun","name:en":"Shek Mun","name:zh":"石門","network":"MTR","operator":"香港鐵路有限公司 MTR Corporation","public_transport":"stop_position","railway":"stop","ref":"SHM","subway":"yes"}},{"type":"node","id":2163048344,"lat":22.3681757,"lon":114.1100226,"tags":{"name":"荃灣西 Tsuen Wan West","name:en":"Tsuen Wan West","name:zh":"荃灣西","public_transport":"stop_position","railway":"stop","ref":"TWW","subway":"yes"}},{"type":"node","id":2176979623,"lat":22.2486575,"lon":114.174374,"tags":{"name":"海洋公園 Ocean Park","name:en":"Ocean Park","name:zh":"海洋公園","public_transport":"stop_position","railway":"stop","ref":"OCP","subway":"yes"}},{"type":"node","id":2176979857,"lat":22.2478225,"lon":114.1675268,"tags":{"name":"黃竹坑 Wong Chuk Hang","name:en":"Wong Chuk Hang","name:zh":"黃竹坑","public_transport":"stop_position","railway":"stop","ref":"WCH","subway":"yes"}},{"type":"node","id":2176980003,"lat":22.2418706,"lon":114.1561054,"tags":{"name":"利東 Lei Tung","name:en":"Lei Tung","name:zh":"利東","public_transport":"stop_position","railway":"stop","ref":"LET","subway":"yes"}},{"type":"node","id":2179507624,"lat":22.4461812,"lon":114.0352447,"tags":{"name":"元朗 Yuen Long","name:en":"Yuen Long","name:zh":"元朗","public_transport":"stop_position","railway":"stop","ref":"YUL","subway":"yes"}},{"type":"node","id":2179507646,"lat":22.4481513,"lon":114.0045668,"tags":{"name":"天水圍 Tin Shui Wai","name:en":"Tin Shui Wai","name:zh":"天水圍","platforms":"2","public_transport":"stop_position","railway":"stop","ref":"TIS","subway":"yes"}},{"type":"node","id":2179507660,"lat":22.4118356,"lon":113.9788437,"tags":{"name":"兆康 Siu Hong","name:en":"Siu Hong","name:zh":"兆康","name:zh-Hans":"兆康","name:zh-Hant":"兆康","public_transport":"stop_position","railway":"stop","ref":"SIH","subway":"yes"}},{"type":"node","id":2179507704,"lat":22.4349379,"lon":114.0634357,"tags":{"loc_ref":"2","name":"錦上路 Kam Sheung Road","name:en":"Kam Sheung Road","name:zh":"錦上路","note:train":"yes","public_transport":"stop_position","railway":"stop","ref":"KSR","subway":"yes"}},{"type":"node","id":2179507747,"lat":22.3953319,"lon":113.9731045,"tags":{"name":"屯門 Tuen Mun","name:en":"Tuen Mun","name:zh":"屯門","name:zh-Hans":"屯门","name:zh-Hant":"屯門","public_transport":"stop_position","railway":"stop","ref":"TUM","subway":"yes"}},{"type":"node","id":2179507764,"lat":22.4477635,"lon":114.0254333,"tags":{"name":"朗屏 Long Ping","name:en":"Long Ping","name:zh":"朗屏","public_transport":"stop_position","railway":"stop","ref":"LOP","subway":"yes"}},{"type":"node","id":2179527342,"lat":22.3388903,"lon":114.1365875,"tags":{"name":"美孚 Mei Foo","name:en":"Mei Foo","name:zh":"美孚","public_transport":"stop_position","railway":"stop","ref":"MEF","subway":"yes","train":"yes"}},{"type":"node","id":2179527380,"lat":22.3682204,"lon":114.1100671,"tags":{"name":"荃灣西 Tsuen Wan West","name:en":"Tsuen Wan West","name:zh":"荃灣西","public_transport":"stop_position","railway":"stop","ref":"TWW","subway":"yes"}},{"type":"node","id":2179557419,"lat":22.3042568,"lon":114.1667055,"tags":{"name":"柯士甸 Austin","name:en":"Austin","name:zh":"柯士甸","name:zh-Hans":"柯士甸","name:zh-Hant":"柯士甸","public_transport":"stop_position","railway":"stop","ref":"AUS","subway":"yes"}},{"type":"node","id":2179557425,"lat":22.295647,"lon":114.1750129,"tags":{"name":"尖東 East Tsim Sha Tsui","name:en":"East Tsim Sha Tsui","name:zh":"尖東","public_transport":"stop_position","railway":"stop","subway":"yes"}},{"type":"node","id":2179557427,"lat":22.3265137,"lon":114.1539473,"tags":{"name":"南昌 Nam Cheong","name:en":"Nam Cheong","name:zh":"南昌","public_transport":"stop_position","railway":"stop","ref":"NAC","subway":"yes"}},{"type":"node","id":2181592163,"lat":22.4921182,"lon":114.1386929,"tags":{"name":"粉嶺 Fanling","name:en":"Fanling","name:zh":"粉嶺","network":"MTR","operator":"香港鐵路有限公司 MTR Corporation","public_transport":"stop_position","railway":"stop","ref":"FAN","subway":"yes"}},{"type":"node","id":2183425830,"lat":22.444637,"lon":114.1707762,"tags":{"name":"大埔墟 Tai Po Market","name:en":"Tai Po Market","name:zh":"大埔墟","network":"MTR","operator":"香港鐵路有限公司 MTR Corporation","public_transport":"stop_position","railway":"stop","ref":"TAP","subway":"yes","wikidata":"Q996781","wikipedia":"en:Tai Po Market station"}},{"type":"node","id":2183425923,"lat":22.4509916,"lon":114.161234,"tags":{"name":"太和 Tai Wo","name:en":"Tai Wo","name:zh":"太和","network":"MTR","operator":"香港鐵路有限公司 MTR Corporation","public_transport":"stop_position","railway":"stop","ref":"TWO","subway":"yes"}},{"type":"node","id":2183425988,"lat":22.4133903,"lon":114.2100166,"tags":{"name":"大學 University","name:en":"University","name:zh":"大學","network":"MTR","operator":"香港鐵路有限公司 MTR Corporation","public_transport":"stop_position","railway":"stop","ref":"UNI","subway":"yes"}},{"type":"node","id":2185507407,"lat":22.4004961,"lon":114.202847,"tags":{"name":"馬場 Racecourse","name:en":"Racecourse","name:zh":"馬場","network":"MTR","operator":"香港鐵路有限公司 MTR Corporation","public_transport":"stop_position","railway":"stop","ref":"RAC","subway":"yes"}},{"type":"node","id":2185507410,"lat":22.3829192,"lon":114.1875139,"tags":{"name":"沙田 Sha Tin","name:en":"Sha Tin","name:zh":"沙田","network":"MTR","operator":"香港鐵路有限公司 MTR Corporation","public_transport":"stop_position","railway":"stop","ref":"SHT","subway":"yes"}},{"type":"node","id":2185507473,"lat":22.3828402,"lon":114.1876419,"tags":{"name":"沙田 Sha Tin","name:en":"Sha Tin","name:zh":"沙田","network":"MTR","operator":"香港鐵路有限公司 MTR Corporation","public_transport":"stop_position","railway":"stop","ref":"SHT","subway":"yes"}},{"type":"node","id":2185507487,"lat":22.3828531,"lon":114.1876187,"tags":{"name":"沙田 Sha Tin","name:en":"Sha Tin","name:zh":"沙田","network":"MTR","operator":"香港鐵路有限公司 MTR Corporation","public_transport":"stop_position","railway":"stop","ref":"SHT","subway":"yes"}},{"type":"node","id":2185507514,"lat":22.3953935,"lon":114.1982772,"tags":{"name":"火炭 Fo Tan","name:en":"Fo Tan","name:zh":"火炭","network":"MTR","operator":"香港鐵路有限公司 MTR Corporation","public_transport":"stop_position","railway":"stop","ref":"FOT","subway":"yes"}},{"type":"node","id":2185507515,"lat":22.3954451,"lon":114.1981852,"tags":{"name":"火炭 Fo Tan","name:en":"Fo Tan","name:zh":"火炭","network":"MTR","operator":"香港鐵路有限公司 MTR Corporation","public_transport":"stop_position","railway":"stop","ref":"FOT","subway":"yes"}},{"type":"node","id":2185546183,"lat":22.3370045,"lon":114.1758821,"tags":{"name":"九龍塘 Kowloon Tong","name:en":"Kowloon Tong","name:zh":"九龍塘","public_transport":"stop_position","railway":"stop","ref":"KOT","subway":"yes"}},{"type":"node","id":2187196164,"lat":22.3219524,"lon":114.1725539,"tags":{"name":"旺角東 Mong Kok East","name:en":"Mong Kok East","name:zh":"旺角東","network":"MTR","operator":"香港鐵路有限公司 MTR Corporation","public_transport":"stop_position","railway":"stop","ref":"MKK","subway":"yes"}},{"type":"node","id":2187196185,"lat":22.3223616,"lon":114.1724902,"tags":{"name":"旺角東 Mong Kok East","name:en":"Mong Kok East","name:zh":"旺角東","network":"MTR","operator":"香港鐵路有限公司 MTR Corporation","public_transport":"stop_position","railway":"stop","ref":"MKK","subway":"yes"}},{"type":"node","id":2291194921,"lat":22.3159044,"lon":113.9366103,"tags":{"name":"機場 Airport","name:en":"Airport","name:zh":"機場","network":"MTR","operator":"香港鐵路有限公司 MTR Corporation","public_transport":"stop_position","railway":"stop","ref":"AIR","subway":"yes"}},{"type":"node","id":2291194993,"lat":22.289278,"lon":113.9413221,"tags":{"local_ref":"2","name":"東涌 Tung Chung","name:en":"Tung Chung","name:zh":"東涌","name:zh-Hans":"东涌","name:zh-Hant":"東涌","public_transport":"stop_position","railway":"stop","ref":"TUC","subway":"yes"}},{"type":"node","id":2291195552,"lat":22.3318198,"lon":114.0288936,"tags":{"loc_ref":"1","name":"欣澳 Sunny Bay","name:en":"Sunny Bay","name:zh":"欣澳","public_transport":"stop_position","railway":"stop","ref":"SUN","subway":"yes"}},{"type":"node","id":2292179606,"lat":22.358341,"lon":114.1074211,"tags":{"name":"青衣 Tsing Yi","name:en":"Tsing Yi","name:zh":"青衣","network":"MTR","note":"AEL down","operator":"香港鐵路有限公司 MTR Corporation","public_transport":"stop_position","railway":"stop","ref":"TSY","subway":"yes"}},{"type":"node","id":2292179609,"lat":22.3176404,"lon":114.1601536,"tags":{"name":"奧運 Olympic","name:en":"Olympic","name:zh":"奧運","public_transport":"stop_position","railway":"stop","ref":"OLY","subway":"yes"}},{"type":"node","id":2292179656,"lat":22.3484137,"lon":114.12604,"tags":{"name":"荔景 Lai King","name:en":"Lai King","name:zh":"荔景","public_transport":"stop_position","railway":"stop","ref":"LAK","subway":"yes"}},{"type":"node","id":2292548102,"lat":22.3049657,"lon":114.1615073,"tags":{"name":"九龍 Kowloon","name:en":"Kowloon","name:zh":"九龍","name:zh-Hans":"九龙","name:zh-Hant":"九龍","public_transport":"stop_position","railway":"stop","ref":"KOW","subway":"yes"}},{"type":"node","id":2308404910,"lat":22.3401036,"lon":114.2006248,"tags":{"name":"鑽石山 Diamond Hill","name:en":"Diamond Hill","name:zh":"鑽石山","public_transport":"stop_position","railway":"stop","ref":"DIH","subway":"yes"}},{"type":"node","id":2308404912,"lat":22.3030545,"lon":114.1821592,"tags":{"loc_ref":"2","name":"紅磡 Hung Hom","name:en":"Hung Hom","name:zh":"紅磡","public_transport":"stop_position","railway":"stop","ref":"HUH","subway":"yes"}},{"type":"node","id":2308404918,"lat":22.3258764,"lon":114.1914338,"tags":{"loc_ref":"2","name":"宋皇臺 Sung Wong Toi","name:en":"Sung Wong Toi","name:zh":"宋皇臺","public_transport":"stop_position","railway":"stop","ref":"SWT","subway":"yes","train":"yes"}},{"type":"node","id":2308404957,"lat":22.3169855,"lon":114.1875377,"tags":{"loc_ref":"1","name":"土瓜灣 To Kwa Wan","name:en":"To Kwa Wan","name:zh":"土瓜灣","public_transport":"stop_position","railway":"stop","ref":"TKW","subway":"yes","train":"yes"}},{"type":"node","id":2308404964,"lat":22.3094852,"lon":114.1828025,"tags":{"name":"何文田 Ho Man Tin","name:en":"Ho Man Tin","name:zh":"何文田","public_transport":"stop_position","railway":"stop","ref":"HOM","subway":"yes","train":"yes"}},{"type":"node","id":2308404965,"lat":22.3638205,"lon":114.1707186,"tags":{"name":"顯徑 Hin Keng","name:en":"Hin Keng","name:zh":"顯徑","public_transport":"stop_position","railway":"stop","ref":"HIK","subway":"yes"}},{"type":"node","id":2308405006,"lat":22.3260317,"lon":114.1913624,"tags":{"loc_ref":"1","name":"宋皇臺 Sung Wong Toi","name:en":"Sung Wong Toi","name:zh":"宋皇臺","public_transport":"stop_position","railway":"stop","ref":"SWT","subway":"yes","train":"yes"}},{"type":"node","id":2308405024,"lat":22.3169857,"lon":114.1875579,"tags":{"loc_ref":"2","name":"土瓜灣 To Kwa Wan","name:en":"To Kwa Wan","name:zh":"土瓜灣","public_transport":"stop_position","railway":"stop","ref":"TKW","subway":"yes","train":"yes"}},{"type":"node","id":2308405037,"lat":22.3030345,"lon":114.1824075,"tags":{"loc_ref":"3","name":"紅磡 Hung Hom","name:en":"Hung Hom","name:zh":"紅磡","public_transport":"stop_position","railway":"stop","ref":"HUH","subway":"yes"}},{"type":"node","id":2308405057,"lat":22.3095638,"lon":114.1826418,"tags":{"name":"何文田 Ho Man Tin","name:en":"Ho Man Tin","name:zh":"何文田","public_transport":"stop_position","railway":"stop","ref":"HOM","subway":"yes","train":"yes"}},{"type":"node","id":2308405061,"lat":22.3638076,"lon":114.1707728,"tags":{"name":"顯徑 Hin Keng","name:en":"Hin Keng","name:zh":"顯徑","public_transport":"stop_position","railway":"stop","ref":"HIK","subway":"yes"}},{"type":"node","id":2308405110,"lat":22.3388988,"lon":114.2019089,"tags":{"name":"鑽石山 Diamond Hill","name:en":"Diamond Hill","name:zh":"鑽石山","public_transport":"stop_position","railway":"stop","ref":"DIH","subway":"yes"}},{"type":"node","id":2312304840,"lat":22.52818,"lon":114.1135146,"tags":{"access":"permit","border_control":"no","border_zone":"yes","brand":"港鐵 MTR","brand:en":"MTR","brand:ref":"MTR","brand:wikidata":"Q14751","brand:zh":"港鐵","name":"羅湖 Lo Wu","name:en":"Lo Wu","name:zh":"羅湖","network":"港鐵 MTR","network:en":"MTR","network:ref":"MTR","network:wikidata":"Q14751","network:zh":"港鐵","operator":"香港鐵路有限公司 MTR Corporation Limited","operator:en":"MTR Corporation Limited","operator:wikidata":"Q1479375","operator:zh":"香港鐵路有限公司","owner":"九廣鐵路公司 Kowloon-Canton Railway Corporation","owner:en":"Kowloon-Canton Railway Corporation","owner:wikidata":"Q838436","owner:zh":"九廣鐵路公司","ownership":"public","permit":"travel_document","public_transport":"stop_position","railway":"stop","ref":"LOW","security_area":"no","security_check":"no","subway":"yes"}},{"type":"node","id":2319258376,"lat":22.304901,"lon":114.1896461,"tags":{"name":"黃埔 Whampoa","name:en":"Whampoa","name:ko":"왐포아","name:zh":"黃埔","public_transport":"stop_position","railway":"stop","ref":"WHA","subway":"yes","wikipedia:en":"Whampoa Station"}},{"type":"node","id":2319258377,"lat":22.3093306,"lon":114.1826415,"tags":{"brand":"港鐵 MTR","brand:en":"MTR","brand:zh":"港鐵","loc_ref":"1","name":"何文田 Ho Man Tin","name:en":"Ho Man Tin","name:ko":"호만틴","name:zh":"何文田","network":"港鐵 MTR","network:en":"MTR","network:wikidata":"Q14751","network:zh":"港鐵","operator":"香港鐵路有限公司 MTR Corporation Limited","operator:en":"MTR Corporation Limited","operator:wikidata":"Q1479375","operator:zh":"香港鐵路有限公司","owner":"香港鐵路有限公司 MTR Corporation Limited","owner:en":"MTR Corporation Limited","owner:wikidata":"Q1479375","owner:zh":"香港鐵路有限公司","public_transport":"stop_position","railway":"stop","ref":"HOM","subway":"yes"}},{"type":"node","id":2524919263,"lat":22.3303099,"lon":114.1992073,"tags":{"name":"啟德 Kai Tak","name:en":"Kai Tak","name:zh":"啟德","public_transport":"stop_position","railway":"stop","ref":"KAT","subway":"yes"}},{"type":"node","id":2524919264,"lat":22.3301957,"lon":114.1993488,"tags":{"name":"啟德 Kai Tak","name:en":"Kai Tak","name:zh":"啟德","public_transport":"stop_position","railway":"stop","ref":"KAT","subway":"yes"}},{"type":"node","id":2541019066,"lat":22.3706945,"lon":114.1251194,"tags":{"name":"大窩口 Tai Wo Hau","name:en":"Tai Wo Hau","name:zh":"大窩口","public_transport":"stop_position","railway":"stop","ref":"TWH","subway":"yes"}},{"type":"node","id":2541019163,"lat":22.3736278,"lon":114.1178364,"tags":{"name":"荃灣 Tsuen Wan","name:zh":"荃灣","public_transport":"stop_position","railway":"stop","ref":"TSW","subway":"yes"}},{"type":"node","id":2541331746,"lat":22.3630255,"lon":114.1311712,"tags":{"name":"葵興 Kwai Hing","name:en":"Kwai Hing","name:zh":"葵興","public_transport":"stop_position","railway":"stop","ref":"KWH","subway":"yes","wikidata":"Q839727","wikipedia":"en:Kwai Hing station"}},{"type":"node","id":2541331790,"lat":22.3569016,"lon":114.1278299,"tags":{"name":"葵芳 Kwai Fong","name:en":"Kwai Fong","name:zh":"葵芳","public_transport":"stop_position","railway":"stop","ref":"KWF","subway":"yes","wikidata":"Q838803","wikipedia":"en:Kwai Fong station"}},{"type":"node","id":2541359360,"lat":22.3483333,"lon":114.1261192,"tags":{"name":"荔景 Lai King","name:en":"Lai King","name:zh":"荔景","public_transport":"stop_position","railway":"stop","ref":"LAK","subway":"yes"}},{"type":"node","id":2541384250,"lat":22.3378719,"lon":114.1391541,"tags":{"name":"美孚 Mei Foo","name:en":"Mei Foo","name:zh":"美孚","public_transport":"stop_position","railway":"stop","ref":"MEF","subway":"yes"}},{"type":"node","id":2543036319,"lat":22.3373649,"lon":114.1484311,"tags":{"name":"荔枝角 Lai Chi Kok","name:en":"Lai Chi Kok","name:zh":"荔枝角","public_transport":"stop_position","railway":"stop","ref":"LCK","subway":"yes"}},{"type":"node","id":2544686360,"lat":22.3305577,"lon":114.1623879,"tags":{"name":"深水埗 Sham Shui Po","name:en":"Sham Shui Po","name:zh":"深水埗","public_transport":"stop_position","railway":"stop","ref":"SSP","subway":"yes"}},{"type":"node","id":2544686394,"lat":22.3354371,"lon":114.1560949,"tags":{"name":"長沙灣 Cheung Sha Wan","name:en":"Cheung Sha Wan","name:zh":"長沙灣","public_transport":"stop_position","railway":"stop","ref":"CSW","subway":"yes"}},{"type":"node","id":2550864623,"lat":22.3244396,"lon":114.1682316,"tags":{"local_ref":"1","name":"太子 Prince Edward","name:en":"Prince Edward","name:ko":"프린스에드워드","name:zh":"太子","public_transport":"stop_position","railway":"stop","ref":"PRE","subway":"yes"}},{"type":"node","id":2550864624,"lat":22.3192384,"lon":114.1693092,"tags":{"name":"旺角 Mong Kok","name:en":"Mong Kok","name:ko":"몽콕","name:zh":"旺角","public_transport":"stop_position","railway":"stop","ref":"MOK","subway":"yes"}},{"type":"node","id":2550870767,"lat":22.3708019,"lon":114.125116,"tags":{"name":"大窩口 Tai Wo Hau","name:en":"Tai Wo Hau","name:zh":"大窩口","public_transport":"stop_position","railway":"stop","ref":"TWH","subway":"yes"}},{"type":"node","id":2550870768,"lat":22.373658,"lon":114.117852,"tags":{"name":"荃灣 Tsuen Wan","name:en":"Tsuen Wan","name:zh":"荃灣","public_transport":"stop_position","railway":"stop","ref":"TSW","subway":"yes"}},{"type":"node","id":2550881705,"lat":22.3130573,"lon":114.1705757,"tags":{"name":"油麻地 Yau Ma Tei","name:en":"Yau Ma Tei","name:ko":"야우마테이","name:zh":"油麻地","public_transport":"stop_position","railway":"stop","ref":"YMT","subway":"yes"}},{"type":"node","id":2554379407,"lat":22.3051088,"lon":114.1717821,"tags":{"name":"佐敦 Jordan","name:en":"Jordan","name:zh":"佐敦","public_transport":"stop_position","railway":"stop","ref":"JOR","subway":"yes"}},{"type":"node","id":2555388098,"lat":22.29718,"lon":114.172169,"tags":{"name":"尖沙咀 Tsim Sha Tsui","name:en":"Tsim Sha Tsui","name:zh":"尖沙咀","public_transport":"stop_position","railway":"stop","ref":"TST","subway":"yes"}},{"type":"node","id":2555388100,"lat":22.2971822,"lon":114.1722971,"tags":{"name":"尖沙咀 Tsim Sha Tsui","name:en":"Tsim Sha Tsui","name:zh":"尖沙咀","public_transport":"stop_position","railway":"stop","ref":"TST","subway":"yes"}},{"type":"node","id":2556657209,"lat":22.2793199,"lon":114.1653381,"tags":{"name":"金鐘 Admiralty","name:en":"Admiralty","name:zh":"金鐘","name:zh-Hans":"金钟","name:zh-Hant":"金鐘","network":"MTR","note":"TWL up","operator":"香港鐵路有限公司 MTR Corporation","public_transport":"stop_position","railway":"stop","ref":"ADM","subway":"yes"}},{"type":"node","id":2556738364,"lat":22.2815012,"lon":114.1593311,"tags":{"name":"中環 Central","name:en":"Central","name:zh":"中環","name:zh-Hans":"中环","name:zh-Hant":"中環","public_transport":"stop_position","railway":"stop","ref":"CEN","subway":"yes"}},{"type":"node","id":2556738383,"lat":22.2793195,"lon":114.1653386,"tags":{"name":"金鐘 Admiralty","name:en":"Admiralty","name:zh":"金鐘","name:zh-Hant":"金鐘","network":"MTR","note":"TWL down","operator":"香港鐵路有限公司 MTR Corporation","public_transport":"stop_position","railway":"stop","ref":"ADM","subway":"yes"}},{"type":"node","id":2557051035,"lat":22.2849181,"lon":114.1583038,"tags":{"name":"香港 Hong Kong","name:en":"Hong Kong","name:zh":"香港","name:zh-Hans":"香港","name:zh-Hant":"香港","public_transport":"stop_position","railway":"stop","ref":"HOK","subway":"yes"}},{"type":"node","id":2557051037,"lat":22.2851469,"lon":114.1584546,"tags":{"name":"香港 Hong Kong","name:en":"Hong Kong","name:zh":"香港","name:zh-Hans":"香港","name:zh-Hant":"香港","public_transport":"stop_position","railway":"stop","ref":"HOK","subway":"yes"}},{"type":"node","id":2557051040,"lat":22.2850161,"lon":114.1583655,"tags":{"name":"香港 Hong Kong","name:en":"Hong Kong","name:zh":"香港","name:zh-Hans":"香港","name:zh-Hant":"香港","network":"MTR","operator":"香港鐵路有限公司 MTR Corporation","public_transport":"stop_position","railway":"stop","ref":"HOK","subway":"yes"}},{"type":"node","id":2561063241,"lat":22.2865033,"lon":114.1521488,"tags":{"name":"上環 Sheung Wan","name:en":"Sheung Wan","name:zh":"上環","public_transport":"stop_position","railway":"stop","ref":"SHW","subway":"yes"}},{"type":"node","id":2561063247,"lat":22.2854233,"lon":114.1427807,"tags":{"name":"西營盤 Sai Ying Pun","name:en":"Sai Ying Pun","name:zh":"西營盤","public_transport":"stop_position","railway":"stop","ref":"SYP","subway":"yes"}},{"type":"node","id":2562413275,"lat":22.3155474,"lon":114.2644008,"tags":{"name":"坑口 Hang Hau","name:en":"Hang Hau","name:zh":"坑口","name:zh-Hans":"坑口","name:zh-Hant":"坑口","network":"MTR","operator":"香港鐵路有限公司 MTR Corporation","public_transport":"stop_position","railway":"stop","ref":"HAH","subway":"yes"}},{"type":"node","id":2562413325,"lat":22.3155139,"lon":114.2643406,"tags":{"name":"坑口 Hang Hau","name:en":"Hang Hau","name:zh":"坑口","name:zh-Hans":"坑口","name:zh-Hant":"坑口","network":"MTR","operator":"香港鐵路有限公司 MTR Corporation","public_transport":"stop_position","railway":"stop","ref":"HAH","subway":"yes"}},{"type":"node","id":2564544830,"lat":22.2801023,"lon":114.1840143,"tags":{"name":"銅鑼灣 Causeway Bay","name:en":"Causeway Bay","name:zh":"銅鑼灣","note":"ISL down","public_transport":"stop_position","railway":"stop","ref":"CAB","subway":"yes"}},{"type":"node","id":2564544838,"lat":22.2912496,"lon":114.2003761,"tags":{"name":"北角 North Point","name:en":"North Point","name:zh":"北角","note":"ISL up","public_transport":"stop_position","railway":"stop","ref":"NOP","subway":"yes"}},{"type":"node","id":2564544849,"lat":22.2792542,"lon":114.2288532,"tags":{"name":"筲箕灣 Shau Kei Wan","name:en":"Shau Kei Wan","name:zh":"筲箕灣","public_transport":"stop_position","railway":"stop","ref":"SKW","subway":"yes"}},{"type":"node","id":2564544862,"lat":22.2816257,"lon":114.2222814,"tags":{"name":"西灣河 Sai Wan Ho","name:en":"Sai Wan Ho","name:zh":"西灣河","name:zh-Hans":"西湾河","name:zh-Hant":"西灣河","public_transport":"stop_position","railway":"stop","ref":"SWH","subway":"yes"}},{"type":"node","id":2564544875,"lat":22.281824,"lon":114.1578631,"tags":{"name":"中環 Central","name:en":"Central","name:zh":"中環","note":"ISL down","public_transport":"stop_position","railway":"stop","ref":"CEN","subway":"yes"}},{"type":"node","id":2564544949,"lat":22.2847063,"lon":114.2161444,"tags":{"name":"太古 Tai Koo","name:en":"Tai Koo","name:zh":"太古","name:zh-Hans":"太古","name:zh-Hant":"太古","public_transport":"stop_position","railway":"stop","ref":"TAK","subway":"yes"}},{"type":"node","id":2564544993,"lat":22.2775557,"lon":114.1729643,"tags":{"name":"灣仔 Wan Chai","name:en":"Wan Chai","name:zh":"灣仔","note":"ISL down","public_transport":"stop_position","railway":"stop","ref":"WAC","subway":"yes"}},{"type":"node","id":2564545056,"lat":22.281824,"lon":114.1578631,"tags":{"name":"中環 Central","name:en":"Central","name:zh":"中環","note":"ISL up","public_transport":"stop_position","railway":"stop","ref":"CEN","subway":"yes"}},{"type":"node","id":2564545093,"lat":22.2821959,"lon":114.1920333,"tags":{"name":"天后 Tin Hau","name:en":"Tin Hau","name:zh":"天后","note":"ISL up","public_transport":"stop_position","railway":"stop","ref":"TIH","subway":"yes"}},{"type":"node","id":2564545101,"lat":22.2790893,"lon":114.1653075,"tags":{"name":"金鐘 Admiralty","name:en":"Admiralty","name:zh":"金鐘","network":"MTR","note":"ISL up","operator":"香港鐵路有限公司 MTR Corporation","public_transport":"stop_position","railway":"stop","ref":"ADM","subway":"yes"}},{"type":"node","id":2564545111,"lat":22.2790894,"lon":114.1653076,"tags":{"name":"金鐘 Admiralty","name:en":"Admiralty","name:zh":"金鐘","name:zh-Hans":"金钟","name:zh-Hant":"金鐘","network":"MTR","note":"ISL down","operator":"香港鐵路有限公司 MTR Corporation","public_transport":"stop_position","railway":"stop","ref":"ADM","subway":"yes"}},{"type":"node","id":2564545121,"lat":22.2877968,"lon":114.2093516,"tags":{"name":"鰂魚涌 Quarry Bay","name:en":"Quarry Bay","name:zh":"鰂魚涌","name:zh-Hans":"鲗鱼涌","name:zh-Hant":"鰂魚涌","public_transport":"stop_position","railway":"stop","ref":"QUB","subway":"yes"}},{"type":"node","id":2564545127,"lat":22.2875389,"lon":114.1933631,"tags":{"name":"炮台山 Fortress Hill","name:en":"Fortress Hill","name:zh":"炮台山","public_transport":"stop_position","railway":"stop","ref":"FOH","subway":"yes"}},{"type":"node","id":2564545153,"lat":22.2775557,"lon":114.1729643,"tags":{"name":"灣仔 Wan Chai","name:en":"Wan Chai","name:zh":"灣仔","name:zh-Hans":"湾仔","name:zh-Hant":"灣仔","note":"ISL up","public_transport":"stop_position","railway":"stop","ref":"WAC","subway":"yes"}},{"type":"node","id":2564545163,"lat":22.2865578,"lon":114.1521622,"tags":{"name":"上環 Sheung Wan","name:en":"Sheung Wan","name:zh":"上環","public_transport":"stop_position","railway":"stop","ref":"SHW","subway":"yes"}},{"type":"node","id":2564639695,"lat":22.2875065,"lon":114.1934716,"tags":{"name":"炮台山 Fortress Hill","name:en":"Fortress Hill","name:zh":"炮台山","public_transport":"stop_position","railway":"stop","ref":"FOH","subway":"yes"}},{"type":"node","id":2567717542,"lat":22.264545,"lon":114.2371756,"tags":{"loc_ref":"1","name":"柴灣 Chai Wan","name:en":"Chai Wan","name:zh":"柴灣","public_transport":"stop_position","railway":"stop","ref":"CHW","subway":"yes"}},{"type":"node","id":2567717556,"lat":22.2766653,"lon":114.2397867,"tags":{"name":"杏花邨 Heng Fa Chuen","name:en":"Heng Fa Chuen","name:zh":"杏花邨","public_transport":"stop_position","railway":"stop","ref":"HFC","subway":"yes"}},{"type":"node","id":2569844130,"lat":22.284241,"lon":114.1370765,"tags":{"name":"香港大學 HKU","name:en":"HKU","name:zh":"香港大學","public_transport":"stop_position","railway":"stop","ref":"HKU","subway":"yes"}},{"type":"node","id":2569844151,"lat":22.2812637,"lon":114.1284421,"tags":{"name":"堅尼地城 Kennedy Town","name:en":"Kennedy Town","name:zh":"堅尼地城","name:zh-Hans":"坚尼地城","name:zh-Hant":"堅尼地城","public_transport":"stop_position","railway":"stop","ref":"KET","subway":"yes"}},{"type":"node","id":2569844158,"lat":22.2855449,"lon":114.1426865,"tags":{"name":"西營盤 Sai Ying Pun","name:en":"Sai Ying Pun","name:zh":"西營盤","public_transport":"stop_position","railway":"stop","ref":"SYP","subway":"yes"}},{"type":"node","id":2600839185,"lat":22.290314,"lon":114.2006096,"tags":{"name":"北角 North Point","name:en":"North Point","name:zh":"北角","name:zh-Hans":"北角","name:zh-Hant":"北角","public_transport":"stop_position","railway":"stop","ref":"NOP","subway":"yes"}},{"type":"node","id":2600841716,"lat":22.288293,"lon":114.2093931,"tags":{"name":"鰂魚涌 Quarry Bay","name:en":"Quarry Bay","name:zh":"鰂魚涌","name:zh-Hans":"鲗鱼涌","name:zh-Hant":"鰂魚涌","public_transport":"stop_position","railway":"stop","ref":"QUB","subway":"yes"}},{"type":"node","id":2600841717,"lat":22.2879805,"lon":114.2077906,"tags":{"name":"鰂魚涌 Quarry Bay","name:en":"Quarry Bay","name:zh":"鰂魚涌","name:zh-Hans":"鲗鱼涌","name:zh-Hant":"鰂魚涌","public_transport":"stop_position","railway":"stop","ref":"QUB","subway":"yes"}},{"type":"node","id":2600847825,"lat":22.2977852,"lon":114.2370732,"tags":{"name":"油塘 Yau Tong","name:en":"Yau Tong","name:zh":"油塘","name:zh-Hans":"油塘","name:zh-Hant":"油塘","public_transport":"stop_position","railway":"stop","ref":"YAT","subway":"yes"}},{"type":"node","id":2674335288,"lat":22.323379,"lon":114.2140058,"tags":{"name":"九龍灣 Kowloon Bay","name:en":"Kowloon Bay","name:zh":"九龍灣","operator":"香港鐵路有限公司 MTR Corporation","public_transport":"stop_position","railway":"stop","ref":"KOB","subway":"yes"}},{"type":"node","id":2674335289,"lat":22.3121569,"lon":114.2263795,"tags":{"name":"觀塘 Kwun Tong","name:en":"Kwun Tong","name:zh":"觀塘","operator":"香港鐵路有限公司 MTR Corporation","public_transport":"stop_position","railway":"stop","ref":"KWT","subway":"yes"}},{"type":"node","id":2674335290,"lat":22.3153219,"lon":114.2191447,"tags":{"name":"牛頭角 Ngau Tau Kok","name:en":"Ngau Tau Kok","name:zh":"牛頭角","operator":"香港鐵路有限公司 MTR Corporation","public_transport":"stop_position","railway":"stop","ref":"NTK","subway":"yes"}},{"type":"node","id":2674392727,"lat":22.3066758,"lon":114.2328977,"tags":{"name":"藍田 Lam Tin","name:en":"Lam Tin","name:zh":"藍田","operator":"香港鐵路有限公司 MTR Corporation","public_transport":"stop_position","railway":"stop","ref":"LAT","subway":"yes"}},{"type":"node","id":2674392732,"lat":22.3067536,"lon":114.2330154,"tags":{"name":"藍田 Lam Tin","name:en":"Lam Tin","name:zh":"藍田","operator":"香港鐵路有限公司 MTR Corporation","public_transport":"stop_position","railway":"stop","ref":"LAT","subway":"yes"}},{"type":"node","id":2674392736,"lat":22.2978558,"lon":114.2372388,"tags":{"name":"油塘 Yau Tong","name:en":"Yau Tong","name:zh":"油塘","name:zh-Hans":"油塘","name:zh-Hant":"油塘","operator":"香港鐵路有限公司 MTR Corporation","public_transport":"stop_position","railway":"stop","ref":"YAT","subway":"yes"}},{"type":"node","id":3303947368,"lat":22.2821958,"lon":114.1920333,"tags":{"name":"天后 Tin Hau","name:en":"Tin Hau","name:zh":"天后","note":"ISL down","public_transport":"stop_position","railway":"stop","ref":"TIH","subway":"yes"}},{"type":"node","id":3304026514,"lat":22.3219972,"lon":113.9422192,"tags":{"name":"博覽館 AsiaWorld-Expo","name:en":"AsiaWorld-Expo","name:zh":"博覽館","name:zh-Hans":"博览馆","name:zh-Hant":"博覽館","network":"MTR","operator":"香港鐵路有限公司 MTR Corporation","public_transport":"stop_position","railway":"stop","subway":"yes"}},{"type":"node","id":3778450149,"lat":22.2479464,"lon":114.1674908,"tags":{"name":"黃竹坑 Wong Chuk Hang","name:en":"Wong Chuk Hang","name:zh":"黃竹坑","public_transport":"stop_position","railway":"stop","ref":"WCH","subway":"yes"}},{"type":"node","id":3943626057,"lat":22.2784725,"lon":114.1659493,"tags":{"loc_ref":"6","name":"金鐘 Admiralty","name:en":"Admiralty","name:zh":"金鐘","name:zh-Hans":"金钟","name:zh-Hant":"金鐘","public_transport":"stop_position","railway":"stop","ref":"ADM","subway":"yes"}},{"type":"node","id":3943626058,"lat":22.2419551,"lon":114.1560169,"tags":{"name":"利東 Lei Tung","name:en":"Lei Tung","name:zh":"利東","public_transport":"stop_position","railway":"stop","ref":"LET","subway":"yes"}},{"type":"node","id":3943626059,"lat":22.2486937,"lon":114.1743534,"tags":{"name":"海洋公園 Ocean Park","name:en":"Ocean Park","name:zh":"海洋公園","public_transport":"stop_position","railway":"stop","ref":"OCP","subway":"yes"}},{"type":"node","id":3943626060,"lat":22.2423467,"lon":114.149089,"tags":{"name":"海怡半島 South Horizons","name:en":"South Horizons","name:zh":"海怡半島","public_transport":"stop_position","railway":"stop","ref":"SOH","subway":"yes"}},{"type":"node","id":3943626061,"lat":22.2424128,"lon":114.1491929,"tags":{"name":"海怡半島 South Horizons","name:en":"South Horizons","name:zh":"海怡半島","public_transport":"stop_position","railway":"stop","ref":"SOH","subway":"yes"}},{"type":"node","id":4087334644,"lat":22.3768367,"lon":114.194839,"tags":{"name":"沙田圍 Sha Tin Wai","name:en":"Sha Tin Wai","name:zh":"沙田圍","network":"MTR","operator":"香港鐵路有限公司 MTR Corporation","public_transport":"stop_position","railway":"stop","ref":"STW","subway":"yes"}},{"type":"node","id":4087914607,"lat":22.4084544,"lon":114.222844,"tags":{"brand":"港鐵 MTR","brand:en":"MTR","brand:zh":"港鐵","loc_ref":"2","name":"大水坑 Tai Shui Hang","name:en":"Tai Shui Hang","name:zh":"大水坑","network":"港鐵 MTR","network:en":"MTR","network:wikidata":"Q14751","network:zh":"港鐵","note:train":"yes","operator":"香港鐵路有限公司 MTR Corporation Limited","operator:en":"MTR Corporation Limited","operator:wikidata":"Q1479375","operator:zh":"香港鐵路有限公司","owner":"九廣鐵路公司 Kowloon-Canton Railway Corporation","owner:en":"Kowloon-Canton Railway Corporation","owner:wikidata":"Q838436","owner:zh":"九廣鐵路公司","ownership":"public","public_transport":"stop_position","railway":"stop","ref":"TSH","subway":"yes"}},{"type":"node","id":4087914608,"lat":22.4085161,"lon":114.2227056,"tags":{"brand":"港鐵 MTR","brand:en":"MTR","brand:zh":"港鐵","loc_ref":"1","name":"大水坑 Tai Shui Hang","name:en":"Tai Shui Hang","name:zh":"大水坑","network":"港鐵 MTR","network:en":"MTR","network:wikidata":"Q14751","network:zh":"港鐵","note:train":"yes","operator":"香港鐵路有限公司 MTR Corporation Limited","operator:en":"MTR Corporation Limited","operator:wikidata":"Q1479375","operator:zh":"香港鐵路有限公司","owner":"九廣鐵路公司 Kowloon-Canton Railway Corporation","owner:en":"Kowloon-Canton Railway Corporation","owner:wikidata":"Q838436","owner:zh":"九廣鐵路公司","ownership":"public","public_transport":"stop_position","railway":"stop","ref":"TSH","subway":"yes"}},{"type":"node","id":4092981296,"lat":22.3831084,"lon":114.2036765,"tags":{"name":"第一城 City One","name:en":"City One","name:zh":"第一城","network":"MTR","operator":"香港鐵路有限公司 MTR Corporation","public_transport":"stop_position","railway":"stop","ref":"CIO","subway":"yes"}},{"type":"node","id":4095567044,"lat":22.4174812,"lon":114.2256631,"tags":{"name":"恆安 Heng On","name:en":"Heng On","name:zh":"恆安","network":"MTR","operator":"香港鐵路有限公司 MTR Corporation","public_transport":"stop_position","railway":"stop","ref":"HEO","subway":"yes"}},{"type":"node","id":4275578360,"lat":22.280102,"lon":114.1840146,"tags":{"name":"銅鑼灣 Causeway Bay","name:en":"Causeway Bay","name:zh":"銅鑼灣","name:zh-Hans":"铜锣湾","name:zh-Hant":"銅鑼灣","note":"ISL up","public_transport":"stop_position","railway":"stop","ref":"CAB","subway":"yes"}},{"type":"node","id":4331887005,"lat":22.3399391,"lon":114.2015739,"tags":{"name":"鑽石山 Diamond Hill","name:en":"Diamond Hill","name:zh":"鑽石山","public_transport":"stop_position","railway":"stop","ref":"DIH","subway":"yes"}},{"type":"node","id":4331887067,"lat":22.3310586,"lon":114.1689174,"tags":{"level":"-3","level:ref":"P","loc_ref":"2","name":"石硤尾 Shek Kip Mei","name:en":"Shek Kip Mei","name:zh":"石硤尾","public_transport":"stop_position","railway":"stop","ref":"SKM","subway":"yes"}},{"type":"node","id":4331931864,"lat":22.3352653,"lon":114.2084856,"tags":{"name":"彩虹 Choi Hung","name:en":"Choi Hung","name:zh":"彩虹","public_transport":"stop_position","railway":"stop","ref":"CHH","subway":"yes"}},{"type":"node","id":4331931865,"lat":22.3367533,"lon":114.1772586,"tags":{"name":"九龍塘 Kowloon Tong","name:en":"Kowloon Tong","name:zh":"九龍塘","public_transport":"stop_position","railway":"stop","ref":"KOT","subway":"yes"}},{"type":"node","id":4331931866,"lat":22.3375039,"lon":114.1859052,"tags":{"name":"樂富 Lok Fu","name:en":"Lok Fu","name:zh":"樂富","public_transport":"stop_position","railway":"stop","ref":"LOF","subway":"yes"}},{"type":"node","id":4331931867,"lat":22.3192647,"lon":114.1694523,"tags":{"name":"旺角 Mong Kok","name:en":"Mong Kok","name:ko":"몽콕","name:zh":"旺角","public_transport":"stop_position","railway":"stop","ref":"MOK","subway":"yes"}},{"type":"node","id":4331931868,"lat":22.3244672,"lon":114.1683664,"tags":{"local_ref":"2","name":"太子 Prince Edward","name:en":"Prince Edward","name:ko":"프린스에드워드","name:zh":"太子","public_transport":"stop_position","railway":"stop","ref":"PRE","subway":"yes"}},{"type":"node","id":4331931870,"lat":22.3040241,"lon":114.2524271,"tags":{"name":"調景嶺 Tiu Keng Leng","name:en":"Tiu Keng Leng","name:zh":"調景嶺","name:zh-Hans":"调景岭","name:zh-Hant":"調景嶺","note":"KTL","public_transport":"stop_position","railway":"stop","subway":"yes"}},{"type":"node","id":4331931871,"lat":22.3416178,"lon":114.1932053,"tags":{"name":"黃大仙 Wong Tai Sin","name:en":"Wong Tai Sin","name:zh":"黃大仙","public_transport":"stop_position","railway":"stop","ref":"WTS","subway":"yes"}},{"type":"node","id":4331931872,"lat":22.3130605,"lon":114.1705921,"tags":{"name":"油麻地 Yau Ma Tei","name:en":"Yau Ma Tei","name:ko":"야우마테이","name:zh":"油麻地","public_transport":"stop_position","railway":"stop","ref":"YMT","subway":"yes"}},{"type":"node","id":4460375639,"lat":22.3092775,"lon":114.1826059,"tags":{"brand":"港鐵 MTR","brand:en":"MTR","brand:zh":"港鐵","loc_ref":"2","name":"何文田 Ho Man Tin","name:en":"Ho Man Tin","name:ko":"호만틴","name:zh":"何文田","network":"港鐵 MTR","network:en":"MTR","network:wikidata":"Q14751","network:zh":"港鐵","operator":"香港鐵路有限公司 MTR Corporation Limited","operator:en":"MTR Corporation Limited","operator:wikidata":"Q1479375","operator:zh":"香港鐵路有限公司","owner":"香港鐵路有限公司 MTR Corporation Limited","owner:en":"MTR Corporation Limited","owner:wikidata":"Q1479375","owner:zh":"香港鐵路有限公司","public_transport":"stop_position","railway":"stop","ref":"HOM","subway":"yes"}},{"type":"node","id":4515155551,"lat":22.281665,"lon":114.1757084,"tags":{"brand":"港鐵 MTR","brand:en":"MTR","brand:ref":"MTR","brand:wikidata":"Q14751","brand:zh":"港鐵","direction:ref":"上行 Up","direction:ref:en":"Up","direction:ref:zh":"上行","loc_ref":"2","name":"會展 Exhibition Centre","name:en":"Exhibition Centre","name:zh":"會展","network":"港鐵 MTR","network:en":"MTR","network:ref":"MTR","network:wikidata":"Q14751","network:zh":"港鐵","note":"NSC up","operator":"香港鐵路有限公司 MTR Corporation Limited","operator:en":"MTR Corporation Limited","operator:wikidata":"Q1479375","operator:zh":"香港鐵路有限公司","owner":"九廣鐵路公司 Kowloon-Canton Railway Corporation","owner:en":"Kowloon-Canton Railway Corporation","owner:wikidata":"Q838436","owner:zh":"九廣鐵路公司","ownership":"public","public_transport":"stop_position","railway":"stop","ref":"EXC","start_date":"2022-05-15","train":"yes"}},{"type":"node","id":4515155552,"lat":22.2816654,"lon":114.1757015,"tags":{"brand":"港鐵 MTR","brand:en":"MTR","brand:ref":"MTR","brand:wikidata":"Q14751","brand:zh":"港鐵","direction:ref":"下行 Down","direction:ref:en":"Down","direction:ref:zh":"下行","loc_ref":"1","name":"會展 Exhibition Centre","name:en":"Exhibition Centre","name:zh":"會展","network":"港鐵 MTR","network:en":"MTR","network:ref":"MTR","network:wikidata":"Q14751","network:zh":"港鐵","operator":"香港鐵路有限公司 MTR Corporation Limited","operator:en":"MTR Corporation Limited","operator:wikidata":"Q1479375","operator:zh":"香港鐵路有限公司","owner":"九廣鐵路公司 Kowloon-Canton Railway Corporation","owner:en":"Kowloon-Canton Railway Corporation","owner:wikidata":"Q838436","owner:zh":"九廣鐵路公司","ownership":"public","public_transport":"stop_position","railway":"stop","ref":"EXC","start_date":"2022-05-15","to":"金鐘 Admiralty","to:en":"Admiralty","to:zh":"金鐘","train":"yes"}},{"type":"node","id":4515155553,"lat":22.3030506,"lon":114.1821933,"tags":{"brand":"港鐵 MTR","brand:en":"MTR","brand:ref":"MTR","brand:wikidata":"Q14751","brand:zh":"港鐵","direction:ref":"上行 Up","direction:ref:en":"Up","direction:ref:zh":"上行","name":"紅磡 Hung Hom","name:en":"Hung Hom","name:zh":"紅磡","network":"港鐵 MTR","network:en":"MTR","network:ref":"MTR","network:wikidata":"Q14751","network:zh":"港鐵","operator":"香港鐵路有限公司 MTR Corporation Limited","operator:en":"MTR Corporation Limited","operator:wikidata":"Q1479375","operator:zh":"香港鐵路有限公司","owner":"九廣鐵路公司 Kowloon-Canton Railway Corporation","owner:en":"Kowloon-Canton Railway Corporation","owner:wikidata":"Q838436","owner:zh":"九廣鐵路公司","ownership":"public","public_transport":"stop_position","railway":"stop","ref":"HUH","start_date":"2022-05-15","to":"羅湖 Lo Wu; 落馬洲 Lok Ma Chau","to:en":"Lo Wu; Lok Ma Chau","to:zh":"羅湖;落馬洲","train":"yes"}},{"type":"node","id":4515155554,"lat":22.3030367,"lon":114.1823725,"tags":{"brand":"港鐵 MTR","brand:en":"MTR","brand:ref":"MTR","brand:wikidata":"Q14751","brand:zh":"港鐵","direction:ref":"上行 Up","direction:ref:en":"Up","direction:ref:zh":"上行","name":"紅磡 Hung Hom","name:en":"Hung Hom","name:zh":"紅磡","network":"港鐵 MTR","network:en":"MTR","network:ref":"MTR","network:wikidata":"Q14751","network:zh":"港鐵","operator":"香港鐵路有限公司 MTR Corporation Limited","operator:en":"MTR Corporation Limited","operator:wikidata":"Q1479375","operator:zh":"香港鐵路有限公司","owner":"九廣鐵路公司 Kowloon-Canton Railway Corporation","owner:en":"Kowloon-Canton Railway Corporation","owner:wikidata":"Q838436","owner:zh":"九廣鐵路公司","ownership":"public","public_transport":"stop_position","railway":"stop","ref":"HUH","start_date":"2022-05-15","to":"金鐘 Admiralty","to:en":"Admiralty","to:zh":"金鐘","train":"yes"}},{"type":"node","id":4784241742,"lat":22.2955114,"lon":114.2687986,"tags":{"name":"康城 LOHAS Park","name:en":"LOHAS Park","name:zh":"康城","name:zh-Hans":"康城","name:zh-Hant":"康城","network":"MTR","operator":"香港鐵路有限公司 MTR Corporation","public_transport":"stop_position","railway":"stop","ref":"LHP","subway":"yes"}},{"type":"node","id":4784241743,"lat":22.2956053,"lon":114.2687081,"tags":{"name":"康城 LOHAS Park","name:en":"LOHAS Park","name:zh":"康城","name:zh-Hans":"康城","name:zh-Hant":"康城","network":"MTR","operator":"香港鐵路有限公司 MTR Corporation","public_transport":"stop_position","railway":"stop","ref":"LHP","subway":"yes"}},{"type":"node","id":4784243684,"lat":22.3073157,"lon":114.2599962,"tags":{"name":"將軍澳 Tseung Kwan O","name:en":"Tseung Kwan O","name:zh":"將軍澳","network":"MTR","operator":"香港鐵路有限公司 MTR Corporation","public_transport":"stop_position","railway":"stop","ref":"TKO","subway":"yes"}},{"type":"node","id":9739308596,"lat":22.2785137,"lon":114.1658331,"tags":{"brand":"港鐵 MTR","brand:en":"MTR","brand:ref":"MTR","brand:zh":"港鐵","loc_ref":"7","name":"金鐘 Admiralty","name:en":"Admiralty","name:zh":"金鐘","name:zh-Hans":"金钟","name:zh-Hant":"金鐘","network":"港鐵 MTR","network:en":"MTR","network:ref":"MTR","network:wikidata":"Q14751","network:zh":"港鐵","operator":"香港鐵路有限公司 MTR Corporation Limited","operator:en":"MTR Corporation Limited","operator:wikidata":"Q1479375","operator:zh":"香港鐵路有限公司","owner":"九廣鐵路公司 Kowloon-Canton Railway Corporation","owner:en":"Kowloon-Canton Railway Corporation","owner:wikidata":"Q838436","owner:zh":"九廣鐵路公司","public_transport":"stop_position","railway":"stop","ref":"ADM","train":"yes"}},{"type":"node","id":9739308597,"lat":22.2785107,"lon":114.1663834,"tags":{"brand":"港鐵 MTR","brand:en":"MTR","brand:ref":"MTR","brand:zh":"港鐵","loc_ref":"8","name":"金鐘 Admiralty","name:en":"Admiralty","name:zh":"金鐘","name:zh-Hans":"金钟","name:zh-Hant":"金鐘","network":"港鐵 MTR","network:en":"MTR","network:ref":"MTR","network:wikidata":"Q14751","network:zh":"港鐵","operator":"香港鐵路有限公司 MTR Corporation Limited","operator:en":"MTR Corporation Limited","operator:wikidata":"Q1479375","operator:zh":"香港鐵路有限公司","owner":"九廣鐵路公司 Kowloon-Canton Railway Corporation","owner:en":"Kowloon-Canton Railway Corporation","owner:wikidata":"Q838436","owner:zh":"九廣鐵路公司","public_transport":"stop_position","railway":"stop","ref":"ADM","train":"yes"}}]}