{"elements":[{"type":"node","id":532205210,"lat":39.012299,"lon":125.7443751,"tags":{"name":"봉화","name:en":"Ponghwa","name:fr":"Ponghwa","name:ja":"烽火","name:ko":"봉화","name:pl":"Ponghwa","name:ru":"Понхва","name:vi":"Phong Hoả","name:zh":"烽火","official_name":"봉화역","official_name:ja":"烽火駅","official_name:zh":"烽火站","operator":"평양지하철도관리국","operator:en":"Pyongyang Metro Administration Bureau","operator:zh":"平壤地铁管理局","public_transport":"stop_position","railway":"stop","subway":"yes"}},{"type":"node","id":532205253,"lat":39.009746,"lon":125.731916,"tags":{"name":"영광","name:en":"Yŏnggwang","name:fr":"Yŏnggwang","name:ja":"栄光","name:ko":"영광","name:pl":"Yonggwang","name:ru":"Ёнгван","name:vi":"Dương Quang","name:zh":"荣光","network":"평양 지하철도","official_name":"영광역","official_name:ja":"栄光駅","official_name:zh":"荣光站","operator":"평양지하철도관리국","operator:en":"Pyongyang Metro Administration Bureau","operator:zh":"平壤地铁管理局","public_transport":"stop_position","railway":"stop","subway":"yes"}},{"type":"node","id":674317482,"lat":39.0364976,"lon":125.700204,"tags":{"name":"광복","name:en":"Kwangbok","name:ko":"광복","public_transport":"stop_position","railway":"stop","subway":"yes"}},{"type":"node","id":674317508,"lat":39.034168,"lon":125.7331637,"tags":{"name":"건설","name:en":"Kŏnsŏl","name:fr":"Kŏnsŏl","name:ja":"建設","name:ko":"건설","name:ru":"Консоль","name:vi":"Kiến Thiết","name:zh":"建设","public_transport":"stop_position","railway":"stop","subway":"yes"}},{"type":"node","id":674317511,"lat":39.022788,"lon":125.7523184,"tags":{"name":"승리","name:en":"Sŭngri","name:fr":"Sŭngri","name:ja":"勝利","name:ko":"승리","name:pl":"Sungri","name:ru":"Сынни","name:vi":"Thắng Lợi","name:zh":"胜利","official_name":"승리역","official_name:ja":"勝利駅","official_name:zh":"胜利站","operator":"평양지하철도관리국","operator:en":"Pyongyang Metro Administration Bureau","operator:zh":"平壤地铁管理局","platforms":"2","public_transport":"stop_position","railway":"stop","subway":"yes"}},{"type":"node","id":674317534,"lat":39.0320027,"lon":125.7564257,"tags":{"name":"모란봉","name:en":"Moranbong","name:ja":"牡丹峰","name:ko":"모란봉","name:ko-Hani":"牡丹峰","name:vi":"Đồi Moran","name:zh":"牡丹峰","old_name:-2024":"통일","old_name:2024":"역","old_name:en:-2024":"Thŏngil","old_name:en:2024":"Yŏk","old_name:fr:-2024":"Thongil","old_name:fr:2024":"Yok","old_name:ja:-2024":"統一","old_name:ja:2024":"駅","old_name:ko-Hani:-2024":"統一","old_name:ko:-2024":"통일","old_name:ko:2024":"역","old_name:pl:-2024":"T'ongil","old_name:pl:2024":"Yok","old_name:ru:-2024":"Тхонъиль","old_name:ru:2024":"Тхонъиль","old_name:vi:-2024":"Thống Nhất","old_name:vi:2024":"Thống Nhất","old_name:zh:-2024":"统一","old_name:zh:2024":"站","operator":"평양지하철도관리국","operator:en":"Pyongyang Metro Administration Bureau","operator:zh":"平壤地铁管理局","platforms":"2","public_transport":"stop_position","railway":"stop","subway":"yes"}},{"type":"node","id":674317555,"lat":39.0431956,"lon":125.7539892,"tags":{"name":"개선","name:en":"Kaesŏn","name:fr":"Kaesŏn","name:hu":"Keszon","name:ja":"凱旋","name:ko":"개선","name:pl":"Kaeson","name:ru":"Кэсон","name:vi":"Khải Toàn","name:zh":"凯旋","official_name":"개선역","official_name:ja":"凱旋駅","official_name:zh":"凯旋站","operator":"평양지하철도관리국","operator:en":"Pyongyang Metro Administration Bureau","operator:zh":"平壤地铁管理局","public_transport":"stop_position","railway":"stop","subway":"yes"}},{"type":"node","id":674317556,"lat":39.0487886,"lon":125.7401742,"tags":{"name":"혁신","name:en":"Hyŏksin","name:fr":"Hyŏksin","name:ko":"혁신","name:ru":"Хёксин","name:vi":"Cách Tân","name:zh":"革新","public_transport":"stop_position","railway":"stop","subway":"yes"}},{"type":"node","id":674317565,"lat":39.057516,"lon":125.7529282,"tags":{"name":"전우","name:en":"Chonu","name:fr":"Chŏnu","name:hu":"Csonu","name:ja":"戦友","name:ko":"전우","name:ko-Hani":"戰友","name:pl":"Chonsu","name:ru":"Чону","name:vi":"Chiến Hữu","name:zh":"战友","official_name":"전우역","official_name:en":"Chonu Station","official_name:ja":"戦友駅","official_name:ko-Hani":"戰友驛","official_name:zh":"战友站","operator":"평양지하철도관리국","operator:en":"Pyongyang Metro Administration Bureau","operator:zh":"平壤地铁管理局","public_transport":"stop_position","railway":"stop","subway":"yes"}},{"type":"node","id":674317568,"lat":39.0583169,"lon":125.7562256,"tags":{"name":"전승","name:en":"Chonsung","name:fr":"Chŏnsŭng","name:ko":"전승","name:ko-Hani":"戰友驛","name:pl":"Chonsung","name:ru":"Чонсын","name:vi":"Chiến Thắng","name:zh":"战胜","public_transport":"stop_position","railway":"stop","subway":"yes"}},{"type":"node","id":674317570,"lat":39.066629,"lon":125.7564714,"tags":{"name":"붉은별","name:en":"Pulgunbyol","name:fr":"Pulgŭnbyŏl","name:hu":"Pulgunbjol","name:ja":"赤い星","name:ko":"붉은별","name:pl":"Pulgunbyol","name:ru":"Пульгынбёль","name:vi":"Sao Đỏ","name:zh":"红星","official_name":"붉은별역","official_name:ja":"赤い星駅","official_name:zh":"红星站","operator":"평양지하철도관리국","operator:en":"Pyongyang Metro Administration Bureau","operator:zh":"平壤地铁管理局","public_transport":"stop_position","railway":"stop","subway":"yes"}},{"type":"node","id":674317579,"lat":39.0630212,"lon":125.7681759,"tags":{"name":"삼흥","name:en":"Samhung","name:fr":"Samhŭng","name:ko":"삼흥","name:ru":"Самхын","name:vi":"Tam Hưng","name:zh":"三兴","public_transport":"stop_position","railway":"stop","subway":"yes"}},{"type":"node","id":674317602,"lat":39.0715441,"lon":125.8164764,"tags":{"name":"락원","name:en":"Rakwon","name:fr":"Ragwŏn","name:ko":"락원","name:ru":"Наквон","name:vi":"Lạc Viên","name:zh":"乐园","public_transport":"stop_position","railway":"stop","subway":"yes"}},{"type":"node","id":2284981413,"lat":39.0291893,"lon":125.7263805,"tags":{"name":"황금벌","name:en":"Hwanggŭmbŏl","public_transport":"stop_position","railway":"stop","subway":"yes"}},{"type":"node","id":7038058948,"lat":39.0332304,"lon":125.7093876,"tags":{"name":"건국","name:en":"Konguk","name:fr":"Kŏn'guk","name:ja":"建国","name:ko":"건국","name:ru":"Конгук","name:vi":"Kiến Quốc","name:zh":"建国","public_transport":"stop_position","railway":"stop","subway":"yes"}},{"type":"node","id":9291917646,"lat":39.0095517,"lon":125.7326714,"tags":{"name":"영광","name:en":"Yŏnggwang","name:fr":"Yŏnggwang","name:ja":"栄光","name:ko":"영광","name:pl":"Yonggwang","name:ru":"Ёнгван","name:vi":"Dương Quang","name:zh":"荣光","network":"평양 지하철도","official_name":"영광역","official_name:ja":"栄光駅","official_name:zh":"荣光站","operator":"평양지하철도관리국","operator:en":"Pyongyang Metro Administration Bureau","operator:zh":"平壤地铁管理局","public_transport":"stop_position","railway":"stop","subway":"yes"}},{"type":"node","id":9291917648,"lat":39.0086576,"lon":125.717338,"tags":{"name":"부흥역","network":"Pyongyang Metro","operator":"Pyongyang Metro","public_transport":"stop_position","railway":"stop","subway":"yes"}},{"type":"node","id":9291917649,"lat":39.0084081,"lon":125.718152,"tags":{"name":"부흥역","name:en":"Buheung Station","name:ko":"부흥역","network":"Pyongyang Metro","operator":"Pyongyang Metro","public_transport":"stop_position","railway":"stop","subway":"yes"}},{"type":"node","id":9291949484,"lat":39.0287137,"lon":125.7254991,"tags":{"name":"황금벌","name:en":"Hwanggŭmbŏl","public_transport":"stop_position","railway":"stop","subway":"yes"}},{"type":"node","id":9291949504,"lat":39.0336602,"lon":125.7087605,"tags":{"name":"건국","name:en":"Konguk","name:fr":"Kŏn'guk","name:ja":"建国","name:ko":"건국","name:ru":"Конгук","name:vi":"Kiến Quốc","name:zh":"建国","public_transport":"stop_position","railway":"stop","subway":"yes"}},{"type":"node","id":10016610570,"lat":39.0716449,"lon":125.8164622,"tags":{"name":"락원","name:en":"Rakwon","name:fr":"Ragwŏn","name:ko":"락원","name:ru":"Наквон","name:vi":"Lạc Viên","name:zh":"乐园","public_transport":"stop_position","railway":"stop","subway":"yes"}},{"type":"node","id":10016625895,"lat":39.0332078,"lon":125.7563656,"tags":{"name":"모란봉","name:en":"Moranbong","name:ja":"牡丹峰","name:ko":"모란봉","name:ko-Hani":"牡丹峰","name:vi":"Đồi Moran","name:zh":"牡丹峰","old_name:-2024":"통일","old_name:2024":"역","old_name:en:-2024":"Thŏngil","old_name:en:2024":"Yŏk","old_name:fr:-2024":"Thongil","old_name:fr:2024":"Yok","old_name:ja:-2024":"統一","old_name:ja:2024":"駅","old_name:ko-Hani:-2024":"統一","old_name:ko:-2024":"통일","old_name:ko:2024":"역","old_name:pl:-2024":"T'ongil","old_name:pl:2024":"Yok","old_name:ru:-2024":"Тхонъиль","old_name:ru:2024":"Тхонъиль","old_name:vi:-2024":"Thống Nhất","old_name:vi:2024":"Thống Nhất","old_name:zh:-2024":"统一","old_name:zh:2024":"站","operator":"평양지하철도관리국","operator:en":"Pyongyang Metro Administration Bureau","operator:zh":"平壤地铁管理局","platforms":"2","public_transport":"stop_position","railway":"stop","subway":"yes"}},{"type":"node","id":10016625899,"lat":39.0413447,"lon":125.7538617,"tags":{"name":"개선","name:en":"Kaesŏn","name:fr":"Kaesŏn","name:hu":"Keszon","name:ja":"凱旋","name:ko":"개선","name:pl":"Kaeson","name:ru":"Кэсон","name:vi":"Khải Toàn","name:zh":"凯旋","official_name":"개선역","official_name:ja":"凱旋駅","official_name:zh":"凯旋站","operator":"평양지하철도관리국","operator:en":"Pyongyang Metro Administration Bureau","operator:zh":"平壤地铁管理局","public_transport":"stop_position","railway":"stop","subway":"yes"}},{"type":"node","id":10016625906,"lat":39.0365696,"lon":125.7002101,"tags":{"name":"광복","name:en":"Kwangbok","name:ko":"광복","public_transport":"stop_position","railway":"stop","subway":"yes"}},{"type":"node","id":10018623116,"lat":39.0578738,"lon":125.7534422,"tags":{"name":"전승","name:en":"Chonsung","name:fr":"Chŏnsŭng","name:ko":"전승","name:ko-Hani":"戰友驛","name:pl":"Chonsung","name:ru":"Чонсын","name:vi":"Chiến Thắng","name:zh":"战胜","public_transport":"stop_position","railway":"stop","subway":"yes"}},{"type":"node","id":10018656832,"lat":39.0131043,"lon":125.7454647,"tags":{"name":"봉화","name:en":"Ponghwa","name:fr":"Ponghwa","name:ja":"烽火","name:ko":"봉화","name:pl":"Ponghwa","name:ru":"Понхва","name:vi":"Phong Hoả","name:zh":"烽火","official_name":"봉화역","official_name:ja":"烽火駅","official_name:zh":"烽火站","operator":"평양지하철도관리국","operator:en":"Pyongyang Metro Administration Bureau","operator:zh":"平壤地铁管理局","public_transport":"stop_position","railway":"stop","subway":"yes"}},{"type":"node","id":10018656833,"lat":39.0218631,"lon":125.7519621,"tags":{"name":"승리","name:en":"Sŭngri","name:fr":"Sŭngri","name:ja":"勝利","name:ko":"승리","name:pl":"Sungri","name:ru":"Сынни","name:vi":"Thắng Lợi","name:zh":"胜利","official_name":"승리역","official_name:ja":"勝利駅","official_name:zh":"胜利站","operator":"평양지하철도관리국","operator:en":"Pyongyang Metro Administration Bureau","operator:zh":"平壤地铁管理局","platforms":"2","public_transport":"stop_position","railway":"stop","subway":"yes"}},{"type":"node","id":10018656834,"lat":39.0560583,"lon":125.7529131,"tags":{"name":"전우","name:en":"Chonu","name:fr":"Chŏnu","name:hu":"Csonu","name:ja":"戦友","name:ko":"전우","name:ko-Hani":"戰友","name:pl":"Chonsu","name:ru":"Чону","name:vi":"Chiến Hữu","name:zh":"战友","official_name":"전우역","official_name:en":"Chonu Station","official_name:ja":"戦友駅","official_name:ko-Hani":"戰友驛","official_name:zh":"战友站","operator":"평양지하철도관리국","operator:en":"Pyongyang Metro Administration Bureau","operator:zh":"平壤地铁管理局","public_transport":"stop_position","railway":"stop","subway":"yes"}},{"type":"node","id":10018656835,"lat":39.0647383,"lon":125.7554982,"tags":{"name":"붉은별","name:en":"Pulgunbyol","name:fr":"Pulgŭnbyŏl","name:hu":"Pulgunbjol","name:ja":"赤い星","name:ko":"붉은별","name:pl":"Pulgunbyol","name:ru":"Пульгынбёль","name:vi":"Sao Đỏ","name:zh":"红星","official_name":"붉은별역","official_name:ja":"赤い星駅","official_name:zh":"红星站","operator":"평양지하철도관리국","operator:en":"Pyongyang Metro Administration Bureau","operator:zh":"平壤地铁管理局","public_transport":"stop_position","railway":"stop","subway":"yes"}},{"type":"node","id":10018671317,"lat":39.0623823,"lon":125.7664017,"tags":{"name":"삼흥","name:en":"Samhung","name:fr":"Samhŭng","name:ko":"삼흥","name:ru":"Самхын","name:vi":"Tam Hưng","name:zh":"三兴","public_transport":"stop_position","railway":"stop","subway":"yes"}},{"type":"node","id":10018671320,"lat":39.0471464,"lon":125.7387785,"tags":{"name":"혁신","name:en":"Hyŏksin","name:fr":"Hyŏksin","name:ko":"혁신","name:ru":"Хёксин","name:vi":"Cách Tân","name:zh":"革新","public_transport":"stop_position","railway":"stop","subway":"yes"}},{"type":"node","id":10018671321,"lat":39.033503,"lon":125.7322688,"tags":{"name":"건설","name:en":"Kŏnsŏl","name:fr":"Kŏnsŏl","name:ja":"建設","name:ko":"건설","name:ru":"Консоль","name:vi":"Kiến Thiết","name:zh":"建设","public_transport":"stop_position","railway":"stop","subway":"yes"}}]}