{"elements":[{"type":"node","id":359799583,"lat":34.7931201,"lon":135.497377,"tags":{"int_name":"Momoyamadai","name":"桃山台","name:en":"Momoyamadai","name:ja":"桃山台","name:ja-Latn":"Momoyamadai","name:ko":"모모야마다이","public_transport":"stop_position","railway":"stop","ref":"M09","subway":"yes","wheelchair":"yes","wikidata":"Q59341","wikipedia":"ja:桃山台駅"}},{"type":"node","id":359799758,"lat":34.7754202,"lon":135.4954007,"tags":{"designation":"M10","int_name":"Ryokuchi-kōen","name":"緑地公園","name:en":"Ryokuchi-kōen","name:ja":"緑地公園","name:ja_rm":"Ryokuchi-kōen","name:ko":"료쿠치코엔","public_transport":"stop_position","railway":"stop","subway":"yes","wheelchair":"yes","wikidata":"Q59455","wikipedia":"ja:緑地公園駅"}},{"type":"node","id":534121583,"lat":34.5563183,"lon":135.5062171,"tags":{"int_name":"Nakamozu","local_ref":"2","name":"なかもず","name:en":"Nakamozu","name:ja":"中百舌鳥","name:ja-Latn":"Nakamozu","name:ko":"나카모즈","operator":"大阪市高速電気軌道","operator:en":"Osaka Metro","public_transport":"stop_position","railway":"stop","ref":"M30","subway":"yes"}},{"type":"node","id":534122750,"lat":34.5990799,"lon":135.5127578,"tags":{"int_name":"Abiko","local_ref":"2","name":"あびこ","name:en":"Abiko","name:ja":"あびこ","name:ja-Latn":"Abiko","name:ko":"아비코","network":"御堂筋線","operator":"大阪市高速電気軌道","operator:en":"Osaka Metro","public_transport":"stop_position","railway":"stop","ref":"M27","subway":"yes"}},{"type":"node","id":534123171,"lat":34.7266367,"lon":135.4986182,"tags":{"int_name":"Nishinakajima-Minamigata","local_ref":"1","name":"西中島南方","name:en":"Nishinakajima-Minamigata","name:ja":"西中島南方","name:ja-Latn":"Nishinakajima Minamigata","name:ko":"니시나카지마미나미가타","operator":"大阪市高速電気軌道","operator:en":"Osaka Metro","platforms":"2","public_transport":"stop_position","railway":"stop","ref":"M14","source":"KSJ2","subway":"yes","wheelchair":"yes","wikidata":"Q1136738","wikipedia":"ja:西中島南方駅"}},{"type":"node","id":534123237,"lat":34.7411464,"lon":135.4985642,"tags":{"local_ref":"1","name":"東三国","name:en":"Higashi-Mikuni","name:ja":"東三国","name:ja-Latn":"Higashi-Mikuni","name:ko":"히가시미쿠니","public_transport":"stop_position","railway":"stop","ref":"M12","source":"KSJ2","subway":"yes","wikidata":"Q1136561","wikipedia":"ja:東三国駅"}},{"type":"node","id":534130395,"lat":34.5822808,"lon":135.5163859,"tags":{"int_name":"Kitahanada","local_ref":"2","name":"北花田","name:en":"Kita-Hanada","name:ja":"北花田","name:ja-Latn":"Kita Hanada","name:ko":"기타하나다","operator":"大阪市高速電気軌道","operator:en":"Osaka Metro","public_transport":"stop_position","railway":"stop","ref":"M28","source:geometry":"GSImaps/std;survey;GSImaps/ort","subway":"yes"}},{"type":"node","id":534130655,"lat":34.5684912,"lon":135.5153348,"tags":{"int_name":"Shinkanaoka","local_ref":"2","name":"新金岡","name:en":"Shin-Kanaoka","name:ja":"新金岡","name:ja-Latn":"Shin-Kanaoka","name:ko":"신카나오카","operator":"大阪市高速電気軌道","operator:en":"Osaka Metro","public_transport":"stop_position","railway":"stop","ref":"M29","source:geometry":"GSImaps/std;survey;GSImaps/ort","subway":"yes"}},{"type":"node","id":534131313,"lat":34.6215571,"lon":135.5151276,"tags":{"int_name":"Nishitanabe","local_ref":"2","name":"西田辺","name:en":"Nishi-Tanabe","name:ja":"西田辺","name:ja-Latn":"Nishi-Tanabe","name:ko":"니시타나베","operator":"大阪市高速電気軌道","operator:en":"Osaka Metro","public_transport":"stop_position","railway":"stop","ref":"M25","subway":"yes"}},{"type":"node","id":534131683,"lat":34.6090185,"lon":135.5136618,"tags":{"int_name":"Nagai","local_ref":"2","name":"長居","name:en":"Nagai","name:ja":"長居","name:ja-Hira":"ながい","name:ja-Latn":"Nagai","name:ko":"나가이","operator":"大阪市高速電気軌道","operator:en":"Osaka Metro","public_transport":"stop_position","railway":"stop","ref":"M26","subway":"yes"}},{"type":"node","id":534132242,"lat":34.6331295,"lon":135.5168954,"tags":{"int_name":"Shōwachō","local_ref":"2","name":"昭和町","name:en":"Showacho","name:ja":"昭和町","name:ja_rm":"Shōwachō","name:ko":"쇼와초","operator":"大阪市高速電気軌道","operator:en":"Osaka Metro","public_transport":"stop_position","railway":"stop","ref":"M24","subway":"yes"}},{"type":"node","id":534132524,"lat":34.6487647,"lon":135.5045366,"tags":{"alt_name:ko":"도부쓰엔마에","int_name":"Dōbutsuen-mae","local_ref":"2","name":"動物園前","name:en":"Dobutsuen-mae","name:ja":"動物園前","name:ja-Latn":"Dōbutsuen-mae","name:ko":"동물원앞","operator":"大阪市高速電気軌道","operator:en":"Osaka Metro","platforms":"2","public_transport":"stop_position","railway":"stop","ref":"M22","subway":"yes","wikidata":"Q1038365","wikipedia":"ja:動物園前駅"}},{"type":"node","id":534132586,"lat":34.6460113,"lon":135.5152402,"tags":{"int_name":"Tennōji","local_ref":"3","name":"天王寺","name:en":"Tennoji","name:es":"Tennoji","name:ja":"天王寺","name:ja-Latn":"Tennōji","name:ko":"덴노지","network":"Osaka Metro御堂筋線","operator":"大阪市高速電気軌道","operator:en":"Osaka Metro","public_transport":"stop_position","railway":"stop","ref":"M23","subway":"yes","wheelchair":"yes"}},{"type":"node","id":534133830,"lat":34.6661576,"lon":135.5002425,"tags":{"int_name":"Namba","local_ref":"2","name":"なんば","name:en":"Namba","name:es":"Namba","name:ja":"なんば","name:ja-Latn":"Namba","name:ko":"난바","name:vi":"namba","name:zh":"難波","official_name":"難波","operator":"大阪市高速電気軌道","operator:en":"Osaka Metro","platforms":"2","public_transport":"stop_position","railway":"stop","ref":"M20","subway":"yes","wheelchair":"yes","wikidata":"Q20080133","wikipedia":"ja:難波駅 (大阪市高速電気軌道)"}},{"type":"node","id":534133907,"lat":34.6745168,"lon":135.500328,"tags":{"int_name":"Shinsaibashi","local_ref":"2","name":"心斎橋","name:en":"Shinsaibashi","name:ja":"心斎橋","name:ja-Latn":"Shinsaibashi","name:ko":"신사이바시","name:zh":"心斎桥","operator":"大阪市高速電気軌道","operator:en":"Osaka Metro","public_transport":"stop_position","railway":"stop","ref":"M19","subway":"yes"}},{"type":"node","id":534134923,"lat":34.7034091,"lon":135.4975597,"tags":{"int_name":"Umeda","local_ref":"2","name":"梅田","name:en":"Umeda","name:es":"Umeda","name:ja":"梅田","name:ja-Latn":"Umeda","name:ko":"우메다","network":"大阪市営地下鉄御堂筋線","operator":"大阪市高速電気軌道","operator:en":"Osaka Metro","platforms":"2","public_transport":"stop_position","railway":"stop","ref":"M16","subway":"yes","wheelchair":"yes","wikidata":"Q20023053","wikipedia":"ja:大阪梅田駅 (阪急)"}},{"type":"node","id":534135526,"lat":34.7110541,"lon":135.4968116,"tags":{"int_name":"Nakatsu","local_ref":"2","name":"中津","name:en":"Nakatsu","name:ja":"中津","name:ja-Hira":"なかつ","name:ja-Latn":"Nakatsu","name:ko":"나카쓰","operator":"大阪市高速電気軌道","operator:en":"Osaka Metro","platforms":"2","public_transport":"stop_position","railway":"stop","ref":"M15","subway":"yes","wheelchair":"limited","wikidata":"Q2520333","wikipedia":"ja:中津駅 (Osaka Metro)"}},{"type":"node","id":536380863,"lat":34.6288002,"lon":135.5250317,"tags":{"int_name":"Tanabe","name":"田辺","name:en":"Tanabe","name:ja":"田辺","name:ja_rm":"Tanabe","operator":"大阪市高速電気軌道","operator:en":"Osaka Metro","platforms":"2","public_transport":"stop_position","railway":"stop","ref":"T30","subway":"yes","wheelchair":"yes","wikidata":"Q135203","wikipedia":"ja:田辺駅"}},{"type":"node","id":536380877,"lat":34.6216708,"lon":135.5325144,"tags":{"int_name":"Komagawa-Nakano","name":"駒川中野","name:en":"Komagawa-Nakano","name:ja":"駒川中野","name:ja_rm":"Komagawa-nakano","operator":"大阪市高速電気軌道","operator:en":"Osaka Metro","platforms":"2","public_transport":"stop_position","railway":"stop","ref":"T31","subway":"yes","wheelchair":"yes","wikidata":"Q135198","wikipedia":"ja:駒川中野駅"}},{"type":"node","id":536380901,"lat":34.6212802,"lon":135.5485984,"tags":{"int_name":"Hirano","name":"平野","name:en":"Hirano","name:ja":"平野","name:ja_rm":"Hirano","operator":"大阪市高速電気軌道","operator:en":"Osaka Metro","platforms":"2","public_transport":"stop_position","railway":"stop","ref":"T32","subway":"yes","wheelchair":"yes","wikidata":"Q135184","wikipedia":"ja:平野駅 (Osaka Metro)"}},{"type":"node","id":536380916,"lat":34.60905,"lon":135.5652331,"tags":{"int_name":"Deto","name":"出戸","name:en":"Deto","name:ja":"出戸","name:ja_rm":"Deto","operator":"大阪市高速電気軌道","operator:en":"Osaka Metro","platforms":"2","public_transport":"stop_position","railway":"stop","ref":"T34","subway":"yes","wikidata":"Q151413","wikipedia":"ja:出戸駅"}},{"type":"node","id":536380931,"lat":34.6092165,"lon":135.5513631,"tags":{"int_name":"Kire-Uriwari","name":"喜連瓜破","name:en":"Kire-Uriwari","name:ja":"喜連瓜破","name:ja_rm":"Kire-Uriwari","name:ko":"기레우리와리","operator":"大阪市高速電気軌道","operator:en":"Osaka Metro","platforms":"2","public_transport":"stop_position","railway":"stop","ref":"T33","subway":"yes","wikidata":"Q151539","wikipedia":"ja:喜連瓜破駅"}},{"type":"node","id":536380957,"lat":34.6029066,"lon":135.573698,"tags":{"int_name":"Nagahara","name":"長原","name:en":"Nagahara","name:ja":"長原","name:ja_rm":"Nagahara","operator":"大阪市高速電気軌道","operator:en":"Osaka Metro","platforms":"2","public_transport":"stop_position","railway":"stop","ref":"T35","subway":"yes","wikidata":"Q151508","wikipedia":"ja:長原駅 (大阪府)"}},{"type":"node","id":536381030,"lat":34.5973754,"lon":135.5825224,"tags":{"int_name":"Yaominami","name":"八尾南","name:en":"Yao-Minami","name:ja":"八尾南","name:ja_rm":"Yao-minami","operator":"大阪市高速電気軌道","operator:en":"Osaka Metro","platforms":"2","public_transport":"stop_position","railway":"stop","ref":"T36","subway":"yes","toilets:wheelchair":"yes","wheelchair":"yes","wikidata":"Q151767","wikipedia":"ja:八尾南駅"}},{"type":"node","id":536381080,"lat":34.636174,"lon":135.5180147,"tags":{"int_name":"Fuminosato","name":"文の里","name:en":"Fuminosato","name:ja":"文の里","name:ja_rm":"Fuminosato","name:ko":"후미노사토","operator":"大阪市高速電気軌道","operator:en":"Osaka Metro","platforms":"2","public_transport":"stop_position","railway":"stop","ref":"T29","subway":"yes","wheelchair":"yes","wikidata":"Q29457","wikipedia":"ja:文の里駅"}},{"type":"node","id":536381110,"lat":34.6424824,"lon":135.512018,"tags":{"name":"阿倍野","name:en":"Abeno","name:ja":"阿倍野","name:ja_rm":"Abeno","operator":"大阪市高速電気軌道","operator:en":"Osaka Metro","platforms":"2","public_transport":"stop_position","railway":"stop","ref":"T28","subway":"yes","wikidata":"Q135196","wikipedia":"ja:阿倍野駅"}},{"type":"node","id":536381139,"lat":34.6494263,"lon":135.5135657,"tags":{"int_name":"Tennōji","name":"天王寺","name:en":"Tennoji","name:ja":"天王寺","name:ja_rm":"Tennōji","name:ko":"덴노지","operator":"大阪市高速電気軌道","operator:en":"Osaka Metro","platforms":"2","public_transport":"stop_position","railway":"stop","ref":"T27","subway":"yes","wheelchair":"yes","wikidata":"Q1132328","wikipedia":"ja:天王寺駅"}},{"type":"node","id":536381513,"lat":34.6588133,"lon":135.5142748,"tags":{"int_name":"Shitennōji-mae Yūhigaoka","name":"四天王寺前夕陽ヶ丘","name:en":"Shitannoji-mae Yuhigaoka","name:ja":"四天王寺前夕陽ヶ丘","name:ja_rm":"Shitennōji-mae Yūhigaoka","operator":"大阪市高速電気軌道","operator:en":"Osaka Metro","platforms":"2","public_transport":"stop_position","railway":"stop","ref":"T26","subway":"yes","wheelchair":"yes","wikidata":"Q83603","wikipedia":"ja:四天王寺前夕陽ヶ丘駅"}},{"type":"node","id":536381546,"lat":34.6670802,"lon":135.515867,"tags":{"int_name":"Tanimachi Kyūchōme","name":"谷町九丁目","name:en":"Tanimachi 9-chome","name:ja":"谷町九丁目","name:ja_rm":"Tanimachi-kyū-chōme","name:ko":"다니마치9초메","operator":"大阪市高速電気軌道","operator:en":"Osaka Metro","platforms":"2","public_transport":"stop_position","railway":"stop","ref":"T25","subway":"yes","wheelchair":"yes","wikidata":"Q1041977","wikipedia":"ja:谷町九丁目駅"}},{"type":"node","id":536381550,"lat":34.6751043,"lon":135.5170953,"tags":{"int_name":"Tanimachi Rokuchome","name":"谷町六丁目","name:en":"Tanimachi 6-chome","name:ja":"谷町六丁目","name:ja_rm":"Tanimachi-roku-chōme","operator":"大阪市高速電気軌道","operator:en":"Osaka Metro","platforms":"2","public_transport":"stop_position","railway":"stop","ref":"T24","subway":"yes","wheelchair":"yes","wikidata":"Q1041967","wikipedia":"ja:谷町六丁目駅"}},{"type":"node","id":536381552,"lat":34.6823572,"lon":135.5173427,"tags":{"int_name":"Tanimachi Yonchōme","local_ref":"1","name":"谷町四丁目","name:en":"Tanimachi 4-chome","name:ja":"谷町四丁目","name:ja-Latn":"Tanimachi Yonchōme","operator":"大阪市高速電気軌道","operator:en":"Osaka Metro","platforms":"2","public_transport":"stop_position","railway":"stop","ref":"T23","subway":"yes","wheelchair":"yes","wikidata":"Q1131709","wikipedia":"ja:谷町四丁目駅"}},{"type":"node","id":536381568,"lat":34.6897207,"lon":135.5173037,"tags":{"int_name":"Temmabashi","name":"天満橋","name:en":"Temmabashi","name:ja":"天満橋","name:ja_rm":"Temmabashi","operator":"大阪市高速電気軌道","operator:en":"Osaka Metro","platforms":"2","public_transport":"stop_position","railway":"stop","ref":"T22","subway":"yes","wheelchair":"yes","wikidata":"Q1043084","wikipedia":"ja:天満橋駅"}},{"type":"node","id":536381581,"lat":34.7005975,"lon":135.4998423,"tags":{"int_name":"Higashi-Umeda","name":"東梅田","name:en":"Higashi-Umeda","name:ja":"東梅田","name:ja_rm":"Higashi-Umeda","operator":"大阪市高速電気軌道","operator:en":"Osaka Metro","platforms":"2","public_transport":"stop_position","railway":"stop","ref":"T20","subway":"yes","wheelchair":"yes","wikidata":"Q83600","wikipedia":"ja:東梅田駅"}},{"type":"node","id":536381594,"lat":34.6975763,"lon":135.5109758,"tags":{"int_name":"Minami-morimachi","name":"南森町","name:en":"Minami-morimachi;Minami-Morimachi","name:ja":"南森町","name:ja_rm":"Minami-morimachi;Minami-Morimachi","name:ko":"미나미모리마치","operator":"大阪市高速電気軌道","operator:en":"Osaka Metro","platforms":"2","public_transport":"stop_position","railway":"stop","ref":"T21","subway":"yes","wheelchair":"yes","wikidata":"Q1039923","wikipedia":"ja:南森町駅"}},{"type":"node","id":536381799,"lat":34.710632,"lon":135.5118369,"tags":{"int_name":"Tenjimbashisuji Rokuchōme","name":"天神橋筋六丁目","name:en":"Tenjinbashisuji 6-chome","name:ja":"天神橋筋六丁目","name:ja_rm":"Tenjinbashisuji-roku-chōme","name:ko":"덴진바시스지6초메","operator":"大阪市高速電気軌道","operator:en":"Osaka Metro","platforms":"2","public_transport":"stop_position","railway":"stop","ref":"T18","subway":"yes","train":"yes","wheelchair":"yes","wikidata":"Q1143934","wikipedia":"ja:天神橋筋六丁目駅"}},{"type":"node","id":536381961,"lat":34.7072106,"lon":135.5056426,"tags":{"int_name":"Nakazakichō","level":"-1","name":"中崎町","name:en":"Nakazakicho","name:ja":"中崎町","name:ja_rm":"Nakazakichō","network":"Osaka Metro谷町線","operator":"大阪市高速電気軌道","operator:en":"Osaka Metro","platforms":"2","public_transport":"stop_position","railway":"stop","ref":"T19","subway":"yes","wheelchair":"yes","wikidata":"Q83601","wikipedia":"ja:中崎町駅"}},{"type":"node","id":536382242,"lat":34.7089478,"lon":135.5258614,"tags":{"int_name":"Miyakojima","name":"都島","name:en":"Miyakojima","name:ja":"都島","name:ja_rm":"Miyakojima","operator":"大阪市高速電気軌道","operator:en":"Osaka Metro","platforms":"2","public_transport":"stop_position","railway":"stop","ref":"T17","subway":"yes","wheelchair":"yes","wikidata":"Q83604","wikipedia":"ja:都島駅"}},{"type":"node","id":536382450,"lat":34.7093749,"lon":135.5385999,"tags":{"int_name":"Noe-Uchindai","name":"野江内代","name:en":"Noe-Uchindai","name:ja":"野江内代","name:ja_rm":"Noe-Uchindai","name:ko":"노에우친다이","operator":"大阪市高速電気軌道","operator:en":"Osaka Metro","platforms":"2","public_transport":"stop_position","railway":"stop","ref":"T16","subway":"yes","train":"no","wheelchair":"yes","wikidata":"Q83607","wikipedia":"ja:野江内代駅"}},{"type":"node","id":536382688,"lat":34.7153142,"lon":135.5458363,"tags":{"int_name":"Sekime-Takadono","name":"関目高殿","name:en":"Sekime-Takadono","name:ja":"関目高殿","name:ja_rm":"Sekime-Takadono","name:ko":"세키메타카도노","operator":"大阪市高速電気軌道","operator:en":"Osaka Metro","platforms":"2","public_transport":"stop_position","railway":"stop","ref":"T15","subway":"yes","train":"no","wheelchair":"yes","wikidata":"Q83606","wikipedia":"ja:関目高殿駅"}},{"type":"node","id":536382857,"lat":34.7242152,"lon":135.549279,"tags":{"int_name":"Sembayashi-Omiya","name":"千林大宮","name:en":"Sembayashi-Omiya","name:ja":"千林大宮","name:ja_rm":"Sembayashi-Ōmiya","name:ko":"센바야시오미야","operator":"大阪市高速電気軌道","operator:en":"Osaka Metro","platforms":"2","public_transport":"stop_position","railway":"stop","ref":"T14","subway":"yes","train":"no","wikidata":"Q83605","wikipedia":"ja:千林大宮駅"}},{"type":"node","id":536383193,"lat":34.7384473,"lon":135.5644017,"tags":{"int_name":"Moriguchi","name":"守口","name:en":"Moriguchi","name:ja":"守口","name:ja_rm":"Moriguchi","operator":"大阪市高速電気軌道","operator:en":"Osaka Metro","platforms":"2","public_transport":"stop_position","railway":"stop","ref":"T12","subway":"yes","wikidata":"Q83608","wikipedia":"ja:守口駅"}},{"type":"node","id":536383273,"lat":34.7498446,"lon":135.5787996,"tags":{"int_name":"Dainichi","name":"大日","name:en":"Dainichi","name:ja":"大日","name:ja_rm":"Dainichi","operator":"大阪市高速電気軌道","operator:en":"Osaka Metro","platforms":"2","public_transport":"stop_position","railway":"stop","ref":"T11","subway":"yes","wikidata":"Q681742","wikipedia":"ja:大日駅"}},{"type":"node","id":537509926,"lat":34.6087382,"lon":135.473121,"tags":{"alt_name:ko":"스미노에코엔","int_name":"Suminoekōen","name":"住之江公園","name:en":"Suminoekoen","name:ja":"住之江公園","name:ja-Hira":"すみのえこうえん","name:ja_rm":"Suminoekōen","name:ko":"스미노에공원","operator":"大阪市高速電気軌道","operator:en":"Osaka Metro","platforms":"2","public_transport":"stop_position","railway":"stop","ref":"Y21","subway":"yes","wikidata":"Q126046","wikipedia":"ja:住之江公園駅"}},{"type":"node","id":537509959,"lat":34.6212875,"lon":135.4794184,"tags":{"int_name":"Kitakagaya","name":"北加賀屋","name:en":"Kitakagaya","name:ja":"北加賀屋","name:ja_rm":"Kitakagaya","name:ko":"기타카가야","operator":"大阪市高速電気軌道","operator:en":"Osaka Metro","operator:ja":"大阪市高速電気軌道","platforms":"2","public_transport":"stop_position","railway":"stop","ref":"Y20","subway":"yes","wheelchair":"yes","wikidata":"Q126335","wikipedia":"ja:北加賀屋駅"}},{"type":"node","id":537509992,"lat":34.6237757,"lon":135.4904379,"tags":{"int_name":"Tamade","name":"玉出","name:en":"Tamade","name:ja":"玉出","name:ja_rm":"Tamade","name:ko":"다마데","operator":"大阪市高速電気軌道","operator:en":"Osaka Metro","operator:ja":"大阪市高速電気軌道","platforms":"2","public_transport":"stop_position","railway":"stop","ref":"Y19","subway":"yes","wikidata":"Q125822","wikipedia":"ja:玉出駅"}},{"type":"node","id":537509994,"lat":34.6442802,"lon":135.4966066,"tags":{"int_name":"Hanazonochō","name":"花園町","name:en":"Hanazonocho","name:ja":"花園町","name:ja_rm":"Hanazonochō","name:ko":"하나조노초","operator":"大阪市高速電気軌道","operator:en":"Osaka Metro","platforms":"2","public_transport":"stop_position","railway":"stop","ref":"Y17","subway":"yes","wikidata":"Q126102","wikipedia":"ja:花園町駅"}},{"type":"node","id":537510029,"lat":34.634409,"lon":135.493888,"tags":{"int_name":"Kishinosato","name":"岸里","name:en":"Kishinosato","name:ja":"岸里","name:ja_rm":"Kishinosato","name:ko":"기시노사토","operator":"大阪市高速電気軌道","operator:en":"Osaka Metro","operator:ja":"大阪市高速電気軌道","platforms":"2","public_transport":"stop_position","railway":"stop","ref":"Y18","subway":"yes","wikidata":"Q126082","wikipedia":"ja:岸里駅"}},{"type":"node","id":537510090,"lat":34.6562417,"lon":135.4978977,"tags":{"int_name":"Daikokuchō","local_ref":"2","name":"大国町","name:en":"Daikokucho","name:ja":"大国町","name:ja-Latn":"Daikokuchō","name:ko":"다이코쿠초","operator":"大阪市高速電気軌道","operator:en":"Osaka Metro","platforms":"4","public_transport":"stop_position","railway":"stop","ref":"Y16","subway":"yes"}},{"type":"node","id":537510121,"lat":34.6663446,"lon":135.4976228,"tags":{"int_name":"Namba","local_ref":"1","name":"なんば","name:en":"Namba","name:es":"Namba","name:ja":"なんば","name:ja-Latn":"Namba","name:ko":"난바","name:vi":"namba","name:zh":"難波","network":"Osaka Metro四つ橋線","official_name":"難波","operator":"大阪市高速電気軌道","operator:en":"Osaka Metro","public_transport":"stop_position","railway":"stop","ref":"Y15","subway":"yes","wikidata":"Q20080133","wikipedia":"ja:難波駅 (Osaka Metro)"}},{"type":"node","id":537510136,"lat":34.6740351,"lon":135.496782,"tags":{"int_name":"Yotsubashi","name":"四ツ橋","name:en":"Yotsubashi","name:ja":"四ツ橋","name:ja_rm":"Yotsubashi","name:ko":"요쓰바시","operator":"大阪市高速電気軌道","operator:en":"Osaka Metro","operator:ja":"大阪市高速電気軌道","platforms":"2","public_transport":"stop_position","railway":"stop","ref":"Y14","subway":"yes","wheelchair":"yes","wikidata":"Q291023","wikipedia":"ja:四ツ橋駅"}},{"type":"node","id":537510155,"lat":34.6914998,"lon":135.4963627,"tags":{"int_name":"Higobashi","name":"肥後橋","name:en":"Higobashi","name:ja":"肥後橋","name:ja_rm":"Higobashi","name:ko":"히고바시","operator":"大阪市高速電気軌道","operator:en":"Osaka Metro","operator:ja":"大阪市高速電気軌道","platforms":"2","public_transport":"stop_position","railway":"stop","ref":"Y12","subway":"yes","wheelchair":"yes","wikidata":"Q126343","wikipedia":"ja:肥後橋駅"}},{"type":"node","id":537510157,"lat":34.699483,"lon":135.4956763,"tags":{"int_name":"Nishi-Umeda","name":"西梅田","name:en":"Nishi-Umeda","name:ja":"西梅田","name:ja_rm":"Nishi Umeda","name:ko":"니시우메다","operator":"大阪市高速電気軌道","operator:en":"Osaka Metro","operator:ja":"大阪市高速電気軌道","platforms":"2","public_transport":"stop_position","railway":"stop","ref":"Y11","subway":"yes","toilets:wheelchair":"yes","wheelchair":"yes","wikidata":"Q126023","wikipedia":"ja:西梅田駅"}},{"type":"node","id":537520677,"lat":34.66087,"lon":135.448799,"tags":{"local_ref":"1","name":"朝潮橋","name:en":"Asashiobashi","name:ja":"朝潮橋","name:ja-Latn":"Asashio-bashi","name:ko":"아사시오바시","public_transport":"stop_position","railway":"stop","ref":"C12","subway":"yes","train":"yes"}},{"type":"node","id":537520788,"lat":34.6684336,"lon":135.4620861,"tags":{"local_ref":"1","name":"弁天町","name:en":"Bentencho","name:ja":"弁天町","name:ja-Latn":"Bentenchō","name:ko":"벤텐초","operator":"大阪市高速電気軌道","operator:en":"Osaka Metro","public_transport":"stop_position","railway":"stop","ref":"C13","subway":"yes","wikidata":"Q1131017","wikipedia":"ja:弁天町駅"}},{"type":"node","id":537520917,"lat":34.675318,"lon":135.473524,"tags":{"local_ref":"1","name":"九条","name:en":"Kujō","name:ja":"九条","name:ja-Latn":"Kujō","name:ko":"구조","operator":"大阪市高速電気軌道","operator:en":"Osaka Metro","public_transport":"stop_position","railway":"stop","ref":"C14","subway":"yes","wikidata":"Q1132633","wikipedia":"ja:九条駅 (大阪府)"}},{"type":"node","id":537520958,"lat":34.6813385,"lon":135.4880951,"tags":{"local_ref":"2","name":"阿波座","name:en":"Awaza","name:ja":"阿波座","name:ja-Latn":"Awaza","name:ko":"아와자","operator":"大阪メトロ","operator:en":"Osaka Metro","public_transport":"stop_position","railway":"stop","ref":"C15","subway":"yes","wheelchair":"yes","wikidata":"Q1134468","wikipedia":"ja:阿波座駅"}},{"type":"node","id":537520970,"lat":34.681998,"lon":135.4987211,"tags":{"local_ref":"2","name":"本町","name:en":"Hommachi","name:ja":"本町","name:ja-Latn":"Hommachi","name:ko":"혼마치","name:zh":"本町地铁车站","operator":"大阪市高速電気軌道","operator:en":"Osaka Metro","public_transport":"stop_position","railway":"stop","ref":"C16","subway":"yes","wheelchair":"yes","wikidata":"Q1134631","wikipedia":"ja:本町駅"}},{"type":"node","id":537521116,"lat":34.6814302,"lon":135.517465,"tags":{"local_ref":"2","name":"谷町四丁目","name:en":"Tanimachi 4-chome","name:ja":"谷町四丁目","name:ja-Latn":"Tanimachi Yonchōme","public_transport":"stop_position","railway":"stop","ref":"C18","subway":"yes","wheelchair":"yes","wikidata":"Q1131709","wikipedia":"ja:谷町四丁目駅"}},{"type":"node","id":537521118,"lat":34.6818551,"lon":135.5069325,"tags":{"name":"堺筋本町","name:en":"Sakaisuji-Hommachi","name:ja":"堺筋本町","name:ja-Latn":"Sakaisuji Hommachi","name:ko":"사카이스지혼마치","operator":"大阪市高速電気軌道","operator:en":"Osaka Metro","public_transport":"stop_position","railway":"stop","ref":"C17","subway":"yes","wheelchair":"yes","wikidata":"Q1074425","wikipedia":"ja:堺筋本町駅"}},{"type":"node","id":537521123,"lat":34.6814583,"lon":135.5320332,"tags":{"local_ref":"2","name":"森ノ宮","name:en":"Morinomiya","name:ja":"森ノ宮","name:ja-Hira":"もりのみや","name:ja-Latn":"Morinomiya","name:ko":"모리노미야","operator":"大阪市高速電気軌道","operator:en":"Osaka Metro","public_transport":"stop_position","railway":"stop","ref":"C19","subway":"yes","wheelchair":"yes","wikidata":"Q1131146","wikipedia":"ja:森ノ宮駅"}},{"type":"node","id":537521131,"lat":34.6806358,"lon":135.545739,"tags":{"local_ref":"2","name":"緑橋","name:en":"Midoribashi","name:ja":"緑橋","name:ja-Latn":"Midoribashi","name:ko":"미도리바시","name:zh":"中央线绿桥地铁车站","operator":"大阪市高速電気軌道","operator:en":"Osaka Metro","public_transport":"stop_position","railway":"stop","ref":"C20","subway":"yes","wheelchair":"yes","wikidata":"Q1131699","wikipedia":"ja:緑橋駅"}},{"type":"node","id":537521143,"lat":34.6790916,"lon":135.5574489,"tags":{"local_ref":"2","name":"深江橋","name:en":"Fukaebashi","name:ja":"深江橋","name:ja-Latn":"Fukae-bashi","name:ko":"후카에바시","name:zh":"中央线深江桥地铁车站","operator":"大阪市高速電気軌道","operator:en":"Osaka Metro","public_transport":"stop_position","railway":"stop","ref":"C21","subway":"yes","wheelchair":"yes","wikidata":"Q126032","wikipedia":"ja:深江橋駅"}},{"type":"node","id":537521160,"lat":34.6783601,"lon":135.5719276,"tags":{"local_ref":"2","name":"高井田","name:en":"Takaida","name:ja":"高井田","name:ja-Latn":"Takaida","name:ko":"다카이다","name:zh":"高井田地铁车站","operator":"大阪市高速電気軌道","operator:en":"Osaka Metro","public_transport":"stop_position","railway":"stop","ref":"C22","subway":"yes","train":"yes","wheelchair":"yes","wikidata":"Q126027","wikipedia":"ja:高井田駅 (大阪府東大阪市)"}},{"type":"node","id":537521167,"lat":34.6787381,"lon":135.5910595,"tags":{"local_ref":"2","name":"長田","name:en":"Nagata","name:ja":"長田","name:ja-Latn":"Nagata","name:ko":"나가타","operator":"大阪市高速電気軌道","operator:en":"Osaka Metro","public_transport":"stop_position","railway":"stop","ref":"C23","subway":"yes","train":"yes","wikidata":"Q126064","wikipedia":"ja:長田駅 (大阪府)"}},{"type":"node","id":538714962,"lat":34.6682826,"lon":135.4902618,"tags":{"local_ref":"2","name":"桜川","name:en":"Sakuragawa","name:ja":"桜川","name:ja-Latn":"Sakuragawa","name:ko":"사쿠라가와","public_transport":"stop_position","railway":"stop","ref":"S15","subway":"yes","wheelchair":"yes"}},{"type":"node","id":538714967,"lat":34.6671933,"lon":135.4997165,"tags":{"local_ref":"2","name":"なんば","name:en":"Namba","name:es":"Namba","name:ja":"なんば","name:ja-Latn":"Namba","name:ko":"난바","name:vi":"namba","name:zh":"難波","network":"大阪市営地下鉄千日前線","official_name":"難波","operator":"大阪市高速電気軌道","operator:en":"Osaka Metro","public_transport":"stop_position","railway":"stop","ref":"S16","subway":"yes","wheelchair":"yes"}},{"type":"node","id":538714986,"lat":34.6664922,"lon":135.5169829,"tags":{"local_ref":"2","name":"谷町九丁目","name:en":"Tanimachi 9-chome","name:ja":"谷町九丁目","name:ja-Latn":"Tanimachi Kyūchōme","name:ko":"다니마치9초메","public_transport":"stop_position","railway":"stop","ref":"S18","subway":"yes","wheelchair":"yes"}},{"type":"node","id":538715048,"lat":34.6670786,"lon":135.5064058,"tags":{"local_ref":"2","name":"日本橋","name:en":"Nippombashi","name:ja":"日本橋","name:ja-Hira":"にっぽんばし","name:ja-Latn":"Nipponbashi","name:ko":"닛폰바시","public_transport":"stop_position","railway":"stop","ref":"S17","subway":"yes","train":"yes","wheelchair":"yes"}},{"type":"node","id":538715541,"lat":34.6895401,"lon":135.4761741,"tags":{"local_ref":"2","name":"玉川","name:en":"Tamagawa","name:ja":"玉川","name:ja-Latn":"Tamagawa","name:ko":"다마가와","public_transport":"stop_position","railway":"stop","ref":"S12","subway":"yes","wheelchair":"yes"}},{"type":"node","id":538715683,"lat":34.694371,"lon":135.4748438,"tags":{"local_ref":"2","name":"野田阪神","name:en":"Nodahanshin","name:ja":"野田阪神","name:ja-Latn":"Nodahanshin","name:ko":"노다한신","public_transport":"stop_position","railway":"stop","ref":"S11","subway":"yes"}},{"type":"node","id":538715685,"lat":34.6816242,"lon":135.4862184,"tags":{"local_ref":"2","name":"阿波座","name:en":"Awaza","name:ja":"阿波座","name:ja-Latn":"Awaza","name:ko":"아와자","public_transport":"stop_position","railway":"stop","ref":"S13","subway":"yes","train":"yes","wheelchair":"yes"}},{"type":"node","id":538715691,"lat":34.6738921,"lon":135.4869799,"tags":{"local_ref":"2","name":"西長堀","name:en":"Nishi-Nagahori","name:ja":"西長堀","name:ja-Latn":"Nishi-Nagahori","name:ko":"니시나가호리","public_transport":"stop_position","railway":"stop","ref":"S14","subway":"yes","wheelchair":"no"}},{"type":"node","id":538715734,"lat":34.6425052,"lon":135.5530849,"tags":{"local_ref":"2","name":"南巽","name:en":"Minami-Tatsumi","name:ja":"南巽","name:ja-Latn":"Minami Tatsumi","name:ko":"미나미타쓰미","public_transport":"stop_position","railway":"stop","ref":"S24","subway":"yes","wikidata":"Q126112","wikipedia":"ja:南巽駅"}},{"type":"node","id":538715743,"lat":34.6659535,"lon":135.5290573,"tags":{"local_ref":"2","name":"鶴橋","name:en":"Tsuruhashi","name:es":"Tsuruhashi","name:ja":"鶴橋","name:ja-Latn":"Tsuruhashi","name:ko":"쓰루하시","name:zh":"鹤桥","public_transport":"stop_position","railway":"stop","ref":"S19","subway":"yes"}},{"type":"node","id":538715763,"lat":34.6686947,"lon":135.5439907,"tags":{"local_ref":"2","name":"今里","name:en":"Imazato","name:ja":"今里","name:ja-Latn":"Imazato","name:ko":"이마자토","operator":"大阪市高速電気軌道","operator:en":"Osaka Metro","public_transport":"stop_position","railway":"stop","ref":"S20","subway":"yes"}},{"type":"node","id":538715764,"lat":34.653507,"lon":135.5550118,"tags":{"local_ref":"2","name":"北巽","name:en":"Kita-Tatsumi","name:ja":"北巽","name:ja-Latn":"Kita-Tatsumi","name:ko":"기타타쓰미","public_transport":"stop_position","railway":"stop","ref":"S23","subway":"yes"}},{"type":"node","id":538715769,"lat":34.661432,"lon":135.5562543,"tags":{"local_ref":"2","name":"小路","name:en":"Shoji","name:ja":"小路","name:ja-Latn":"Shōji","name:ko":"쇼지","public_transport":"stop_position","railway":"stop","ref":"S22","subway":"yes"}},{"type":"node","id":538715786,"lat":34.6681632,"lon":135.5543001,"tags":{"local_ref":"2","name":"新深江","name:en":"Shin-Fukae","name:ja":"新深江","name:ja-Latn":"Shin-Fukae","name:ko":"신후카에","public_transport":"stop_position","railway":"stop","ref":"S21","subway":"yes"}},{"type":"node","id":538718233,"lat":34.637686,"lon":135.4971083,"tags":{"name":"天下茶屋","name:en":"Tengachaya","name:ja":"天下茶屋","name:ja_rm":"Tengachaya","name:ko":"덴가차야","public_transport":"stop_position","railway":"stop","ref":"K20","subway":"yes","wikidata":"Q2084603","wikipedia":"ja:天下茶屋駅"}},{"type":"node","id":538718289,"lat":34.6486679,"lon":135.5035212,"tags":{"alt_name:ko":"도부쓰엔마에","name":"動物園前","name:en":"Dobutsuen-mae","name:ja":"動物園前","name:ja_rm":"Dōbutsuen-mae","name:ko":"동물원앞","public_transport":"stop_position","railway":"stop","ref":"M22","subway":"yes","wikidata":"Q1038365","wikipedia":"ja:動物園前駅"}},{"type":"node","id":538718294,"lat":34.6556032,"lon":135.5056325,"tags":{"name":"恵美須町","name:en":"Ebisucho","name:ja":"恵美須町","name:ja_rm":"Ebisu-chō","name:ko":"에비스초","public_transport":"stop_position","railway":"stop","ref":"K18","subway":"yes","wheelchair":"yes","wikidata":"Q2066656","wikipedia":"ja:恵美須町駅"}},{"type":"node","id":538718325,"lat":34.6667194,"lon":135.5061213,"tags":{"name":"日本橋","name:en":"Nippombashi","name:ja":"日本橋","name:ja_rm":"Nippon-bashi","name:ko":"닛폰바시","public_transport":"stop_position","railway":"stop","subway":"yes","wheelchair":"yes","wikidata":"Q1040630","wikipedia":"ja:日本橋駅 (大阪府)"}},{"type":"node","id":538718331,"lat":34.6748575,"lon":135.506291,"tags":{"name":"長堀橋","name:en":"Nagahoribashi","name:ja":"長堀橋","name:ja_rm":"Nagahori-bashi","public_transport":"stop_position","railway":"stop","ref":"K16","subway":"yes","wheelchair":"yes","wikidata":"Q1038083","wikipedia":"ja:長堀橋駅"}},{"type":"node","id":538718337,"lat":34.6826204,"lon":135.5064317,"tags":{"local_ref":"2","name":"堺筋本町","name:en":"Sakaisuji-Hommachi","name:ja":"堺筋本町","name:ja-Hira":"さかいすじほんまち","name:ja-Latn":"Sakaisuji Hommachi","name:ko":"사카이스지혼마치","public_transport":"stop_position","railway":"stop","ref":"K15","subway":"yes","train":"yes","wheelchair":"yes","wikidata":"Q1074425","wikipedia":"ja:堺筋本町駅"}},{"type":"node","id":538718386,"lat":34.6911743,"lon":135.5065498,"tags":{"name":"北浜","name:en":"Kitahama","name:ja":"北浜","name:ja_rm":"Kitahama","name:ko":"기타하마","public_transport":"stop_position","railway":"stop","subway":"yes","wheelchair":"yes","wikidata":"Q1042837","wikipedia":"ja:北浜駅 (大阪府)"}},{"type":"node","id":538718392,"lat":34.704475,"lon":135.5108165,"tags":{"name":"扇町","name:en":"Ogimachi","name:ja":"扇町","name:ja_rm":"Ōgimachi","name:ko":"오기마치","network":"大阪市営地下鉄堺筋線","operator":"大阪市高速電気軌道","operator:en":"Osaka Metro","public_transport":"stop_position","railway":"stop","subway":"yes","wheelchair":"yes","wikidata":"Q843811","wikipedia":"ja:扇町駅 (大阪府)"}},{"type":"node","id":538721423,"lat":34.665509,"lon":135.4786099,"tags":{"int_name":"Taishō","name":"大正","name:en":"Taisho","name:ja":"大正","name:ja_rm":"Taishō","operator":"大阪市高速電気軌道","operator:en":"Osaka Metro","platforms":"2","public_transport":"stop_position","railway":"stop","ref":"N11","subway":"yes","wikidata":"Q1131158","wikipedia":"ja:大正駅 (大阪府)"}},{"type":"node","id":538721427,"lat":34.6714438,"lon":135.4795155,"tags":{"int_name":"Dome-mae Chiyozaki","name":"ドーム前千代崎","name:en":"Dome-mae Chiyozaki","name:ja":"ドーム前千代崎","name:ja-Hira":"どーむまえちよざき","name:ja_rm":"Dōmu-mae Chiyozaki","name:ko":"돔마에치요자키","old_name":"大阪ドーム前千代崎","operator":"大阪市高速電気軌道","operator:en":"Osaka Metro","platforms":"2","public_transport":"stop_position","railway":"stop","ref":"N12","subway":"yes","wheelchair":"yes","wikidata":"Q666822","wikipedia":"ja:ドーム前千代崎駅"}},{"type":"node","id":538721465,"lat":34.6756856,"lon":135.4869091,"tags":{"local_ref":"1","name":"西長堀","name:en":"Nishi-Nagahori","name:ja":"西長堀","name:ja-Latn":"Nishi-Nagahori","name:ko":"니시나가호리","operator":"大阪市高速電気軌道","operator:en":"Osaka Metro","platforms":"2","public_transport":"stop_position","railway":"stop","ref":"N13","subway":"yes","wheelchair":"yes","wikidata":"Q304193","wikipedia":"ja:西長堀駅"}},{"type":"node","id":538721475,"lat":34.6753372,"lon":135.4991998,"tags":{"int_name":"Shinsaibashi","name":"心斎橋","name:en":"Shinsaibashi","name:ja":"心斎橋","name:ja_rm":"Shinsai-bashi","name:ko":"신사이바시","name:zh":"心斎桥","operator":"大阪市高速電気軌道","operator:en":"Osaka Metro","platforms":"2","public_transport":"stop_position","railway":"stop","ref":"N15","subway":"yes","wheelchair":"yes","wikidata":"Q1074440","wikipedia":"ja:心斎橋駅"}},{"type":"node","id":538721479,"lat":34.6754786,"lon":135.4944713,"tags":{"int_name":"Nishiōhashi","name":"西大橋","name:en":"Nishiohashi","name:ja":"西大橋","name:ja_rm":"Nishiōhashi","name:ko":"니시오하시","operator":"大阪市高速電気軌道","operator:en":"Osaka Metro","platforms":"2","public_transport":"stop_position","railway":"stop","ref":"N14","subway":"yes","wheelchair":"yes","wikidata":"Q112719","wikipedia":"ja:西大橋駅"}},{"type":"node","id":538721499,"lat":34.6753937,"lon":135.5122307,"tags":{"int_name":"Matsuyamachi","name":"松屋町","name:en":"Matsuyamachi","name:ja":"松屋町","name:ja_rm":"Matsuyamachi","name:ko":"마쓰야마치","operator":"大阪市高速電気軌道","operator:en":"Osaka Metro","platforms":"2","public_transport":"stop_position","railway":"stop","ref":"N17","subway":"yes","wheelchair":"yes","wikidata":"Q126080","wikipedia":"ja:松屋町駅"}},{"type":"node","id":538721524,"lat":34.6752768,"lon":135.506437,"tags":{"int_name":"Nagahoribashi","name":"長堀橋","name:en":"Nagahoribashi","name:ja":"長堀橋","name:ja_rm":"Nagahori-bashi","operator":"大阪市高速電気軌道","operator:en":"Osaka Metro","platforms":"2","public_transport":"stop_position","railway":"stop","ref":"N16","subway":"yes","wheelchair":"yes","wikidata":"Q1038083","wikipedia":"ja:長堀橋駅"}},{"type":"node","id":538721576,"lat":34.6759996,"lon":135.518135,"tags":{"int_name":"Tanimachi Rokuchōme","name":"谷町六丁目","name:en":"Tanimachi 6-chome","name:ja":"谷町六丁目","name:ja_rm":"Tanimachi-roku-chōme","name:ko":"다니마치6초메","operator":"大阪市高速電気軌道","operator:en":"Osaka Metro","platforms":"2","public_transport":"stop_position","railway":"stop","ref":"N18","subway":"yes","wheelchair":"yes","wikidata":"Q1041967","wikipedia":"ja:谷町六丁目駅"}},{"type":"node","id":538721634,"lat":34.6745896,"lon":135.530474,"tags":{"int_name":"Tamatsukuri","name":"玉造","name:en":"Tamatsukuri","name:ja":"玉造","name:ja_rm":"Tamatsukuri","name:ko":"다마쓰쿠리","operator":"大阪市高速電気軌道","operator:en":"Osaka Metro","platforms":"2","public_transport":"stop_position","railway":"stop","ref":"N19","subway":"yes","wikidata":"Q1131039","wikipedia":"ja:玉造駅"}},{"type":"node","id":538721697,"lat":34.6821935,"lon":135.5334135,"tags":{"int_name":"Morinomiya","local_ref":"2","name":"森ノ宮","name:en":"Morinomiya","name:ja":"森ノ宮","name:ja-Latn":"Morinomiya","name:ko":"모리노미야","name:zh":"JR森之宫车站","operator":"大阪市高速電気軌道","operator:en":"Osaka Metro","platforms":"2","public_transport":"stop_position","railway":"stop","ref":"N20","subway":"yes","wheelchair":"yes","wikidata":"Q1131146","wikipedia":"ja:森ノ宮駅"}},{"type":"node","id":538721710,"lat":34.6924236,"lon":135.5295012,"tags":{"int_name":"Osaka Business Park","name":"大阪ビジネスパーク","name:en":"Osaka Business Park","name:ja":"大阪ビジネスパーク","name:ja_rm":"Ōsaka bizinesu pāku","name:ko":"오사카비즈니스파크","operator":"大阪市高速電気軌道","operator:en":"Osaka Metro","platforms":"2","public_transport":"stop_position","railway":"stop","ref":"N21","subway":"yes","wheelchair":"yes","wikidata":"Q135205","wikipedia":"ja:大阪ビジネスパーク駅"}},{"type":"node","id":538721743,"lat":34.6975502,"lon":135.5305398,"tags":{"int_name":"Kyōbashi","local_ref":"2","name":"京橋","name:en":"Kyobashi","name:ja":"京橋","name:ja_rm":"Kyōbashi","name:ko":"교바시","operator":"大阪市高速電気軌道","operator:en":"Osaka Metro","platforms":"2","public_transport":"stop_position","railway":"stop","ref":"N22","subway":"yes","wheelchair":"yes","wikidata":"Q123033953","wikipedia":"ja:京橋駅 (大阪府)"}},{"type":"node","id":538721772,"lat":34.7005412,"lon":135.548485,"tags":{"int_name":"Gamō-yonchōme","name":"蒲生四丁目","name:en":"Gamo 4-chome","name:ja":"蒲生四丁目","name:ja_rm":"Gamō-yon-chōme","name:ko":"가모4초메","operator":"大阪市高速電気軌道","operator:en":"Osaka Metro","platforms":"2","public_transport":"stop_position","railway":"stop","ref":"N23","subway":"yes","wheelchair":"yes","wikidata":"Q1042492","wikipedia":"ja:蒲生四丁目駅"}},{"type":"node","id":538721773,"lat":34.7019495,"lon":135.5599007,"tags":{"int_name":"Imafuku-Tsurumi","name":"今福鶴見","name:en":"Imafuku-Tsurumi","name:ja":"今福鶴見","name:ja_rm":"Imafuku-Tsurumi","name:ko":"이마후쿠쓰루미","operator":"大阪市高速電気軌道","operator:en":"Osaka Metro","platforms":"2","public_transport":"stop_position","railway":"stop","ref":"N24","subway":"yes","wheelchair":"yes","wikidata":"Q135348","wikipedia":"ja:今福鶴見駅"}},{"type":"node","id":538722089,"lat":34.7036117,"lon":135.5734194,"tags":{"int_name":"Yokozutsumi","name":"横堤","name:en":"Yokozutsumi","name:ja":"横堤","name:ja_rm":"Yokozutsumi","name:ko":"요코즈쓰미","operator":"大阪市高速電気軌道","operator:en":"Osaka Metro","platforms":"2","public_transport":"stop_position","railway":"stop","ref":"N25","subway":"yes","wheelchair":"yes","wikidata":"Q135186","wikipedia":"ja:横堤駅"}},{"type":"node","id":538722148,"lat":34.7109324,"lon":135.5806954,"tags":{"int_name":"Tsurumi-ryokuchi","name":"鶴見緑地","name:en":"Tsurumi-ryokuchi","name:ja":"鶴見緑地","name:ja_rm":"Tsurumi-ryokuchi","name:ko":"쓰루미료쿠치","operator":"大阪市高速電気軌道","operator:en":"Osaka Metro","platforms":"2","public_transport":"stop_position","railway":"stop","ref":"N26","subway":"yes","wheelchair":"yes","wikidata":"Q135181","wikipedia":"ja:鶴見緑地駅"}},{"type":"node","id":538722362,"lat":34.7170398,"lon":135.5931108,"tags":{"int_name":"Kadoma-minami","name":"門真南","name:en":"Kadoma-Minami","name:ja":"門真南","name:ja_rm":"Kadoma Minami","name:ko":"가도마미나미","operator":"大阪市高速電気軌道","operator:en":"Osaka Metro","platforms":"2","public_transport":"stop_position","railway":"stop","ref":"N27","subway":"yes","wheelchair":"yes","wikidata":"Q135207","wikipedia":"ja:門真南駅"}},{"type":"node","id":538724115,"lat":34.670162,"lon":135.5430853,"tags":{"int_name":"Imazato","name":"今里","name:en":"Imazato","name:ja":"今里","name:ja_rm":"Imazato","name:ko":"이마자토","operator":"大阪市高速電気軌道","operator:en":"Osaka Metro","platforms":"2","public_transport":"stop_position","railway":"stop","ref":"I21","subway":"yes","wheelchair":"yes","wikidata":"Q949884","wikipedia":"ja:今里駅 (Osaka Metro)"}},{"type":"node","id":538724124,"lat":34.6814409,"lon":135.5446355,"tags":{"int_name":"Midoribashi","local_ref":"1","name":"緑橋","name:en":"Midoribashi","name:ja":"緑橋","name:ja-Latn":"Midoribashi","name:ko":"미도리바시","operator":"大阪市高速電気軌道","operator:en":"Osaka Metro","platforms":"2","public_transport":"stop_position","railway":"stop","ref":"I20","subway":"yes","wikidata":"Q1131699","wikipedia":"ja:緑橋駅"}},{"type":"node","id":538724140,"lat":34.6930234,"lon":135.5461967,"tags":{"int_name":"Shigino","name":"鴫野","name:en":"Shigino","name:ja":"鴫野","name:ja_rm":"Shigino","name:ko":"시기노","operator":"大阪市高速電気軌道","operator:en":"Osaka Metro","public_transport":"stop_position","railway":"stop","subway":"yes","wheelchair":"yes"}},{"type":"node","id":538724159,"lat":34.7009652,"lon":135.5463214,"tags":{"int_name":"Gamō-Yonchōme","name":"蒲生四丁目","name:en":"Gamo 4-chome","name:ja":"蒲生四丁目","name:ja_rm":"Gamō-yon-chōme","name:ko":"가모4초메","operator":"大阪市高速電気軌道","operator:en":"Osaka Metro","platforms":"2","public_transport":"stop_position","railway":"stop","ref":"I18","subway":"yes","wheelchair":"yes","wikidata":"Q1042492","wikipedia":"ja:蒲生四丁目駅"}},{"type":"node","id":538724186,"lat":34.7130989,"lon":135.546479,"tags":{"int_name":"Sekime-Sekiiku","name":"関目成育","name:en":"Sekime-Seiiku","name:ja":"関目成育","name:ja_rm":"Sekime Seiiku","name:ko":"세키메세이이쿠","operator":"大阪市高速電気軌道","operator:en":"Osaka Metro","public_transport":"stop_position","railway":"stop","subway":"yes","train":"yes","wheelchair":"yes"}},{"type":"node","id":538724212,"lat":34.7152361,"lon":135.5583012,"tags":{"int_name":"Shimmori-Furuichi","name":"新森古市","name:en":"Shimmori-Furuichi","name:ja":"新森古市","name:ja_rm":"Shimmori Furuichi","name:ko":"신모리후루이치","operator":"大阪市高速電気軌道","operator:en":"Osaka Metro","public_transport":"stop_position","railway":"stop","subway":"yes","wheelchair":"yes"}},{"type":"node","id":538724214,"lat":34.7222675,"lon":135.5608359,"tags":{"int_name":"Shimizu","name":"清水","name:en":"Shimizu","name:ja":"清水","name:ja_rm":"Shimizu","name:ko":"시미즈","operator":"大阪市高速電気軌道","operator:en":"Osaka Metro","public_transport":"stop_position","railway":"stop","subway":"yes","wheelchair":"yes"}},{"type":"node","id":538724478,"lat":34.7313068,"lon":135.5562505,"tags":{"int_name":"Taishibashi-Imaichi","name":"太子橋今市","name:en":"Taishibashi-Imaichi","name:ja":"太子橋今市","name:ja_rm":"Taishibashi Imaichi","name:ko":"다이시바시이마이치","operator":"大阪市高速電気軌道","operator:en":"Osaka Metro","platforms":"2","public_transport":"stop_position","railway":"stop","ref":"I14","subway":"yes","wheelchair":"yes","wikidata":"Q1042508","wikipedia":"ja:太子橋今市駅"}},{"type":"node","id":538724639,"lat":34.7439496,"lon":135.5445589,"tags":{"int_name":"Daidō-Toyosato","name":"だいどう豊里","name:en":"Daido-Toyosato","name:ja":"だいどう豊里","name:ja_rm":"Daidō-Toyosato","name:ko":"다이도토요사토","operator":"大阪市高速電気軌道","operator:en":"Osaka Metro","public_transport":"stop_position","railway":"stop","subway":"yes","wheelchair":"yes"}},{"type":"node","id":538724645,"lat":34.7522052,"lon":135.5445776,"tags":{"int_name":"Zuikō Yonchōme","name":"瑞光四丁目","name:en":"Zuiko 4-chome","name:ja":"瑞光四丁目","name:ja_rm":"Zuikō-yon-chōme","name:ko":"즈이코4초메","operator":"大阪市高速電気軌道","operator:en":"Osaka Metro","public_transport":"stop_position","railway":"stop","subway":"yes","wheelchair":"yes","wikidata":"Q180497","wikipedia":"ja:瑞光四丁目駅"}},{"type":"node","id":538724663,"lat":34.7600012,"lon":135.5472837,"tags":{"int_name":"Itakano","name":"井高野","name:en":"Itakano","name:ja":"井高野","name:ja_rm":"Itakano","name:ko":"이타카노","operator":"大阪市高速電気軌道","operator:en":"Osaka Metro","public_transport":"stop_position","railway":"stop","subway":"yes"}},{"type":"node","id":538727444,"lat":34.7210306,"lon":135.7167792,"tags":{"KSJ2:LIN":"けいはんな線","KSJ2:RAS":"eb03_25","KSJ2:STN":"白庭台","KSJ2:segment":"eb02_21918","name":"白庭台","name:en":"Shiraniwadai","name:ja":"白庭台","name:ko":"시라니와다이","note":"National-Land Numerical Information (Railway) 2007, MLIT Japan","note:ja":"国土数値情報（鉄道データ）平成19年　国土交通省","operator":"近畿日本鉄道","public_transport":"stop_position","railway":"stop","ref":"C28","source":"KSJ2","source_ref":"http://nlftp.mlit.go.jp/ksj/jpgis/datalist/KsjTmplt-N02-v1_1.html","subway":"yes","wikidata":"Q7498268","wikipedia":"ja:白庭台駅"}},{"type":"node","id":549722947,"lat":34.7312073,"lon":135.5547161,"tags":{"int_name":"Taishibashi-Imaichi","name":"太子橋今市","name:en":"Taishibashi-Imaichi","name:ja":"太子橋今市","name:ja_rm":"Taishibashi-Imaichi","name:ko":"다이시바시이마이치","operator":"大阪市高速電気軌道","operator:en":"Osaka Metro","platforms":"2","public_transport":"stop_position","railway":"stop","ref":"T13","subway":"yes","toilets:wheelchair":"yes","wheelchair":"yes","wikidata":"Q1042508","wikipedia":"ja:太子橋今市駅"}},{"type":"node","id":1455848417,"lat":34.6608536,"lon":135.4488366,"tags":{"local_ref":"2","name":"朝潮橋","name:en":"Asashiobashi","name:ja":"朝潮橋","name:ja-Latn":"Asashio-bashi","name:ko":"아사시오바시","public_transport":"stop_position","railway":"stop","ref":"C12","subway":"yes","train":"yes"}},{"type":"node","id":1457300465,"lat":34.6752934,"lon":135.4735453,"tags":{"local_ref":"2","name":"九条","name:en":"Kujō","name:ja":"九条","name:ja-Latn":"Kujō","name:ko":"구조","operator":"大阪市高速電気軌道","operator:en":"Osaka Metro","public_transport":"stop_position","railway":"stop","ref":"C14","subway":"yes","wikidata":"Q1132633","wikipedia":"ja:九条駅 (大阪府)"}},{"type":"node","id":1964006760,"lat":34.6976429,"lon":135.5111732,"tags":{"name":"南森町","name:en":"Minami-Morimachi","public_transport":"stop_position","railway":"stop","subway":"yes","wheelchair":"yes","wikidata":"Q1039923","wikipedia":"ja:南森町駅"}},{"type":"node","id":4451435044,"lat":34.7098048,"lon":135.5106908,"tags":{"level":"-1","local_ref":"2","name":"天神橋筋六丁目","name:en":"Tenjinbashisuji-rokuchome","name:ja":"天神橋筋六丁目","name:ja-Latn":"Tenjimbashisuji-rokuchōme","name:ko":"덴진바시스지6초메","public_transport":"stop_position","railway":"stop","ref":"K11","source":"KSJ2","subway":"yes","wikidata":"Q1143934","wikipedia":"ja:天神橋筋六丁目駅"}},{"type":"node","id":4451876477,"lat":34.7210103,"lon":135.7168012,"tags":{"KSJ2:LIN":"けいはんな線","KSJ2:RAS":"eb03_25","KSJ2:STN":"白庭台","KSJ2:segment":"eb02_21918","name":"白庭台","name:en":"Shiraniwadai","name:ja":"白庭台","name:ko":"시라니와다이","note":"National-Land Numerical Information (Railway) 2007, MLIT Japan","note:ja":"国土数値情報（鉄道データ）平成19年　国土交通省","operator":"近畿日本鉄道","public_transport":"stop_position","railway":"stop","ref":"C28","source":"KSJ2","source_ref":"http://nlftp.mlit.go.jp/ksj/jpgis/datalist/KsjTmplt-N02-v1_1.html","subway":"yes","wikidata":"Q7498268","wikipedia":"ja:白庭台駅"}},{"type":"node","id":4451970055,"lat":34.678583,"lon":135.604899,"tags":{"KSJ2:LIN":"けいはんな線","KSJ2:RAS":"eb03_22","KSJ2:STN":"荒本","KSJ2:segment":"eb02_21913","name":"荒本","name:en":"Aramoto","name:ja":"荒本","name:ko":"아라모토","note":"National-Land Numerical Information (Railway) 2007, MLIT Japan","note:ja":"国土数値情報（鉄道データ）平成19年　国土交通省","operator":"近畿日本鉄道","public_transport":"stop_position","railway":"stop","ref":"C24","source":"KSJ2","source_ref":"http://nlftp.mlit.go.jp/ksj/jpgis/datalist/KsjTmplt-N02-v1_1.html","subway":"yes","wikidata":"Q4784030","wikipedia":"ja:荒本駅"}},{"type":"node","id":4800705875,"lat":34.7328996,"lon":135.4986181,"tags":{"local_ref":"1","name":"新大阪","name:en":"Shin-Osaka","name:ja":"新大阪","name:ja-Latn":"Shin-Ōsaka","name:ko":"신오사카","network":"大阪市営地下鉄","operator":"大阪市交通局","public_transport":"stop_position","railway":"stop","ref":"M13","subway":"yes","wheelchair":"yes"}},{"type":"node","id":4800705876,"lat":34.7328914,"lon":135.498469,"tags":{"local_ref":"2","name":"新大阪","name:en":"Shin-Osaka","name:ja":"新大阪","name:ja-Latn":"Shin-Ōsaka","name:ko":"신오사카","network":"大阪市営地下鉄","operator":"大阪市交通局","public_transport":"stop_position","railway":"stop","ref":"M13","subway":"yes","wheelchair":"yes"}},{"type":"node","id":5470490421,"lat":34.6539654,"lon":135.4344007,"tags":{"local_ref":"1","name":"大阪港","name:en":"Ōsakakō","name:ja":"大阪港","name:ja-Hira":"おおさかこう","name:ja-Latn":"Ōsaka-kō","name:ko":"오사카코","public_transport":"stop_position","railway":"stop","ref":"C11","subway":"yes"}},{"type":"node","id":5599894640,"lat":34.8218342,"lon":135.4902827,"tags":{"local_ref":"1","name":"箕面船場阪大前","name:en":"Minoh-semba handai-mae","public_transport":"stop_position","railway":"stop","subway":"yes"}},{"type":"node","id":5647131994,"lat":34.6538844,"lon":135.4344367,"tags":{"local_ref":"2","name":"大阪港","name:en":"Ōsakakō","name:ja":"大阪港","name:ja-Hira":"おおさかこう","name:ja-Latn":"Ōsaka-kō","name:ko":"오사카코","public_transport":"stop_position","railway":"stop","ref":"C11","subway":"yes"}},{"type":"node","id":5730564865,"lat":34.6827698,"lon":135.4969235,"tags":{"int_name":"Hommachi","local_ref":"1","name":"本町","name:en":"Hommachi","name:ja":"本町","name:ja-Latn":"Hommachi","name:ko":"혼마치","operator":"大阪市高速電気軌道","operator:en":"Osaka Metro","operator:ja":"大阪市高速電気軌道","platforms":"2","public_transport":"stop_position","railway":"stop","ref":"Y13","subway":"yes","wikidata":"Q1134631","wikipedia":"ja:本町駅"}},{"type":"node","id":5730565139,"lat":34.6835429,"lon":135.5006457,"tags":{"int_name":"Hommachi","local_ref":"2","name":"本町","name:en":"Hommachi","name:ja":"本町","name:ja-Latn":"Hommachi","name:ko":"혼마치","operator":"大阪市高速電気軌道","operator:en":"Osaka Metro","platforms":"2","public_transport":"stop_position","railway":"stop","ref":"M18","subway":"yes","wheelchair":"yes","wikidata":"Q1134631","wikipedia":"ja:本町駅"}},{"type":"node","id":5732164218,"lat":34.6916363,"lon":135.5009259,"tags":{"int_name":"Yodoyabashi","local_ref":"2","name":"淀屋橋","name:en":"Yodoyabashi","name:ja":"淀屋橋","name:ja-Latn":"Yodoyabashi","name:ko":"요도야바시","operator":"大阪市高速電気軌道","operator:en":"Osaka Metro","platforms":"2","public_transport":"stop_position","railway":"stop","ref":"M17","subway":"yes","wheelchair":"yes","wikidata":"Q1131721","wikipedia":"ja:淀屋橋駅"}},{"type":"node","id":6621493574,"lat":34.6426716,"lon":135.4121727,"tags":{"alt_name:en":"Cosmosquare","level":"-2","local_ref":"1","name":"コスモスクエア","name:en":"Cosmo Square","name:ja":"コスモスクエア","name:ko":"코스모스퀘어","name:zh":"宇宙广场","network":"Osaka Metro","not:light_rail":"yes","operator":"大阪市高速電気軌道","operator:en":"Osaka Metro","operator:ja":"大阪市高速電気軌道","public_transport":"stop_position","railway":"stop","ref":"C10","subway":"yes","wikidata":"Q1136734","wikipedia":"ja:コスモスクエア駅"}},{"type":"node","id":6621530410,"lat":34.6425613,"lon":135.412233,"tags":{"alt_name:en":"Cosmosquare","level":"-2","local_ref":"2","name":"コスモスクエア","name:en":"Cosmo Square","name:ja":"コスモスクエア","name:ko":"코스모스퀘어","name:zh":"宇宙广场","network":"Osaka Metro","not:light_rail":"yes","operator":"大阪市高速電気軌道","operator:en":"Osaka Metro","operator:ja":"大阪市高速電気軌道","public_transport":"stop_position","railway":"stop","ref":"C10","subway":"yes","wikidata":"Q1136734","wikipedia":"ja:コスモスクエア駅"}},{"type":"node","id":6734976278,"lat":34.8098942,"lon":135.495112,"tags":{"int_name":"Senri-Chūō","local_ref":"1","name":"千里中央","name:en":"Senri-Chūō","name:ja":"千里中央","name:ja_rm":"Senri-Chūō","name:ko":"센리추오","public_transport":"stop_position","railway":"stop","ref":"M08","subway":"yes","wikidata":"Q2056658","wikipedia":"ja:千里中央駅"}},{"type":"node","id":7397873166,"lat":34.7588638,"lon":135.4971624,"tags":{"local_ref":"1","name":"江坂","name:en":"Esaka","name:es":"Esaka","name:ja":"江坂","name:ja-Latn":"Esaka","name:ko":"에사카","public_transport":"stop_position","railway":"stop","ref":"M11","subway":"yes"}},{"type":"node","id":7397873167,"lat":34.7588648,"lon":135.4970353,"tags":{"local_ref":"2","name":"江坂","name:en":"Esaka","name:es":"Esaka","name:ja":"江坂","name:ja-Latn":"Esaka","name:ko":"에사카","public_transport":"stop_position","railway":"stop","ref":"M11","subway":"yes"}},{"type":"node","id":7756610829,"lat":34.6684026,"lon":135.4621007,"tags":{"local_ref":"2","name":"弁天町","name:en":"Bentencho","name:ja":"弁天町","name:ja-Latn":"Bentenchō","name:ko":"벤텐초","operator":"大阪市高速電気軌道","operator:en":"Osaka Metro","public_transport":"stop_position","railway":"stop","ref":"C13","subway":"yes","wikidata":"Q1131017","wikipedia":"ja:弁天町駅"}},{"type":"node","id":7811929015,"lat":34.7266373,"lon":135.4985747,"tags":{"int_name":"Nishinakajima-Minamigata","local_ref":"2","name":"西中島南方","name:en":"Nishinakajima-Minamigata","name:ja":"西中島南方","name:ja-Latn":"Nishinakajima Minamigata","name:ko":"니시나카지마미나미가타","operator":"大阪市高速電気軌道","operator:en":"Osaka Metro","platforms":"2","public_transport":"stop_position","railway":"stop","ref":"M14","source":"KSJ2","subway":"yes","wheelchair":"yes","wikidata":"Q1136738","wikipedia":"ja:西中島南方駅"}},{"type":"node","id":7811929023,"lat":34.6562418,"lon":135.4979568,"tags":{"int_name":"Daikokuchō","local_ref":"1","name":"大国町","name:en":"Daikokucho","name:ja":"大国町","name:ja-Latn":"Daikokuchō","name:ko":"다이코쿠초","operator":"大阪市高速電気軌道","operator:en":"Osaka Metro","platforms":"4","public_transport":"stop_position","railway":"stop","ref":"M21","subway":"yes"}},{"type":"node","id":7811929027,"lat":34.6460991,"lon":135.515278,"tags":{"int_name":"Tennōji","local_ref":"1","name":"天王寺","name:en":"Tennoji","name:es":"Tennoji","name:ja":"天王寺","name:ja-Latn":"Tennōji","name:ko":"덴노지","network":"Osaka Metro御堂筋線","operator":"大阪市高速電気軌道","operator:en":"Osaka Metro","public_transport":"stop_position","railway":"stop","ref":"M23","subway":"yes","wheelchair":"yes"}},{"type":"node","id":7811929049,"lat":34.6331228,"lon":135.5169549,"tags":{"int_name":"Shōwachō","local_ref":"1","name":"昭和町","name:en":"Showacho","name:ja":"昭和町","name:ja_rm":"Shōwachō","name:ko":"쇼와초","operator":"大阪市高速電気軌道","operator:en":"Osaka Metro","public_transport":"stop_position","railway":"stop","ref":"M24","subway":"yes"}},{"type":"node","id":7811929062,"lat":34.6215517,"lon":135.5151872,"tags":{"int_name":"Nishitanabe","local_ref":"1","name":"西田辺","name:en":"Nishi-Tanabe","name:ja":"西田辺","name:ja-Latn":"Nishi-Tanabe","name:ko":"니시타나베","operator":"大阪市高速電気軌道","operator:en":"Osaka Metro","public_transport":"stop_position","railway":"stop","ref":"M25","subway":"yes"}},{"type":"node","id":7811929071,"lat":34.6090138,"lon":135.5137176,"tags":{"int_name":"Nagai","local_ref":"1","name":"長居","name:en":"Nagai","name:ja":"長居","name:ja-Hira":"ながい","name:ja-Latn":"Nagai","name:ko":"나가이","operator":"大阪市高速電気軌道","operator:en":"Osaka Metro","public_transport":"stop_position","railway":"stop","ref":"M26","subway":"yes"}},{"type":"node","id":7811929079,"lat":34.5990834,"lon":135.5128122,"tags":{"int_name":"Abiko","local_ref":"1","name":"あびこ","name:en":"Abiko","name:ja":"あびこ","name:ja-Latn":"Abiko","name:ko":"아비코","network":"御堂筋線","operator":"大阪市高速電気軌道","operator:en":"Osaka Metro","public_transport":"stop_position","railway":"stop","ref":"M27","subway":"yes"}},{"type":"node","id":7811944999,"lat":34.5822821,"lon":135.5164364,"tags":{"int_name":"Kitahanada","local_ref":"1","name":"北花田","name:en":"Kita-Hanada","name:ja":"北花田","name:ja-Latn":"Kita Hanada","name:ko":"기타하나다","operator":"大阪市高速電気軌道","operator:en":"Osaka Metro","public_transport":"stop_position","railway":"stop","ref":"M28","source:geometry":"GSImaps/std;survey;GSImaps/ort","subway":"yes"}},{"type":"node","id":7811945009,"lat":34.5684803,"lon":135.5153965,"tags":{"int_name":"Shinkanaoka","local_ref":"1","name":"新金岡","name:en":"Shin-Kanaoka","name:ja":"新金岡","name:ja-Latn":"Shin-Kanaoka","name:ko":"신카나오카","operator":"大阪市高速電気軌道","operator:en":"Osaka Metro","public_transport":"stop_position","railway":"stop","ref":"M29","source:geometry":"GSImaps/std;survey;GSImaps/ort","subway":"yes"}},{"type":"node","id":7811945026,"lat":34.5562904,"lon":135.5062575,"tags":{"int_name":"Nakamozu","local_ref":"1","name":"なかもず","name:en":"Nakamozu","name:ja":"中百舌鳥","name:ja-Latn":"Nakamozu","name:ko":"나카모즈","operator":"大阪市高速電気軌道","operator:en":"Osaka Metro","public_transport":"stop_position","railway":"stop","ref":"M30","subway":"yes"}},{"type":"node","id":7811945033,"lat":34.711026,"lon":135.4968501,"tags":{"int_name":"Nakatsu","local_ref":"1","name":"中津","name:en":"Nakatsu","name:ja":"中津","name:ja-Hira":"なかつ","name:ja-Latn":"Nakatsu","name:ko":"나카쓰","operator":"大阪市高速電気軌道","operator:en":"Osaka Metro","platforms":"2","public_transport":"stop_position","railway":"stop","ref":"M15","subway":"yes","wheelchair":"limited","wikidata":"Q2520333","wikipedia":"ja:中津駅 (Osaka Metro)"}},{"type":"node","id":7811945042,"lat":34.7034172,"lon":135.4976136,"tags":{"int_name":"Umeda","local_ref":"1","name":"梅田","name:en":"Umeda","name:es":"Umeda","name:ja":"梅田","name:ja-Latn":"Umeda","name:ko":"우메다","network":"大阪市営地下鉄御堂筋線","operator":"大阪市高速電気軌道","operator:en":"Osaka Metro","platforms":"2","public_transport":"stop_position","railway":"stop","ref":"M16","subway":"yes","wheelchair":"yes","wikidata":"Q20023053","wikipedia":"ja:大阪梅田駅 (阪急)"}},{"type":"node","id":7811945063,"lat":34.6916379,"lon":135.5009817,"tags":{"int_name":"Yodoyabashi","local_ref":"1","name":"淀屋橋","name:en":"Yodoyabashi","name:ja":"淀屋橋","name:ja-Latn":"Yodoyabashi","name:ko":"요도야바시","operator":"大阪市高速電気軌道","operator:en":"Osaka Metro","platforms":"2","public_transport":"stop_position","railway":"stop","ref":"M17","subway":"yes","wheelchair":"yes","wikidata":"Q1131721","wikipedia":"ja:淀屋橋駅"}},{"type":"node","id":7811945066,"lat":34.6835415,"lon":135.5006949,"tags":{"int_name":"Hommachi","local_ref":"1","name":"本町","name:en":"Hommachi","name:ja":"本町","name:ja-Latn":"Hommachi","name:ko":"혼마치","operator":"大阪市高速電気軌道","operator:en":"Osaka Metro","platforms":"2","public_transport":"stop_position","railway":"stop","ref":"M18","subway":"yes","wheelchair":"yes","wikidata":"Q1134631","wikipedia":"ja:本町駅"}},{"type":"node","id":7811945072,"lat":34.6745178,"lon":135.5003852,"tags":{"int_name":"Shinsaibashi","local_ref":"1","name":"心斎橋","name:en":"Shinsaibashi","name:ja":"心斎橋","name:ja-Latn":"Shinsaibashi","name:ko":"신사이바시","name:zh":"心斎桥","operator":"大阪市高速電気軌道","operator:en":"Osaka Metro","public_transport":"stop_position","railway":"stop","ref":"M19","subway":"yes"}},{"type":"node","id":7811945079,"lat":34.6661554,"lon":135.5002995,"tags":{"int_name":"Namba","local_ref":"1","name":"なんば","name:en":"Namba","name:es":"Namba","name:ja":"なんば","name:ja-Latn":"Namba","name:ko":"난바","name:vi":"namba","name:zh":"難波","official_name":"難波","operator":"大阪市高速電気軌道","operator:en":"Osaka Metro","platforms":"2","public_transport":"stop_position","railway":"stop","ref":"M20","subway":"yes","wheelchair":"yes","wikidata":"Q20080133","wikipedia":"ja:難波駅 (大阪市高速電気軌道)"}},{"type":"node","id":7811945096,"lat":34.6488146,"lon":135.5045554,"tags":{"alt_name:ko":"도부쓰엔마에","int_name":"Dōbutsuen-mae","local_ref":"1","name":"動物園前","name:en":"Dobutsuen-mae","name:ja":"動物園前","name:ja-Latn":"Dōbutsuen-mae","name:ko":"동물원앞","operator":"大阪市高速電気軌道","operator:en":"Osaka Metro","platforms":"2","public_transport":"stop_position","railway":"stop","ref":"M22","subway":"yes","wikidata":"Q1038365","wikipedia":"ja:動物園前駅"}},{"type":"node","id":7811945103,"lat":34.6562413,"lon":135.4977793,"tags":{"int_name":"Daikokuchō","local_ref":"4","name":"大国町","name:en":"Daikokucho","name:ja":"大国町","name:ja-Latn":"Daikokuchō","name:ko":"다이코쿠초","operator":"大阪市高速電気軌道","operator:en":"Osaka Metro","platforms":"4","public_transport":"stop_position","railway":"stop","ref":"M21","subway":"yes"}},{"type":"node","id":7811945104,"lat":34.8098982,"lon":135.4949855,"tags":{"int_name":"Senri-Chūō","local_ref":"2","name":"千里中央","name:en":"Senri-Chūō","name:ja":"千里中央","name:ja_rm":"Senri-Chūō","name:ko":"센리추오","public_transport":"stop_position","railway":"stop","ref":"M08","subway":"yes","wikidata":"Q2056658","wikipedia":"ja:千里中央駅"}},{"type":"node","id":7811945105,"lat":34.7931051,"lon":135.4972611,"tags":{"int_name":"Momoyamadai","name":"桃山台","name:en":"Momoyamadai","name:ja":"桃山台","name:ja-Latn":"Momoyamadai","name:ko":"모모야마다이","public_transport":"stop_position","railway":"stop","ref":"M09","subway":"yes","wheelchair":"yes","wikidata":"Q59341","wikipedia":"ja:桃山台駅"}},{"type":"node","id":7811945107,"lat":34.7754251,"lon":135.4953576,"tags":{"designation":"M10","int_name":"Ryokuchi-kōen","name":"緑地公園","name:en":"Ryokuchi-kōen","name:ja":"緑地公園","name:ja_rm":"Ryokuchi-kōen","name:ko":"료쿠치코엔","public_transport":"stop_position","railway":"stop","subway":"yes","wheelchair":"yes","wikidata":"Q59455","wikipedia":"ja:緑地公園駅"}},{"type":"node","id":7811945110,"lat":34.7411509,"lon":135.4984468,"tags":{"local_ref":"2","name":"東三国","name:en":"Higashi-Mikuni","name:ja":"東三国","name:ja-Latn":"Higashi-Mikuni","name:ko":"히가시미쿠니","public_transport":"stop_position","railway":"stop","ref":"M12","source":"KSJ2","subway":"yes","wikidata":"Q1136561","wikipedia":"ja:東三国駅"}},{"type":"node","id":7893338347,"lat":34.6827731,"lon":135.4968712,"tags":{"int_name":"Hommachi","local_ref":"2","name":"本町","name:en":"Hommachi","name:ja":"本町","name:ja-Latn":"Hommachi","name:ko":"혼마치","operator":"大阪市高速電気軌道","operator:en":"Osaka Metro","operator:ja":"大阪市高速電気軌道","platforms":"2","public_transport":"stop_position","railway":"stop","ref":"Y13","subway":"yes","wikidata":"Q1134631","wikipedia":"ja:本町駅"}},{"type":"node","id":7893338367,"lat":34.691495,"lon":135.4963139,"tags":{"int_name":"Higobashi","name":"肥後橋","name:en":"Higobashi","name:ja":"肥後橋","name:ja_rm":"Higobashi","name:ko":"히고바시","operator":"大阪市高速電気軌道","operator:en":"Osaka Metro","operator:ja":"大阪市高速電気軌道","platforms":"2","public_transport":"stop_position","railway":"stop","ref":"Y12","subway":"yes","wheelchair":"yes","wikidata":"Q126343","wikipedia":"ja:肥後橋駅"}},{"type":"node","id":7893338376,"lat":34.6994836,"lon":135.4956212,"tags":{"int_name":"Nishi-Umeda","name":"西梅田","name:en":"Nishi-Umeda","name:ja":"西梅田","name:ja_rm":"Nishi Umeda","name:ko":"니시우메다","operator":"大阪市高速電気軌道","operator:en":"Osaka Metro","operator:ja":"大阪市高速電気軌道","platforms":"2","public_transport":"stop_position","railway":"stop","ref":"Y11","subway":"yes","toilets:wheelchair":"yes","wheelchair":"yes","wikidata":"Q126023","wikipedia":"ja:西梅田駅"}},{"type":"node","id":7893338379,"lat":34.666319,"lon":135.4975716,"tags":{"int_name":"Namba","local_ref":"2","name":"なんば","name:en":"Namba","name:es":"Namba","name:ja":"なんば","name:ja-Latn":"Namba","name:ko":"난바","name:vi":"namba","name:zh":"難波","network":"Osaka Metro四つ橋線","official_name":"難波","operator":"大阪市高速電気軌道","operator:en":"Osaka Metro","public_transport":"stop_position","railway":"stop","ref":"Y15","subway":"yes","wikidata":"Q20080133","wikipedia":"ja:難波駅 (Osaka Metro)"}},{"type":"node","id":7893381687,"lat":34.6740381,"lon":135.4967318,"tags":{"int_name":"Yotsubashi","name":"四ツ橋","name:en":"Yotsubashi","name:ja":"四ツ橋","name:ja_rm":"Yotsubashi","name:ko":"요쓰바시","operator":"大阪市高速電気軌道","operator:en":"Osaka Metro","operator:ja":"大阪市高速電気軌道","platforms":"2","public_transport":"stop_position","railway":"stop","ref":"Y14","subway":"yes","wheelchair":"yes","wikidata":"Q291023","wikipedia":"ja:四ツ橋駅"}},{"type":"node","id":7944112692,"lat":34.6784001,"lon":135.5719206,"tags":{"local_ref":"1","name":"高井田","name:en":"Takaida","name:ja":"高井田","name:ja-Latn":"Takaida","name:ko":"다카이다","name:zh":"高井田地铁车站","operator":"大阪市高速電気軌道","operator:en":"Osaka Metro","public_transport":"stop_position","railway":"stop","ref":"C22","subway":"yes","train":"yes","wheelchair":"yes","wikidata":"Q126027","wikipedia":"ja:高井田駅 (大阪府東大阪市)"}},{"type":"node","id":7944112703,"lat":34.6791315,"lon":135.5574567,"tags":{"local_ref":"1","name":"深江橋","name:en":"Fukaebashi","name:ja":"深江橋","name:ja-Latn":"Fukae-bashi","name:ko":"후카에바시","name:zh":"中央线深江桥地铁车站","operator":"大阪市高速電気軌道","operator:en":"Osaka Metro","public_transport":"stop_position","railway":"stop","ref":"C21","subway":"yes","wheelchair":"yes","wikidata":"Q126032","wikipedia":"ja:深江橋駅"}},{"type":"node","id":7944112708,"lat":34.6806757,"lon":135.5457466,"tags":{"local_ref":"1","name":"緑橋","name:en":"Midoribashi","name:ja":"緑橋","name:ja-Latn":"Midoribashi","name:ko":"미도리바시","name:zh":"中央线绿桥地铁车站","operator":"大阪市高速電気軌道","operator:en":"Osaka Metro","public_transport":"stop_position","railway":"stop","ref":"C20","subway":"yes","wheelchair":"yes","wikidata":"Q1131699","wikipedia":"ja:緑橋駅"}},{"type":"node","id":7944112719,"lat":34.6814987,"lon":135.5320338,"tags":{"local_ref":"1","name":"森ノ宮","name:en":"Morinomiya","name:ja":"森ノ宮","name:ja-Hira":"もりのみや","name:ja-Latn":"Morinomiya","name:ko":"모리노미야","operator":"大阪市高速電気軌道","operator:en":"Osaka Metro","public_transport":"stop_position","railway":"stop","ref":"C19","subway":"yes","wheelchair":"yes","wikidata":"Q1131146","wikipedia":"ja:森ノ宮駅"}},{"type":"node","id":7944112730,"lat":34.6814704,"lon":135.5174698,"tags":{"local_ref":"1","name":"谷町四丁目","name:en":"Tanimachi 4-chome","name:ja":"谷町四丁目","name:ja-Latn":"Tanimachi Yonchōme","public_transport":"stop_position","railway":"stop","ref":"C18","subway":"yes","wheelchair":"yes","wikidata":"Q1131709","wikipedia":"ja:谷町四丁目駅"}},{"type":"node","id":7944112736,"lat":34.6818955,"lon":135.5069338,"tags":{"name":"堺筋本町","name:en":"Sakaisuji-Hommachi","name:ja":"堺筋本町","name:ja-Latn":"Sakaisuji Hommachi","name:ko":"사카이스지혼마치","operator":"大阪市高速電気軌道","operator:en":"Osaka Metro","public_transport":"stop_position","railway":"stop","ref":"C17","subway":"yes","wheelchair":"yes","wikidata":"Q1074425","wikipedia":"ja:堺筋本町駅"}},{"type":"node","id":7944112740,"lat":34.6820385,"lon":135.49872,"tags":{"local_ref":"1","name":"本町","name:en":"Hommachi","name:ja":"本町","name:ja-Latn":"Hommachi","name:ko":"혼마치","name:zh":"本町地铁车站","operator":"大阪市高速電気軌道","operator:en":"Osaka Metro","public_transport":"stop_position","railway":"stop","ref":"C16","subway":"yes","wheelchair":"yes","wikidata":"Q1134631","wikipedia":"ja:本町駅"}},{"type":"node","id":7944112747,"lat":34.6813788,"lon":135.488091,"tags":{"local_ref":"1","name":"阿波座","name:en":"Awaza","name:ja":"阿波座","name:ja-Latn":"Awaza","name:ko":"아와자","operator":"大阪メトロ","operator:en":"Osaka Metro","public_transport":"stop_position","railway":"stop","ref":"C15","subway":"yes","wheelchair":"yes","wikidata":"Q1134468","wikipedia":"ja:阿波座駅"}},{"type":"node","id":7944112751,"lat":34.6787791,"lon":135.5910607,"tags":{"local_ref":"1","name":"長田","name:en":"Nagata","name:ja":"長田","name:ja-Latn":"Nagata","name:ko":"나가타","operator":"大阪市高速電気軌道","operator:en":"Osaka Metro","public_transport":"stop_position","railway":"stop","ref":"C23","subway":"yes","train":"yes","wikidata":"Q126064","wikipedia":"ja:長田駅 (大阪府)"}},{"type":"node","id":7948009754,"lat":34.6714613,"lon":135.4794668,"tags":{"int_name":"Dome-mae Chiyozaki","name":"ドーム前千代崎","name:en":"Dome-mae Chiyozaki","name:ja":"ドーム前千代崎","name:ja-Hira":"どーむまえちよざき","name:ja_rm":"Dōmu-mae Chiyozaki","name:ko":"돔마에치요자키","old_name":"大阪ドーム前千代崎","operator":"大阪市高速電気軌道","operator:en":"Osaka Metro","platforms":"2","public_transport":"stop_position","railway":"stop","ref":"N12","subway":"yes","wheelchair":"yes","wikidata":"Q666822","wikipedia":"ja:ドーム前千代崎駅"}},{"type":"node","id":7948009768,"lat":34.6757278,"lon":135.4869076,"tags":{"local_ref":"2","name":"西長堀","name:en":"Nishi-Nagahori","name:ja":"西長堀","name:ja-Latn":"Nishi-Nagahori","name:ko":"니시나가호리","operator":"大阪市高速電気軌道","operator:en":"Osaka Metro","platforms":"2","public_transport":"stop_position","railway":"stop","ref":"N13","subway":"yes","wheelchair":"yes","wikidata":"Q304193","wikipedia":"ja:西長堀駅"}},{"type":"node","id":7948009772,"lat":34.6755169,"lon":135.4944753,"tags":{"int_name":"Nishiōhashi","name":"西大橋","name:en":"Nishiohashi","name:ja":"西大橋","name:ja_rm":"Nishiōhashi","name:ko":"니시오하시","operator":"大阪市高速電気軌道","operator:en":"Osaka Metro","platforms":"2","public_transport":"stop_position","railway":"stop","ref":"N14","subway":"yes","wheelchair":"yes","wikidata":"Q112719","wikipedia":"ja:西大橋駅"}},{"type":"node","id":7948009777,"lat":34.6753751,"lon":135.4992026,"tags":{"int_name":"Shinsaibashi","name":"心斎橋","name:en":"Shinsaibashi","name:ja":"心斎橋","name:ja_rm":"Shinsai-bashi","name:ko":"신사이바시","name:zh":"心斎桥","operator":"大阪市高速電気軌道","operator:en":"Osaka Metro","platforms":"2","public_transport":"stop_position","railway":"stop","ref":"N15","subway":"yes","wheelchair":"yes","wikidata":"Q1074440","wikipedia":"ja:心斎橋駅"}},{"type":"node","id":7948009781,"lat":34.6753201,"lon":135.5064405,"tags":{"int_name":"Nagahoribashi","name":"長堀橋","name:en":"Nagahoribashi","name:ja":"長堀橋","name:ja_rm":"Nagahori-bashi","operator":"大阪市高速電気軌道","operator:en":"Osaka Metro","platforms":"2","public_transport":"stop_position","railway":"stop","ref":"N16","subway":"yes","wheelchair":"yes","wikidata":"Q1038083","wikipedia":"ja:長堀橋駅"}},{"type":"node","id":7948033289,"lat":34.6754413,"lon":135.5122159,"tags":{"int_name":"Matsuyamachi","name":"松屋町","name:en":"Matsuyamachi","name:ja":"松屋町","name:ja_rm":"Matsuyamachi","name:ko":"마쓰야마치","operator":"大阪市高速電気軌道","operator:en":"Osaka Metro","platforms":"2","public_transport":"stop_position","railway":"stop","ref":"N17","subway":"yes","wheelchair":"yes","wikidata":"Q126080","wikipedia":"ja:松屋町駅"}},{"type":"node","id":7948033299,"lat":34.676049,"lon":135.5181338,"tags":{"int_name":"Tanimachi Rokuchōme","name":"谷町六丁目","name:en":"Tanimachi 6-chome","name:ja":"谷町六丁目","name:ja_rm":"Tanimachi-roku-chōme","name:ko":"다니마치6초메","operator":"大阪市高速電気軌道","operator:en":"Osaka Metro","platforms":"2","public_transport":"stop_position","railway":"stop","ref":"N18","subway":"yes","wheelchair":"yes","wikidata":"Q1041967","wikipedia":"ja:谷町六丁目駅"}},{"type":"node","id":7948033312,"lat":34.6746356,"lon":135.5304734,"tags":{"int_name":"Tamatsukuri","name":"玉造","name:en":"Tamatsukuri","name:ja":"玉造","name:ja_rm":"Tamatsukuri","name:ko":"다마쓰쿠리","operator":"大阪市高速電気軌道","operator:en":"Osaka Metro","platforms":"2","public_transport":"stop_position","railway":"stop","ref":"N19","subway":"yes","wikidata":"Q1131039","wikipedia":"ja:玉造駅"}},{"type":"node","id":7948033332,"lat":34.6821897,"lon":135.5333548,"tags":{"int_name":"Morinomiya","local_ref":"1","name":"森ノ宮","name:en":"Morinomiya","name:ja":"森ノ宮","name:ja-Latn":"Morinomiya","name:ko":"모리노미야","name:zh":"JR森之宫车站","operator":"大阪市高速電気軌道","operator:en":"Osaka Metro","platforms":"2","public_transport":"stop_position","railway":"stop","ref":"N20","subway":"yes","wheelchair":"yes","wikidata":"Q1131146","wikipedia":"ja:森ノ宮駅"}},{"type":"node","id":7948033342,"lat":34.6924039,"lon":135.5294491,"tags":{"int_name":"Osaka Business Park","name":"大阪ビジネスパーク","name:en":"Osaka Business Park","name:ja":"大阪ビジネスパーク","name:ja_rm":"Ōsaka bizinesu pāku","name:ko":"오사카비즈니스파크","operator":"大阪市高速電気軌道","operator:en":"Osaka Metro","platforms":"2","public_transport":"stop_position","railway":"stop","ref":"N21","subway":"yes","wheelchair":"yes","wikidata":"Q135205","wikipedia":"ja:大阪ビジネスパーク駅"}},{"type":"node","id":7948033352,"lat":34.6975755,"lon":135.5305022,"tags":{"int_name":"Kyōbashi","local_ref":"1","name":"京橋","name:en":"Kyobashi","name:ja":"京橋","name:ja_rm":"Kyōbashi","name:ko":"교바시","operator":"大阪市高速電気軌道","operator:en":"Osaka Metro","platforms":"2","public_transport":"stop_position","railway":"stop","ref":"N22","subway":"yes","wheelchair":"yes","wikidata":"Q123033953","wikipedia":"ja:京橋駅 (大阪府)"}},{"type":"node","id":7948033368,"lat":34.7005788,"lon":135.5484762,"tags":{"int_name":"Gamō-yonchōme","name":"蒲生四丁目","name:en":"Gamo 4-chome","name:ja":"蒲生四丁目","name:ja_rm":"Gamō-yon-chōme","name:ko":"가모4초메","operator":"大阪市高速電気軌道","operator:en":"Osaka Metro","platforms":"2","public_transport":"stop_position","railway":"stop","ref":"N23","subway":"yes","wheelchair":"yes","wikidata":"Q1042492","wikipedia":"ja:蒲生四丁目駅"}},{"type":"node","id":7948033374,"lat":34.7019967,"lon":135.5598873,"tags":{"int_name":"Imafuku-Tsurumi","name":"今福鶴見","name:en":"Imafuku-Tsurumi","name:ja":"今福鶴見","name:ja_rm":"Imafuku-Tsurumi","name:ko":"이마후쿠쓰루미","operator":"大阪市高速電気軌道","operator:en":"Osaka Metro","platforms":"2","public_transport":"stop_position","railway":"stop","ref":"N24","subway":"yes","wheelchair":"yes","wikidata":"Q135348","wikipedia":"ja:今福鶴見駅"}},{"type":"node","id":7948033386,"lat":34.7036534,"lon":135.5734082,"tags":{"int_name":"Yokozutsumi","name":"横堤","name:en":"Yokozutsumi","name:ja":"横堤","name:ja_rm":"Yokozutsumi","name:ko":"요코즈쓰미","operator":"大阪市高速電気軌道","operator:en":"Osaka Metro","platforms":"2","public_transport":"stop_position","railway":"stop","ref":"N25","subway":"yes","wheelchair":"yes","wikidata":"Q135186","wikipedia":"ja:横堤駅"}},{"type":"node","id":7948033401,"lat":34.7109587,"lon":135.5806204,"tags":{"int_name":"Tsurumi-ryokuchi","name":"鶴見緑地","name:en":"Tsurumi-ryokuchi","name:ja":"鶴見緑地","name:ja_rm":"Tsurumi-ryokuchi","name:ko":"쓰루미료쿠치","operator":"大阪市高速電気軌道","operator:en":"Osaka Metro","platforms":"2","public_transport":"stop_position","railway":"stop","ref":"N26","subway":"yes","wheelchair":"yes","wikidata":"Q135181","wikipedia":"ja:鶴見緑地駅"}},{"type":"node","id":7948033416,"lat":34.6655282,"lon":135.4785502,"tags":{"int_name":"Taishō","name":"大正","name:en":"Taisho","name:ja":"大正","name:ja_rm":"Taishō","operator":"大阪市高速電気軌道","operator:en":"Osaka Metro","platforms":"2","public_transport":"stop_position","railway":"stop","ref":"N11","subway":"yes","wikidata":"Q1131158","wikipedia":"ja:大正駅 (大阪府)"}},{"type":"node","id":7948033417,"lat":34.7170733,"lon":135.5930846,"tags":{"int_name":"Kadoma-minami","name":"門真南","name:en":"Kadoma-Minami","name:ja":"門真南","name:ja_rm":"Kadoma Minami","name:ko":"가도마미나미","operator":"大阪市高速電気軌道","operator:en":"Osaka Metro","platforms":"2","public_transport":"stop_position","railway":"stop","ref":"N27","subway":"yes","wheelchair":"yes","wikidata":"Q135207","wikipedia":"ja:門真南駅"}},{"type":"node","id":7956414209,"lat":34.7264941,"lon":135.752186,"tags":{"KSJ2:LIN":"けいはんな線","KSJ2:RAS":"eb03_24","KSJ2:STN":"学研奈良登美ヶ丘","KSJ2:segment":"eb02_21917","name":"学研奈良登美ヶ丘","name:en":"Gakken-Nara-Tomigaoka","name:ja":"学研奈良登美ヶ丘","name:ko":"갓켄나라토미가오카","network":"近畿日本鉄道けいはんな線","note":"National-Land Numerical Information (Railway) 2007, MLIT Japan","note:ja":"国土数値情報（鉄道データ）平成19年　国土交通省","operator":"近畿日本鉄道","public_transport":"stop_position","railway":"stop","ref":"C30","source":"KSJ2","source_ref":"http://nlftp.mlit.go.jp/ksj/jpgis/datalist/KsjTmplt-N02-v1_1.html","subway":"yes","wikidata":"Q5517679","wikipedia":"ja:学研奈良登美ヶ丘駅"}},{"type":"node","id":7956414210,"lat":34.7266192,"lon":135.7521799,"tags":{"KSJ2:LIN":"けいはんな線","KSJ2:RAS":"eb03_24","KSJ2:STN":"学研奈良登美ヶ丘","KSJ2:segment":"eb02_21917","name":"学研奈良登美ヶ丘","name:en":"Gakken-Nara-Tomigaoka","name:ja":"学研奈良登美ヶ丘","name:ko":"갓켄나라토미가오카","network":"近畿日本鉄道けいはんな線","note":"National-Land Numerical Information (Railway) 2007, MLIT Japan","note:ja":"国土数値情報（鉄道データ）平成19年　国土交通省","operator":"近畿日本鉄道","public_transport":"stop_position","railway":"stop","ref":"C30","source":"KSJ2","source_ref":"http://nlftp.mlit.go.jp/ksj/jpgis/datalist/KsjTmplt-N02-v1_1.html","subway":"yes","wikidata":"Q5517679","wikipedia":"ja:学研奈良登美ヶ丘駅"}},{"type":"node","id":7956414211,"lat":34.7248341,"lon":135.7232261,"tags":{"KSJ2:LIN":"けいはんな線","KSJ2:RAS":"eb03_26","KSJ2:STN":"学研北生駒","KSJ2:segment":"eb02_21916","name":"学研北生駒","name:en":"Gakken-Kita-Ikoma","name:ja":"学研北生駒","name:ko":"갓켄키타이코마","name:zh":"学研北生驹","note":"National-Land Numerical Information (Railway) 2007, MLIT Japan","note:ja":"国土数値情報（鉄道データ）平成19年 国土交通省","operator":"近畿日本鉄道","public_transport":"stop_position","railway":"stop","ref":"C29","source":"KSJ2","source_ref":"http://nlftp.mlit.go.jp/ksj/jpgis/datalist/KsjTmplt-N02-v1_1.html","subway":"yes","wikidata":"Q8055973","wikipedia":"ja:学研北生駒駅"}},{"type":"node","id":7956414212,"lat":34.7248154,"lon":135.7232483,"tags":{"KSJ2:LIN":"けいはんな線","KSJ2:RAS":"eb03_26","KSJ2:STN":"学研北生駒","KSJ2:segment":"eb02_21916","name":"学研北生駒","name:en":"Gakken-Kita-Ikoma","name:ja":"学研北生駒","name:ko":"갓켄키타이코마","name:zh":"学研北生驹","note":"National-Land Numerical Information (Railway) 2007, MLIT Japan","note:ja":"国土数値情報（鉄道データ）平成19年 国土交通省","operator":"近畿日本鉄道","public_transport":"stop_position","railway":"stop","ref":"C29","source":"KSJ2","source_ref":"http://nlftp.mlit.go.jp/ksj/jpgis/datalist/KsjTmplt-N02-v1_1.html","subway":"yes","wikidata":"Q8055973","wikipedia":"ja:学研北生駒駅"}},{"type":"node","id":7956414213,"lat":34.6932723,"lon":135.6980818,"tags":{"KSJ2:LIN":"けいはんな線","KSJ2:RAS":"eb03_23","KSJ2:STN":"生駒","KSJ2:segment":"eb02_21910","local_ref":"2","name":"生駒","name:en":"Ikoma","name:ja":"生駒","name:ja-Hira":"いこま","name:ja_rm":"Ikoma","name:ko":"이코마","note":"National-Land Numerical Information (Railway) 2007, MLIT Japan","note:ja":"国土数値情報（鉄道データ）平成19年 国土交通省","public_transport":"stop_position","railway":"stop","ref":"C27","source":"KSJ2","source_ref":"http://nlftp.mlit.go.jp/ksj/jpgis/datalist/KsjTmplt-N02-v1_1.html","subway":"yes","wheelchair":"yes","wikidata":"Q5996117","wikipedia":"ja:生駒駅"}},{"type":"node","id":7956414214,"lat":34.6933716,"lon":135.6980683,"tags":{"KSJ2:LIN":"けいはんな線","KSJ2:RAS":"eb03_23","KSJ2:STN":"生駒","KSJ2:segment":"eb02_21910","local_ref":"1","name":"生駒","name:en":"Ikoma","name:ja":"生駒","name:ja-Hira":"いこま","name:ja_rm":"Ikoma","name:ko":"이코마","note":"National-Land Numerical Information (Railway) 2007, MLIT Japan","note:ja":"国土数値情報（鉄道データ）平成19年 国土交通省","public_transport":"stop_position","railway":"stop","ref":"C27","source":"KSJ2","source_ref":"http://nlftp.mlit.go.jp/ksj/jpgis/datalist/KsjTmplt-N02-v1_1.html","subway":"yes","wheelchair":"yes","wikidata":"Q5996117","wikipedia":"ja:生駒駅"}},{"type":"node","id":7956414217,"lat":34.6802344,"lon":135.640881,"tags":{"KSJ2:LIN":"けいはんな線","KSJ2:RAS":"eb03_19","KSJ2:STN":"新石切","KSJ2:segment":"eb02_21903","name":"新石切","name:en":"Shin-Ishikiri","name:ja":"新石切","name:ko":"신이시키리","note":"National-Land Numerical Information (Railway) 2007, MLIT Japan","note:ja":"国土数値情報（鉄道データ）平成19年　国土交通省","operator":"近畿日本鉄道","public_transport":"stop_position","railway":"stop","ref":"C26","source":"KSJ2","source_ref":"http://nlftp.mlit.go.jp/ksj/jpgis/datalist/KsjTmplt-N02-v1_1.html","subway":"yes","wikidata":"Q7497096","wikipedia":"ja:新石切駅"}},{"type":"node","id":7956414218,"lat":34.6802493,"lon":135.6230088,"tags":{"KSJ2:LIN":"けいはんな線","KSJ2:RAS":"eb03_21","KSJ2:STN":"吉田","KSJ2:segment":"eb02_21904","name":"吉田","name:en":"Yoshita","name:ja":"吉田","name:ko":"요시타","note":"National-Land Numerical Information (Railway) 2007, MLIT Japan","note:ja":"国土数値情報（鉄道データ）平成19年　国土交通省","operator":"近畿日本鉄道","public_transport":"stop_position","railway":"stop","ref":"C25","source":"KSJ2","source_ref":"http://nlftp.mlit.go.jp/ksj/jpgis/datalist/KsjTmplt-N02-v1_1.html","subway":"yes","wikidata":"Q8055962","wikipedia":"ja:吉田駅 (大阪府)"}},{"type":"node","id":7956414219,"lat":34.6802873,"lon":135.6230041,"tags":{"KSJ2:LIN":"けいはんな線","KSJ2:RAS":"eb03_21","KSJ2:STN":"吉田","KSJ2:segment":"eb02_21904","name":"吉田","name:en":"Yoshita","name:ja":"吉田","name:ko":"요시타","note":"National-Land Numerical Information (Railway) 2007, MLIT Japan","note:ja":"国土数値情報（鉄道データ）平成19年　国土交通省","operator":"近畿日本鉄道","public_transport":"stop_position","railway":"stop","ref":"C25","source":"KSJ2","source_ref":"http://nlftp.mlit.go.jp/ksj/jpgis/datalist/KsjTmplt-N02-v1_1.html","subway":"yes","wikidata":"Q8055962","wikipedia":"ja:吉田駅 (大阪府)"}},{"type":"node","id":7956414221,"lat":34.678627,"lon":135.6048978,"tags":{"KSJ2:LIN":"けいはんな線","KSJ2:RAS":"eb03_22","KSJ2:STN":"荒本","KSJ2:segment":"eb02_21913","name":"荒本","name:en":"Aramoto","name:ja":"荒本","name:ko":"아라모토","note":"National-Land Numerical Information (Railway) 2007, MLIT Japan","note:ja":"国土数値情報（鉄道データ）平成19年　国土交通省","operator":"近畿日本鉄道","public_transport":"stop_position","railway":"stop","ref":"C24","source":"KSJ2","source_ref":"http://nlftp.mlit.go.jp/ksj/jpgis/datalist/KsjTmplt-N02-v1_1.html","subway":"yes","wikidata":"Q4784030","wikipedia":"ja:荒本駅"}},{"type":"node","id":8005451543,"lat":34.60874,"lon":135.4730773,"tags":{"alt_name:ko":"스미노에코엔","int_name":"Suminoekōen","name":"住之江公園","name:en":"Suminoekoen","name:ja":"住之江公園","name:ja-Hira":"すみのえこうえん","name:ja_rm":"Suminoekōen","name:ko":"스미노에공원","operator":"大阪市高速電気軌道","operator:en":"Osaka Metro","platforms":"2","public_transport":"stop_position","railway":"stop","ref":"Y21","subway":"yes","wikidata":"Q126046","wikipedia":"ja:住之江公園駅"}},{"type":"node","id":8005451562,"lat":34.6213305,"lon":135.4794095,"tags":{"int_name":"Kitakagaya","name":"北加賀屋","name:en":"Kitakagaya","name:ja":"北加賀屋","name:ja_rm":"Kitakagaya","name:ko":"기타카가야","operator":"大阪市高速電気軌道","operator:en":"Osaka Metro","operator:ja":"大阪市高速電気軌道","platforms":"2","public_transport":"stop_position","railway":"stop","ref":"Y20","subway":"yes","wheelchair":"yes","wikidata":"Q126335","wikipedia":"ja:北加賀屋駅"}},{"type":"node","id":8005451576,"lat":34.6237848,"lon":135.4903816,"tags":{"int_name":"Tamade","name":"玉出","name:en":"Tamade","name:ja":"玉出","name:ja_rm":"Tamade","name:ko":"다마데","operator":"大阪市高速電気軌道","operator:en":"Osaka Metro","operator:ja":"大阪市高速電気軌道","platforms":"2","public_transport":"stop_position","railway":"stop","ref":"Y19","subway":"yes","wikidata":"Q125822","wikipedia":"ja:玉出駅"}},{"type":"node","id":8005455785,"lat":34.6344204,"lon":135.4938351,"tags":{"int_name":"Kishinosato","name":"岸里","name:en":"Kishinosato","name:ja":"岸里","name:ja_rm":"Kishinosato","name:ko":"기시노사토","operator":"大阪市高速電気軌道","operator:en":"Osaka Metro","operator:ja":"大阪市高速電気軌道","platforms":"2","public_transport":"stop_position","railway":"stop","ref":"Y18","subway":"yes","wikidata":"Q126082","wikipedia":"ja:岸里駅"}},{"type":"node","id":8005455792,"lat":34.6442969,"lon":135.4965462,"tags":{"int_name":"Hanazonochō","name":"花園町","name:en":"Hanazonocho","name:ja":"花園町","name:ja_rm":"Hanazonochō","name:ko":"하나조노초","operator":"大阪市高速電気軌道","operator:en":"Osaka Metro","platforms":"2","public_transport":"stop_position","railway":"stop","ref":"Y17","subway":"yes","wikidata":"Q126102","wikipedia":"ja:花園町駅"}},{"type":"node","id":8005455801,"lat":34.6562415,"lon":135.4978373,"tags":{"int_name":"Daikokuchō","local_ref":"3","name":"大国町","name:en":"Daikokucho","name:ja":"大国町","name:ja-Latn":"Daikokuchō","name:ko":"다이코쿠초","operator":"大阪市高速電気軌道","operator:en":"Osaka Metro","platforms":"4","public_transport":"stop_position","railway":"stop","ref":"Y16","subway":"yes"}},{"type":"node","id":8256777207,"lat":34.5972801,"lon":135.5825081,"tags":{"int_name":"Yaominami","name":"八尾南","name:en":"Yao-Minami","name:ja":"八尾南","name:ja_rm":"Yao-minami","operator":"大阪市高速電気軌道","operator:en":"Osaka Metro","platforms":"2","public_transport":"stop_position","railway":"stop","ref":"T36","subway":"yes","toilets:wheelchair":"yes","wheelchair":"yes","wikidata":"Q151767","wikipedia":"ja:八尾南駅"}},{"type":"node","id":8256784325,"lat":34.708993,"lon":135.5258559,"tags":{"int_name":"Miyakojima","name":"都島","name:en":"Miyakojima","name:ja":"都島","name:ja_rm":"Miyakojima","operator":"大阪市高速電気軌道","operator:en":"Osaka Metro","platforms":"2","public_transport":"stop_position","railway":"stop","ref":"T17","subway":"yes","wheelchair":"yes","wikidata":"Q83604","wikipedia":"ja:都島駅"}},{"type":"node","id":8256784337,"lat":34.709411,"lon":135.5385567,"tags":{"int_name":"Noe-Uchindai","name":"野江内代","name:en":"Noe-Uchindai","name:ja":"野江内代","name:ja_rm":"Noe-Uchindai","name:ko":"노에우친다이","operator":"大阪市高速電気軌道","operator:en":"Osaka Metro","platforms":"2","public_transport":"stop_position","railway":"stop","ref":"T16","subway":"yes","train":"no","wheelchair":"yes","wikidata":"Q83607","wikipedia":"ja:野江内代駅"}},{"type":"node","id":8256784347,"lat":34.7153528,"lon":135.5458083,"tags":{"int_name":"Sekime-Takadono","name":"関目高殿","name:en":"Sekime-Takadono","name:ja":"関目高殿","name:ja_rm":"Sekime-Takadono","name:ko":"세키메타카도노","operator":"大阪市高速電気軌道","operator:en":"Osaka Metro","platforms":"2","public_transport":"stop_position","railway":"stop","ref":"T15","subway":"yes","train":"no","wikidata":"Q83606","wikipedia":"ja:関目高殿駅"}},{"type":"node","id":8256784354,"lat":34.7242281,"lon":135.5492267,"tags":{"int_name":"Sembayashi-Omiya","name":"千林大宮","name:en":"Sembayashi-Omiya","name:ja":"千林大宮","name:ja_rm":"Sembayashi-Ōmiya","name:ko":"센바야시오미야","operator":"大阪市高速電気軌道","operator:en":"Osaka Metro","platforms":"2","public_transport":"stop_position","railway":"stop","ref":"T14","subway":"yes","train":"no","wikidata":"Q83605","wikipedia":"ja:千林大宮駅"}},{"type":"node","id":8256784363,"lat":34.7312416,"lon":135.5546809,"tags":{"int_name":"Taishibashi-Imaichi","name":"太子橋今市","name:en":"Taishibashi-Imaichi","name:ja":"太子橋今市","name:ja_rm":"Taishibashi-Imaichi","name:ko":"다이시바시이마이치","operator":"大阪市高速電気軌道","operator:en":"Osaka Metro","platforms":"2","public_transport":"stop_position","railway":"stop","ref":"T13","subway":"yes","toilets:wheelchair":"yes","wheelchair":"yes","wikidata":"Q1042508","wikipedia":"ja:太子橋今市駅"}},{"type":"node","id":8256784369,"lat":34.7384796,"lon":135.5643638,"tags":{"int_name":"Moriguchi","name":"守口","name:en":"Moriguchi","name:ja":"守口","name:ja_rm":"Moriguchi","operator":"大阪市高速電気軌道","operator:en":"Osaka Metro","platforms":"2","public_transport":"stop_position","railway":"stop","ref":"T12","subway":"yes","wikidata":"Q83608","wikipedia":"ja:守口駅"}},{"type":"node","id":8256784378,"lat":34.7106906,"lon":135.5118787,"tags":{"int_name":"Tenjimbashisuji Rokuchōme","name":"天神橋筋六丁目","name:en":"Tenjinbashisuji 6-chome","name:ja":"天神橋筋六丁目","name:ja_rm":"Tenjinbashisuji-roku-chōme","name:ko":"덴진바시스지6초메","operator":"大阪市高速電気軌道","operator:en":"Osaka Metro","platforms":"2","public_transport":"stop_position","railway":"stop","ref":"T18","subway":"yes","train":"yes","wheelchair":"yes","wikidata":"Q1143934","wikipedia":"ja:天神橋筋六丁目駅"}},{"type":"node","id":8256784380,"lat":34.697555,"lon":135.511164,"tags":{"name":"南森町","name:en":"Minami-Morimachi","public_transport":"stop_position","railway":"stop","subway":"yes","wheelchair":"yes","wikidata":"Q1039923","wikipedia":"ja:南森町駅"}},{"type":"node","id":8256784392,"lat":34.7005887,"lon":135.4997884,"tags":{"int_name":"Higashi-Umeda","name":"東梅田","name:en":"Higashi-Umeda","name:ja":"東梅田","name:ja_rm":"Higashi-Umeda","operator":"大阪市高速電気軌道","operator:en":"Osaka Metro","platforms":"2","public_transport":"stop_position","railway":"stop","ref":"T20","subway":"yes","wheelchair":"yes","wikidata":"Q83600","wikipedia":"ja:東梅田駅"}},{"type":"node","id":8256784405,"lat":34.7072428,"lon":135.5056046,"tags":{"int_name":"Nakazakichō","level":"-1","name":"中崎町","name:en":"Nakazakicho","name:ja":"中崎町","name:ja_rm":"Nakazakichō","network":"Osaka Metro谷町線","operator":"大阪市高速電気軌道","operator:en":"Osaka Metro","platforms":"2","public_transport":"stop_position","railway":"stop","ref":"T19","subway":"yes","wheelchair":"yes","wikidata":"Q83601","wikipedia":"ja:中崎町駅"}},{"type":"node","id":8256784426,"lat":34.6028996,"lon":135.573644,"tags":{"int_name":"Nagahara","name":"長原","name:en":"Nagahara","name:ja":"長原","name:ja_rm":"Nagahara","operator":"大阪市高速電気軌道","operator:en":"Osaka Metro","platforms":"2","public_transport":"stop_position","railway":"stop","ref":"T35","subway":"yes","wikidata":"Q151508","wikipedia":"ja:長原駅 (大阪府)"}},{"type":"node","id":8256784443,"lat":34.6090051,"lon":135.5652295,"tags":{"int_name":"Deto","name":"出戸","name:en":"Deto","name:ja":"出戸","name:ja_rm":"Deto","operator":"大阪市高速電気軌道","operator:en":"Osaka Metro","platforms":"2","public_transport":"stop_position","railway":"stop","ref":"T34","subway":"yes","wikidata":"Q151413","wikipedia":"ja:出戸駅"}},{"type":"node","id":8256784449,"lat":34.6091716,"lon":135.5513607,"tags":{"int_name":"Kire-Uriwari","name":"喜連瓜破","name:en":"Kire-Uriwari","name:ja":"喜連瓜破","name:ja_rm":"Kire-Uriwari","name:ko":"기레우리와리","operator":"大阪市高速電気軌道","operator:en":"Osaka Metro","platforms":"2","public_transport":"stop_position","railway":"stop","ref":"T33","subway":"yes","wikidata":"Q151539","wikipedia":"ja:喜連瓜破駅"}},{"type":"node","id":8256784466,"lat":34.6212646,"lon":135.5485471,"tags":{"int_name":"Hirano","name":"平野","name:en":"Hirano","name:ja":"平野","name:ja_rm":"Hirano","operator":"大阪市高速電気軌道","operator:en":"Osaka Metro","platforms":"2","public_transport":"stop_position","railway":"stop","ref":"T32","subway":"yes","wheelchair":"yes","wikidata":"Q135184","wikipedia":"ja:平野駅 (Osaka Metro)"}},{"type":"node","id":8256784487,"lat":34.6216265,"lon":135.5324965,"tags":{"int_name":"Komagawa-Nakano","name":"駒川中野","name:en":"Komagawa-Nakano","name:ja":"駒川中野","name:ja_rm":"Komagawa-nakano","operator":"大阪市高速電気軌道","operator:en":"Osaka Metro","platforms":"2","public_transport":"stop_position","railway":"stop","ref":"T31","subway":"yes","wheelchair":"yes","wikidata":"Q135198","wikipedia":"ja:駒川中野駅"}},{"type":"node","id":8256784498,"lat":34.6287747,"lon":135.5249873,"tags":{"int_name":"Tanabe","name":"田辺","name:en":"Tanabe","name:ja":"田辺","name:ja_rm":"Tanabe","operator":"大阪市高速電気軌道","operator:en":"Osaka Metro","platforms":"2","public_transport":"stop_position","railway":"stop","ref":"T30","subway":"yes","wheelchair":"yes","wikidata":"Q135203","wikipedia":"ja:田辺駅"}},{"type":"node","id":8256784504,"lat":34.6361462,"lon":135.5179718,"tags":{"int_name":"Fuminosato","name":"文の里","name:en":"Fuminosato","name:ja":"文の里","name:ja_rm":"Fuminosato","name:ko":"후미노사토","operator":"大阪市高速電気軌道","operator:en":"Osaka Metro","platforms":"2","public_transport":"stop_position","railway":"stop","ref":"T29","subway":"yes","wheelchair":"yes","wikidata":"Q29457","wikipedia":"ja:文の里駅"}},{"type":"node","id":8256784521,"lat":34.6424929,"lon":135.5119649,"tags":{"name":"阿倍野","name:en":"Abeno","name:ja":"阿倍野","name:ja_rm":"Abeno","operator":"大阪市高速電気軌道","operator:en":"Osaka Metro","platforms":"2","public_transport":"stop_position","railway":"stop","ref":"T28","subway":"yes","wikidata":"Q135196","wikipedia":"ja:阿倍野駅"}},{"type":"node","id":8256784526,"lat":34.6494344,"lon":135.5135119,"tags":{"int_name":"Tennōji","name":"天王寺","name:en":"Tennoji","name:ja":"天王寺","name:ja_rm":"Tennōji","name:ko":"덴노지","operator":"大阪市高速電気軌道","operator:en":"Osaka Metro","platforms":"2","public_transport":"stop_position","railway":"stop","ref":"T27","subway":"yes","wheelchair":"yes","wikidata":"Q1132328","wikipedia":"ja:天王寺駅"}},{"type":"node","id":8256784539,"lat":34.6588196,"lon":135.5142208,"tags":{"int_name":"Shitennōji-mae Yūhigaoka","name":"四天王寺前夕陽ヶ丘","name:en":"Shitannoji-mae Yuhigaoka","name:ja":"四天王寺前夕陽ヶ丘","name:ja_rm":"Shitennōji-mae Yūhigaoka","operator":"大阪市高速電気軌道","operator:en":"Osaka Metro","platforms":"2","public_transport":"stop_position","railway":"stop","ref":"T26","subway":"yes","wheelchair":"yes","wikidata":"Q83603","wikipedia":"ja:四天王寺前夕陽ヶ丘駅"}},{"type":"node","id":8256784543,"lat":34.6670886,"lon":135.5158133,"tags":{"int_name":"Tanimachi Kyūchōme","name":"谷町九丁目","name:en":"Tanimachi 9-chome","name:ja":"谷町九丁目","name:ja_rm":"Tanimachi-kyū-chōme","name:ko":"다니마치9초메","operator":"大阪市高速電気軌道","operator:en":"Osaka Metro","platforms":"2","public_transport":"stop_position","railway":"stop","ref":"T25","subway":"yes","wheelchair":"yes","wikidata":"Q1041977","wikipedia":"ja:谷町九丁目駅"}},{"type":"node","id":8256784551,"lat":34.6751068,"lon":135.5170408,"tags":{"int_name":"Tanimachi Rokuchome","name":"谷町六丁目","name:en":"Tanimachi 6-chome","name:ja":"谷町六丁目","name:ja_rm":"Tanimachi-roku-chōme","operator":"大阪市高速電気軌道","operator:en":"Osaka Metro","platforms":"2","public_transport":"stop_position","railway":"stop","ref":"T24","subway":"yes","wheelchair":"yes","wikidata":"Q1041967","wikipedia":"ja:谷町六丁目駅"}},{"type":"node","id":8256784555,"lat":34.6823578,"lon":135.5172881,"tags":{"int_name":"Tanimachi Yonchōme","local_ref":"2","name":"谷町四丁目","name:en":"Tanimachi 4-chome","name:ja":"谷町四丁目","name:ja-Latn":"Tanimachi Yonchōme","operator":"大阪市高速電気軌道","operator:en":"Osaka Metro","platforms":"2","public_transport":"stop_position","railway":"stop","ref":"T23","subway":"yes","wheelchair":"yes","wikidata":"Q1131709","wikipedia":"ja:谷町四丁目駅"}},{"type":"node","id":8256784561,"lat":34.68972,"lon":135.517245,"tags":{"int_name":"Temmabashi","name":"天満橋","name:en":"Temmabashi","name:ja":"天満橋","name:ja_rm":"Temmabashi","operator":"大阪市高速電気軌道","operator:en":"Osaka Metro","platforms":"2","public_transport":"stop_position","railway":"stop","ref":"T22","subway":"yes","wheelchair":"yes","wikidata":"Q1043084","wikipedia":"ja:天満橋駅"}},{"type":"node","id":8256784578,"lat":34.7498774,"lon":135.578761,"tags":{"int_name":"Dainichi","name":"大日","name:en":"Dainichi","name:ja":"大日","name:ja_rm":"Dainichi","operator":"大阪市高速電気軌道","operator:en":"Osaka Metro","platforms":"2","public_transport":"stop_position","railway":"stop","ref":"T11","subway":"yes","wikidata":"Q681742","wikipedia":"ja:大日駅"}},{"type":"node","id":8260808084,"lat":34.6486554,"lon":135.5035793,"tags":{"alt_name:ko":"도부쓰엔마에","name":"動物園前","name:en":"Dobutsuen-mae","name:ja":"動物園前","name:ja_rm":"Dōbutsuen-mae","name:ko":"동물원앞","public_transport":"stop_position","railway":"stop","ref":"M22","subway":"yes","wikidata":"Q1038365","wikipedia":"ja:動物園前駅"}},{"type":"node","id":8260808090,"lat":34.6555986,"lon":135.5056863,"tags":{"name":"恵美須町","name:en":"Ebisucho","name:ja":"恵美須町","name:ja_rm":"Ebisu-chō","name:ko":"에비스초","public_transport":"stop_position","railway":"stop","ref":"K18","subway":"yes","wheelchair":"yes","wikidata":"Q2066656","wikipedia":"ja:恵美須町駅"}},{"type":"node","id":8260808100,"lat":34.6667178,"lon":135.5061814,"tags":{"name":"日本橋","name:en":"Nippombashi","name:ja":"日本橋","name:ja_rm":"Nippon-bashi","name:ko":"닛폰바시","public_transport":"stop_position","railway":"stop","subway":"yes","wheelchair":"yes","wikidata":"Q1040630","wikipedia":"ja:日本橋駅 (大阪府)"}},{"type":"node","id":8260808105,"lat":34.6748567,"lon":135.5063511,"tags":{"name":"長堀橋","name:en":"Nagahoribashi","name:ja":"長堀橋","name:ja_rm":"Nagahori-bashi","public_transport":"stop_position","railway":"stop","ref":"K16","subway":"yes","wheelchair":"yes","wikidata":"Q1038083","wikipedia":"ja:長堀橋駅"}},{"type":"node","id":8260808109,"lat":34.6826169,"lon":135.5064858,"tags":{"local_ref":"1","name":"堺筋本町","name:en":"Sakaisuji-Hommachi","name:ja":"堺筋本町","name:ja-Hira":"さかいすじほんまち","name:ja-Latn":"Sakaisuji Hommachi","name:ko":"사카이스지혼마치","public_transport":"stop_position","railway":"stop","ref":"K15","subway":"yes","train":"yes","wheelchair":"yes","wikidata":"Q1074425","wikipedia":"ja:堺筋本町駅"}},{"type":"node","id":8260808114,"lat":34.6911709,"lon":135.5066098,"tags":{"name":"北浜","name:en":"Kitahama","name:ja":"北浜","name:ja_rm":"Kitahama","name:ko":"기타하마","public_transport":"stop_position","railway":"stop","subway":"yes","wheelchair":"yes","wikidata":"Q1042837","wikipedia":"ja:北浜駅 (大阪府)"}},{"type":"node","id":8260835833,"lat":34.6975768,"lon":135.5110359,"tags":{"int_name":"Minami-morimachi","name":"南森町","name:en":"Minami-morimachi;Minami-Morimachi","name:ja":"南森町","name:ja_rm":"Minami-morimachi;Minami-Morimachi","name:ko":"미나미모리마치","operator":"大阪市高速電気軌道","operator:en":"Osaka Metro","platforms":"2","public_transport":"stop_position","railway":"stop","ref":"T21","subway":"yes","wheelchair":"yes","wikidata":"Q1039923","wikipedia":"ja:南森町駅"}},{"type":"node","id":8260835838,"lat":34.7044749,"lon":135.5108719,"tags":{"name":"扇町","name:en":"Ogimachi","name:ja":"扇町","name:ja_rm":"Ōgimachi","name:ko":"오기마치","network":"大阪市営地下鉄堺筋線","operator":"大阪市高速電気軌道","operator:en":"Osaka Metro","public_transport":"stop_position","railway":"stop","subway":"yes","wheelchair":"yes","wikidata":"Q843811","wikipedia":"ja:扇町駅 (大阪府)"}},{"type":"node","id":8260835841,"lat":34.6376745,"lon":135.4971668,"tags":{"name":"天下茶屋","name:en":"Tengachaya","name:ja":"天下茶屋","name:ja_rm":"Tengachaya","name:ko":"덴가차야","public_transport":"stop_position","railway":"stop","ref":"K20","subway":"yes","wikidata":"Q2084603","wikipedia":"ja:天下茶屋駅"}},{"type":"node","id":8260835845,"lat":34.7098099,"lon":135.5108581,"tags":{"level":"-1","local_ref":"1","name":"天神橋筋六丁目","name:en":"Tenjinbashisuji-rokuchome","name:ja":"天神橋筋六丁目","name:ja-Latn":"Tenjimbashisuji-rokuchōme","name:ko":"덴진바시스지6초메","public_transport":"stop_position","railway":"stop","ref":"K11","source":"KSJ2","subway":"yes","wikidata":"Q1143934","wikipedia":"ja:天神橋筋六丁目駅"}},{"type":"node","id":10819025488,"lat":34.821804,"lon":135.4901777,"tags":{"local_ref":"2","name":"箕面船場阪大前","name:en":"Minoh-semba handai-mae","public_transport":"stop_position","railway":"stop","subway":"yes"}},{"type":"node","id":11754833255,"lat":34.8313732,"lon":135.4889956,"tags":{"local_ref":"2","name":"箕面萱野","name:en":"Minoh-kayano","public_transport":"stop_position","railway":"stop","subway":"yes"}},{"type":"node","id":11754833256,"lat":34.8313768,"lon":135.4891286,"tags":{"local_ref":"1","name":"箕面萱野","name:en":"Minoh-kayano","public_transport":"stop_position","railway":"stop","subway":"yes"}},{"type":"node","id":12508256179,"lat":34.7152855,"lon":135.5583018,"tags":{"int_name":"Shimmori-Furuichi","name":"新森古市","name:en":"Shimmori-Furuichi","name:ja":"新森古市","name:ja_rm":"Shimmori Furuichi","name:ko":"신모리후루이치","operator":"大阪市高速電気軌道","operator:en":"Osaka Metro","public_transport":"stop_position","railway":"stop","subway":"yes","wheelchair":"yes"}},{"type":"node","id":12508256182,"lat":34.6814459,"lon":135.5445946,"tags":{"int_name":"Midoribashi","local_ref":"2","name":"緑橋","name:en":"Midoribashi","name:ja":"緑橋","name:ja-Latn":"Midoribashi","name:ko":"미도리바시","operator":"大阪市高速電気軌道","operator:en":"Osaka Metro","platforms":"2","public_transport":"stop_position","railway":"stop","ref":"I20","subway":"yes","wikidata":"Q1131699","wikipedia":"ja:緑橋駅"}},{"type":"node","id":12508256192,"lat":34.6930286,"lon":135.546139,"tags":{"int_name":"Shigino","name":"鴫野","name:en":"Shigino","name:ja":"鴫野","name:ja_rm":"Shigino","name:ko":"시기노","operator":"大阪市高速電気軌道","operator:en":"Osaka Metro","public_transport":"stop_position","railway":"stop","subway":"yes","wheelchair":"yes"}},{"type":"node","id":12508256193,"lat":34.6701679,"lon":135.5430271,"tags":{"int_name":"Imazato","name":"今里","name:en":"Imazato","name:ja":"今里","name:ja_rm":"Imazato","name:ko":"이마자토","operator":"大阪市高速電気軌道","operator:en":"Osaka Metro","platforms":"2","public_transport":"stop_position","railway":"stop","ref":"I21","subway":"yes","wheelchair":"yes","wikidata":"Q949884","wikipedia":"ja:今里駅 (Osaka Metro)"}},{"type":"node","id":12508256200,"lat":34.7009642,"lon":135.5462694,"tags":{"int_name":"Gamō-Yonchōme","name":"蒲生四丁目","name:en":"Gamo 4-chome","name:ja":"蒲生四丁目","name:ja_rm":"Gamō-yon-chōme","name:ko":"가모4초메","operator":"大阪市高速電気軌道","operator:en":"Osaka Metro","platforms":"2","public_transport":"stop_position","railway":"stop","ref":"I18","subway":"yes","wheelchair":"yes","wikidata":"Q1042492","wikipedia":"ja:蒲生四丁目駅"}},{"type":"node","id":12508282308,"lat":34.7130898,"lon":135.5464176,"tags":{"int_name":"Sekime-Sekiiku","name":"関目成育","name:en":"Sekime-Seiiku","name:ja":"関目成育","name:ja_rm":"Sekime Seiiku","name:ko":"세키메세이이쿠","operator":"大阪市高速電気軌道","operator:en":"Osaka Metro","public_transport":"stop_position","railway":"stop","subway":"yes","train":"yes","wheelchair":"yes"}},{"type":"node","id":12508282332,"lat":34.7222702,"lon":135.5607758,"tags":{"int_name":"Shimizu","name":"清水","name:en":"Shimizu","name:ja":"清水","name:ja_rm":"Shimizu","name:ko":"시미즈","operator":"大阪市高速電気軌道","operator:en":"Osaka Metro","public_transport":"stop_position","railway":"stop","subway":"yes","wheelchair":"yes"}},{"type":"node","id":12508282347,"lat":34.7312741,"lon":135.5562082,"tags":{"int_name":"Taishibashi-Imaichi","name":"太子橋今市","name:en":"Taishibashi-Imaichi","name:ja":"太子橋今市","name:ja_rm":"Taishibashi Imaichi","name:ko":"다이시바시이마이치","operator":"大阪市高速電気軌道","operator:en":"Osaka Metro","platforms":"2","public_transport":"stop_position","railway":"stop","ref":"I14","subway":"yes","wheelchair":"yes","wikidata":"Q1042508","wikipedia":"ja:太子橋今市駅"}},{"type":"node","id":12508282358,"lat":34.7600039,"lon":135.5472368,"tags":{"int_name":"Itakano","name":"井高野","name:en":"Itakano","name:ja":"井高野","name:ja_rm":"Itakano","name:ko":"이타카노","operator":"大阪市高速電気軌道","operator:en":"Osaka Metro","public_transport":"stop_position","railway":"stop","subway":"yes"}},{"type":"node","id":12508282371,"lat":34.7439168,"lon":135.5445246,"tags":{"int_name":"Daidō-Toyosato","name":"だいどう豊里","name:en":"Daido-Toyosato","name:ja":"だいどう豊里","name:ja_rm":"Daidō-Toyosato","name:ko":"다이도토요사토","operator":"大阪市高速電気軌道","operator:en":"Osaka Metro","public_transport":"stop_position","railway":"stop","subway":"yes","wheelchair":"yes"}},