{"elements":[{"type":"node","id":2407880827,"lat":36.4562239,"lon":-6.2159928,"tags":{"light_rail":"yes","name":"Ardila","public_transport":"stop_position","railway":"tram_stop","tram":"yes","wheelchair":"yes"}},{"type":"node","id":4036271705,"lat":36.4604209,"lon":-6.2010172,"tags":{"covered":"yes","light_rail":"yes","name":"Compañía de María","public_transport":"platform","railway":"platform","wheelchair":"yes"}},{"type":"node","id":4036271706,"lat":36.4604563,"lon":-6.2010919,"tags":{"covered":"no","light_rail":"yes","name":"Compañía de María","public_transport":"platform","railway":"platform","shelter":"yes","wheelchair":"yes"}},{"type":"node","id":5370182397,"lat":36.4639382,"lon":-6.1984103,"tags":{"light_rail":"yes","name":"Plaza del Rey","public_transport":"stop_position","railway":"tram_stop","tram":"yes","wheelchair":"yes"}},{"type":"node","id":6658374910,"lat":36.4562771,"lon":-6.2159833,"tags":{"light_rail":"yes","name":"Ardila","public_transport":"stop_position","railway":"tram_stop","tram":"yes","wheelchair":"yes"}},{"type":"node","id":7128002973,"lat":36.4639157,"lon":-6.1983711,"tags":{"light_rail":"yes","name":"Plaza del Rey","public_transport":"stop_position","railway":"tram_stop","tram":"yes","wheelchair":"yes"}},{"type":"node","id":7128002982,"lat":36.4662679,"lon":-6.1955602,"tags":{"light_rail":"yes","name":"Plaza de la Iglesia","public_transport":"stop_position","railway":"tram_stop","tram":"yes","wheelchair":"yes"}},{"type":"node","id":7128861698,"lat":36.4662373,"lon":-6.1955357,"tags":{"light_rail":"yes","name":"Plaza de la Iglesia","public_transport":"stop_position","railway":"tram_stop","tram":"yes","wheelchair":"yes"}},{"type":"node","id":7768387866,"lat":36.4943198,"lon":-6.268068,"tags":{"light_rail":"yes","name":"Cortadura","public_transport":"stop_position","railway":"stop","train":"yes"}},{"type":"node","id":7768387867,"lat":36.4943124,"lon":-6.2681125,"tags":{"light_rail":"yes","name":"Cortadura","public_transport":"stop_position","railway":"stop","train":"yes"}},{"type":"node","id":7768387870,"lat":36.5029464,"lon":-6.2720376,"tags":{"light_rail":"yes","name":"Estadio","public_transport":"stop_position","railway":"stop","train":"yes"}},{"type":"node","id":7768387871,"lat":36.5029395,"lon":-6.2720769,"tags":{"light_rail":"yes","name":"Estadio","public_transport":"stop_position","railway":"stop","train":"yes"}},{"type":"node","id":7768387872,"lat":36.5135425,"lon":-6.2769603,"tags":{"light_rail":"yes","name":"Segunda Aguada","public_transport":"stop_position","railway":"stop","train":"yes"}},{"type":"node","id":7768387873,"lat":36.5135335,"lon":-6.277,"tags":{"light_rail":"yes","name":"Segunda Aguada","public_transport":"stop_position","railway":"stop","train":"yes"}},{"type":"node","id":7768387874,"lat":36.521415,"lon":-6.2806102,"tags":{"light_rail":"yes","name":"San Severiano","public_transport":"stop_position","railway":"stop","train":"yes"}},{"type":"node","id":7768387875,"lat":36.5214041,"lon":-6.2806557,"tags":{"light_rail":"yes","name":"San Severiano","public_transport":"stop_position","railway":"stop","train":"yes"}},{"type":"node","id":7768387879,"lat":36.5278352,"lon":-6.2868007,"tags":{"light_rail":"yes","name":"Cádiz","public_transport":"stop_position","railway":"stop","ref":"4","train":"yes"}},{"type":"node","id":7768387881,"lat":36.5277261,"lon":-6.2869605,"tags":{"light_rail":"yes","name":"Cádiz","public_transport":"stop_position","railway":"stop","ref":"6","train":"yes"}},{"type":"node","id":9041092087,"lat":36.4087169,"lon":-6.1342844,"tags":{"light_rail":"yes","name":"Pelagatos","public_transport":"stop_position","railway":"tram_stop"}},{"type":"node","id":9041092088,"lat":36.4086694,"lon":-6.1343039,"tags":{"light_rail":"yes","name":"Pelagatos","public_transport":"stop_position","railway":"tram_stop","wikimedia_commons":"File:Estacion de Pelagatos 2.jpg"}},{"type":"node","id":9041092089,"lat":36.4581785,"lon":-6.2035369,"tags":{"light_rail":"yes","name":"Plaza del Carmen","public_transport":"stop_position","railway":"tram_stop","wheelchair":"yes","wikidata":"Q114853102"}},{"type":"node","id":9041092090,"lat":36.458152,"lon":-6.2035152,"tags":{"light_rail":"yes","name":"Plaza del Carmen","public_transport":"stop_position","railway":"tram_stop","wheelchair":"yes"}},{"type":"node","id":9047993223,"lat":36.457637,"lon":-6.2246735,"tags":{"light_rail":"yes","name":"Río Arillo","public_transport":"stop_position","railway":"stop","ref":"4","wheelchair":"yes"}},{"type":"node","id":9047993224,"lat":36.4574342,"lon":-6.2247071,"tags":{"light_rail":"yes","name":"Río Arillo","public_transport":"stop_position","railway":"stop","ref":"3","wheelchair":"yes"}},{"type":"node","id":10137800730,"lat":36.4559689,"lon":-6.2096334,"tags":{"light_rail":"yes","name":"Santo Entierro","public_transport":"stop_position","railway":"tram_stop","tram":"yes","wheelchair":"yes"}},{"type":"node","id":10137800731,"lat":36.4559144,"lon":-6.2096064,"tags":{"light_rail":"yes","name":"Santo Entierro","public_transport":"stop_position","railway":"tram_stop","tram":"yes","wheelchair":"yes"}},{"type":"node","id":10137800732,"lat":36.4604769,"lon":-6.2010117,"tags":{"light_rail":"yes","name":"Compañía de María","public_transport":"stop_position","railway":"tram_stop","tram":"yes","wheelchair":"yes"}},{"type":"node","id":10137800733,"lat":36.46048,"lon":-6.2010567,"tags":{"light_rail":"yes","name":"Compañía de María","public_transport":"stop_position","railway":"tram_stop","tram":"yes","wheelchair":"yes"}},{"type":"node","id":10137800739,"lat":36.4677261,"lon":-6.1910765,"tags":{"name":"Venta de Vargas","public_transport":"stop_position","railway":"tram_stop","tram":"yes","wheelchair":"yes"}},{"type":"node","id":10137800740,"lat":36.4677554,"lon":-6.1910813,"tags":{"name":"Venta de Vargas","public_transport":"stop_position","railway":"tram_stop","tram":"yes","wheelchair":"yes"}},{"type":"node","id":10137800741,"lat":36.4665433,"lon":-6.1756735,"tags":{"light_rail":"yes","name":"Tres Caminos","public_transport":"stop_position","railway":"stop","wheelchair":"no"}},{"type":"node","id":10137800742,"lat":36.4665121,"lon":-6.1756951,"tags":{"light_rail":"yes","name":"Tres Caminos","public_transport":"stop_position","railway":"stop","wheelchair":"no","wikimedia_commons":"File:Estación_de_Tres_Caminos.jpg"}},{"type":"node","id":10137800744,"lat":36.440516,"lon":-6.1444886,"tags":{"light_rail":"yes","name":"Pinar de los Franceses","public_transport":"stop_position","railway":"stop","wheelchair":"yes"}},{"type":"node","id":10137800745,"lat":36.4405108,"lon":-6.1445284,"tags":{"light_rail":"yes","name":"Pinar de los Franceses","public_transport":"stop_position","railway":"stop","wheelchair":"yes","wikimedia_commons":"File:Estación_Pinar_de_los_Franceses.jpg"}},{"type":"node","id":10137800746,"lat":36.4286171,"lon":-6.143358,"tags":{"light_rail":"yes","name":"Marquesado","network":"Consorcio Metropolitano de Transportes de la Bahía de Cádiz","network:metro":"Trambahía","network:metro:wikidata":"Q6151804","network:short":"CMTBC","network:wikidata":"Q5784325","operator":"Renfe","operator:wikidata":"Q2476154","public_transport":"stop_position","railway":"stop","station":"light_rail","wheelchair":"yes"}},{"type":"node","id":10137800747,"lat":36.4286014,"lon":-6.1433179,"tags":{"addr:city":"Chiclana de la Frontera","light_rail":"yes","name":"Marquesado","network":"Consorcio Metropolitano de Transportes de la Bahía de Cádiz","network:metro":"Trambahía","network:metro:wikidata":"Q6151804","network:short":"CMTBC","network:wikidata":"Q5784325","not:network:wikidata":"Q1054739","operator":"Renfe","operator:wikidata":"Q2476154","public_transport":"stop_position","railway":"stop","station":"light_rail","wheelchair":"yes"}},{"type":"node","id":10137800748,"lat":36.4253783,"lon":-6.1445152,"tags":{"light_rail":"yes","name":"Alameda Solano","network":"Trambahía","operator":"Trambahía","public_transport":"stop_position","railway":"tram_stop","tram":"yes","wheelchair":"yes","wikimedia_commons":"File:Estación_Alameda_Solano.jpg"}},{"type":"node","id":10137800749,"lat":36.4253754,"lon":-6.1444672,"tags":{"light_rail":"yes","name":"Alameda Solano","public_transport":"stop_position","railway":"tram_stop","wheelchair":"yes"}},{"type":"node","id":10137800750,"lat":36.4205434,"lon":-6.1447685,"tags":{"light_rail":"yes","name":"Nuestra Señora de los Remedios","public_transport":"stop_position","railway":"tram_stop","tram":"yes","wheelchair":"yes"}},{"type":"node","id":10137800751,"lat":36.4143854,"lon":-6.1431862,"tags":{"light_rail":"yes","name":"Reyes Católicos","public_transport":"stop_position","railway":"tram_stop","wheelchair":"yes"}},{"type":"node","id":10137800752,"lat":36.4143873,"lon":-6.143146,"tags":{"light_rail":"yes","name":"Reyes Católicos","public_transport":"stop_position","railway":"tram_stop","wheelchair":"yes"}},{"type":"node","id":10137800753,"lat":36.411228,"lon":-6.1390878,"tags":{"light_rail":"yes","name":"La Hoya","public_transport":"stop_position","railway":"tram_stop","wheelchair":"yes"}},{"type":"node","id":10137800754,"lat":36.4112577,"lon":-6.1390625,"tags":{"light_rail":"yes","name":"La Hoya","public_transport":"stop_position","railway":"tram_stop","wheelchair":"yes"}},{"type":"node","id":7625834389,"lat":36.4665265,"lon":-6.1756763,"tags":{"light_rail":"yes","name":"Tres Caminos","network":"Cercanías Cádiz","network:metro":"Trambahía","network:metro:wikidata":"Q6151804","network:short":"CMTBC","network:wikidata":"Q1054745","operator":"Renfe","operator:wikidata":"Q2476154","owner":"Agencia de Obra Pública de la Junta de Andalucía","owner:short":"AOPJA","owner:wikidata":"Q1386819","public_transport":"station","railway":"halt","station":"light_rail","wikidata":"Q114853076","wikimedia_commons":"File:Estación_de_Tres_Caminos.jpg"}},{"type":"node","id":12945924645,"lat":36.4562486,"lon":-6.2159886,"tags":{"addr:city":"San Fernando","addr:postcode":"11100","addr:street":"Carretera de la Bateria de la Ardila","light_rail":"yes","name":"Ardila","network":"Cercanías Cádiz","network:metro":"Trambahía","network:metro:wikidata":"Q6151804","network:short":"CMTBC","network:wikidata":"Q1054745","operator":"Renfe","operator:wikidata":"Q2476154","owner":"Agencia de Obra Pública de la Junta de Andalucía","owner:short":"AOPJA","owner:wikidata":"Q1386819","public_transport":"station","railway":"station","station":"light_rail","train":"yes","wheelchair":"yes","wikidata":"Q114853097"}},{"type":"node","id":12945937354,"lat":36.4604777,"lon":-6.2010344,"tags":{"light_rail":"yes","name":"Compañía de María","network":"Cercanías Cádiz","network:metro":"Trambahía","network:metro:wikidata":"Q6151804","network:short":"CMTBC","network:wikidata":"Q1054745","operator":"Renfe","operator:wikidata":"Q2476154","owner":"Agencia de Obra Pública de la Junta de Andalucía","owner:short":"AOPJA","owner:wikidata":"Q1386819","public_transport":"station","railway":"station","station":"light_rail","tram":"yes","wheelchair":"yes","wikidata":"Q114853118"}},{"type":"node","id":12946220351,"lat":36.4559383,"lon":-6.2096205,"tags":{"addr:city":"San Fernando","addr:postcode":"11100","addr:street":"Calle Real","light_rail":"yes","name":"Santo Entierro","network":"Cercanías Cádiz","network:metro":"Trambahía","network:metro:wikidata":"Q6151804","network:short":"CMTBC","network:wikidata":"Q1054745","operator":"Renfe","operator:wikidata":"Q2476154","owner":"Agencia de Obra Pública de la Junta de Andalucía","owner:short":"AOPJA","owner:wikidata":"Q1386819","public_transport":"station","railway":"station","station":"light_rail","wheelchair":"yes","wikidata":"Q114853095"}},{"type":"node","id":12946452764,"lat":36.4581655,"lon":-6.203525,"tags":{"addr:city":"San Fernando","addr:postcode":"11100","light_rail":"yes","name":"Plaza del Carmen","network":"Cercanías Cádiz","network:metro":"Trambahía","network:metro:wikidata":"Q6151804","network:short":"CMTBC","network:wikidata":"Q1054745","operator":"Renfe","operator:wikidata":"Q2476154","owner":"Agencia de Obra Pública de la Junta de Andalucía","owner:short":"AOPJA","owner:wikidata":"Q1386819","public_transport":"station","railway":"station","station":"light_rail","tram":"yes","wheelchair":"yes","wikidata":"Q114853102"}},{"type":"node","id":12946466794,"lat":36.4639284,"lon":-6.1983907,"tags":{"light_rail":"yes","name":"Plaza del Rey","network":"Cercanías Cádiz","network:metro":"Trambahía","network:metro:wikidata":"Q6151804","network:short":"CMTBC","network:wikidata":"Q1054745","operator":"Renfe","operator:wikidata":"Q2476154","owner":"Agencia de Obra Pública de la Junta de Andalucía","owner:short":"AOPJA","owner:wikidata":"Q1386819","public_transport":"station","railway":"halt","station":"light_rail","wheelchair":"yes","wikidata":"Q114853087","wikimedia_commons":"File:Estación Plaza del Rey 0.jpg"}}]}