{"version":0.6,"generator":"Overpass API 0.7.62.11 87bfad18","osm3s":{"timestamp_osm_base":"2026-07-10T09:16:55Z","copyright":"The data included in this document is from www.openstreetmap.org. The data is made available under ODbL."},"elements":[{"type":"node","id":355172696,"lat":37.4187236,"lon":126.9091539,"tags":{"name":"관악","name:en":"Gwanak","name:ja":"クァナク(冠岳)","name:ko":"관악","operator":"한국철도공사","operator:en":"Korea Railroad Corporation","operator:ko":"한국철도공사","operator:short":"KORAIL","operator:type":"public","operator:wikidata":"Q18169","operator:wikipedia":"en:Korail","public_transport":"station","railway":"station","station":"subway","subway":"yes","train":"yes","wheelchair":"limited","wikidata":"Q137184"}},{"type":"node","id":355172808,"lat":37.4943466,"lon":126.8445367,"tags":{"name":"오류동","name:en":"Oryu-dong","name:ja":"オリュドン(梧柳洞)","name:ko":"오류동","network":"수도권 전철","network:en":"Seoul Metropolitan Subway","network:ko":"수도권 전철","network:wikidata":"Q16950","operator":"한국철도공사","operator:en":"Korea Railroad Corporation","operator:ko":"한국철도공사","operator:short":"KORAIL","operator:type":"public","operator:wikidata":"Q18169","operator:wikipedia":"en:Korail","public_transport":"station","railway":"station","station":"subway","subway":"yes","train":"yes","wheelchair":"yes","wikidata":"Q490728","wikipedia":"ko:오류동역"}},{"type":"node","id":355172810,"lat":37.4945934,"lon":126.8587536,"tags":{"name":"개봉","name:en":"Gaebong","name:ja":"開峰","name:ko":"개봉","network":"수도권 전철","network:en":"Seoul Metropolitan Subway","network:ko":"수도권 전철","network:wikidata":"Q16950","operator":"한국철도공사","operator:en":"Korea Railroad Corporation","operator:ko":"한국철도공사","operator:short":"KORAIL","operator:type":"public","operator:wikidata":"Q18169","operator:wikipedia":"en:Korail","public_transport":"station","railway":"station","station":"subway","subway":"yes","train":"yes","wheelchair":"yes","wikidata":"Q490718","wikipedia":"ko:개봉역"}},{"type":"node","id":355172812,"lat":37.4962071,"lon":126.8697062,"tags":{"name":"구일","name:en":"Guil","name:ja":"九一","name:ko":"구일","name:ko-Kana":"クイル","network":"수도권 전철","network:en":"Seoul Metropolitan Subway","network:ko":"수도권 전철","network:wikidata":"Q16950","operator":"한국철도공사","operator:en":"Korea Railroad Corporation","operator:ko":"한국철도공사","operator:short":"KORAIL","operator:type":"public","operator:wikidata":"Q18169","operator:wikipedia":"en:Korail","public_transport":"station","railway":"station","station":"subway","subway":"yes","train":"yes","wheelchair":"limited","wikidata":"Q498013","wikipedia":"ko:구일역"}},{"type":"node","id":355172816,"lat":37.4867775,"lon":126.7639671,"tags":{"name":"중동","name:en":"Jung-dong","name:ja":"チュンドン(中洞)","name:ko":"중동","operator":"한국철도공사","operator:en":"Korea Railroad Corporation","operator:ko":"한국철도공사","operator:short":"KORAIL","operator:type":"public","operator:wikidata":"Q18169","operator:wikipedia":"en:Korail","public_transport":"station","railway":"station","station":"subway","subway":"yes","train":"yes","wheelchair":"yes","wikidata":"Q490563","wikipedia":"ko:중동역 (부천)"}},{"type":"node","id":355172817,"lat":37.4877038,"lon":126.7528847,"tags":{"addr:housenumber":"43","addr:street":"송내대로","alt_name":"송내역","alt_name:en":"Songnae Station","internet_access":"wlan","internet_access:fee":"no","name":"송내","name:en":"Songnae","name:ja":"ソンネ(松内)","name:ko":"송내","name:zh":"松內","public_transport":"station","railway":"station","station":"subway","subway":"yes","train":"yes","wheelchair":"yes","wikidata":"Q490524","wikipedia":"ko:송내역"}},{"type":"node","id":355172821,"lat":37.489454,"lon":126.7245591,"tags":{"name":"부평","name:en":"Bupyeong","name:ja":"富平","name:ko":"부평","name:ko-Kana":"プピョン","name:zh":"富平","operator":"한국철도공사","public_transport":"station","railway":"station","ref":"152","station":"subway","subway":"yes","train":"yes","wheelchair":"yes","wikidata":"Q490474","wikipedia":"ko:부평역"}},{"type":"node","id":355172827,"lat":37.4827657,"lon":126.7955903,"tags":{"alt_name":"소사역","alt_name:en":"Sosa station","internet_access":"wlan","name":"소사","name:ja":"ソサ(素砂)","name:ko":"소사","network":"수도권 전철","network:en":"Seoul Metropolitan Subway","network:ko":"수도권 전철","network:wikidata":"Q16950","operator":"한국철도공사","operator:en":"Korea Railroad Corporation","operator:ko":"한국철도공사","operator:short":"KORAIL","operator:type":"public","operator:wikidata":"Q18169","operator:wikipedia":"en:Korail","public_transport":"station","railway":"station","station":"subway","subway":"yes","train":"yes","wheelchair":"yes","wikidata":"Q490350","wikipedia":"ko:소사역"}},{"type":"node","id":355172828,"lat":37.4841098,"lon":126.7827347,"tags":{"internet_access":"wlan","name":"부천","name:en":"Bucheon","name:ja":"プチョン(富川)","name:ko":"부천","operator":"한국철도공사","operator:en":"Korea Railroad Corporation","operator:ko":"한국철도공사","operator:short":"KORAIL","operator:type":"public","operator:wikidata":"Q18169","operator:wikipedia":"en:Korail","public_transport":"station","railway":"station","station":"subway","subway":"yes","train":"yes","wheelchair":"yes","wikidata":"Q246638","wikipedia":"ko:부천역"}},{"type":"node","id":355172830,"lat":37.4661244,"lon":126.6682641,"tags":{"name":"도화","name:en":"Dohwa","name:ja":"トファ(道禾)","name:ko":"도화","operator":"한국철도공사","operator:en":"Korea Railroad Corporation","operator:ko":"한국철도공사","operator:short":"KORAIL","operator:type":"public","operator:wikidata":"Q18169","operator:wikipedia":"en:Korail","public_transport":"station","railway":"station","station":"subway","subway":"yes","train":"yes","wikidata":"Q490585","wikipedia":"ko:도화역"}},{"type":"node","id":355172832,"lat":37.4668149,"lon":126.6569848,"tags":{"name":"제물포","name:en":"Jemulpo","name:ja":"チェムルポ(済物浦)","name:ko":"제물포","operator":"한국철도공사","operator:en":"Korea Railroad Corporation","operator:ko":"한국철도공사","operator:short":"KORAIL","operator:type":"public","operator:wikidata":"Q18169","operator:wikipedia":"en:Korail","public_transport":"station","railway":"station","station":"subway","subway":"yes","train":"yes","wheelchair":"yes","wikidata":"Q490479","wikipedia":"ko:제물포역"}},{"type":"node","id":355172834,"lat":37.4688261,"lon":126.6424009,"tags":{"name":"도원","name:en":"Dowon","name:ja":"トウォン(桃源)","name:ko":"도원","network":"코레일","network:en":"Korail","network:ko":"코레일","network:wikidata":"Q18169","not:network:wikidata":"Q167674","operator":"한국철도공사","operator:en":"Korea Railroad Corporation","operator:ko":"한국철도공사","operator:short":"KORAIL","operator:type":"public","operator:wikidata":"Q18169","operator:wikipedia":"en:Korail","public_transport":"station","railway":"station","station":"subway","subway":"yes","train":"yes","wheelchair":"yes","wikidata":"Q490515","wikipedia":"ko:도원역"}},{"type":"node","id":355172837,"lat":37.4831229,"lon":126.7071115,"tags":{"name":"백운","name:en":"Baegun","name:ja":"ペグン(白雲)","name:ko":"백운","operator":"한국철도공사","public_transport":"station","railway":"station","station":"subway","subway":"yes","train":"yes","wheelchair":"yes","wikidata":"Q490466","wikipedia":"ko:백운역"}},{"type":"node","id":355172839,"lat":37.4710457,"lon":126.7028769,"tags":{"name":"동암","name:en":"Dongam","name:ja":"トンアム(洞岩)","name:ko":"동암","operator":"한국철도공사","public_transport":"station","railway":"station","station":"subway","subway":"yes","train":"yes","wikidata":"Q490468","wikipedia":"ko:동암역"}},{"type":"node","id":355172843,"lat":37.4650814,"lon":126.6806313,"tags":{"name":"주안","name:en":"Juan","name:ja":"チュアン(朱安)","name:ko":"주안","name:zh":"朱安","operator":"한국철도공사","public_transport":"station","railway":"station","ref":"156","station":"subway","subway":"yes","train":"yes","wheelchair":"yes","wikidata":"Q497944","wikipedia":"ko:주안역"}},{"type":"node","id":1849176201,"lat":37.5280157,"lon":126.9179639,"tags":{"addr:city":"서울특별시","addr:district":"영등포구","addr:housenumber":"지하758","addr:postcode":"07236","addr:street":"국회대로","addr:subdistrict":"여의도동","name":"국회의사당","name:en":"National Assembly","name:ja":"ククェウィサダン(国会議事堂)","name:ko":"국회의사당","name:zh":"国会议事堂","name:zh-Hans":"国会议事堂","name:zh-Hant":"國會議事堂","operator":"서울시메트로9호선","public_transport":"station","railway":"station","station":"subway","subway":"yes","wikidata":"Q59998"}},{"type":"node","id":2444013648,"lat":37.3997869,"lon":126.6304116,"tags":{"addr:city":"인천광역시","addr:country":"KR","addr:district":"연수구","addr:housenumber":"지하334","addr:street":"인천타워대로","addr:subdistrict":"송도동","internet_access":"wlan","name":"국제업무지구","name:en":"International Business District","name:ja":"ククチェオンムジグ(国際業務地区)","name:ko":"국제업무지구","name:zh":"国际业务园区","operator":"인천교통공사","public_transport":"station","railway":"station","ref":"I138","station":"subway","subway":"yes","wikidata":"Q488985"}},{"type":"node","id":2847440772,"lat":37.41638,"lon":126.8846978,"tags":{"addr:city":"광명시","addr:housenumber":"21","addr:province":"경기도","addr:street":"광명역로","highspeed":"yes","internet_access":"wlan","name":"광명","name:en":"Gwangmyeong","name:ja":"クヮンミョン(光明)","name:ko":"광명","network":"코레일","network:en":"Korail","network:ko":"코레일","network:wikidata":"Q18169","not:network:wikidata":"Q167674","operator":"한국철도공사","operator:en":"Korea Railroad Corporation","operator:ko":"한국철도공사","operator:short":"KORAIL","operator:type":"public","operator:wikidata":"Q18169","operator:wikipedia":"en:Korail","public_transport":"station","railway":"station","station":"train","subway":"yes","train":"yes","wikidata":"Q20950","wikipedia":"ko:광명역"}},{"type":"node","id":3152004117,"lat":37.5715012,"lon":126.7358582,"tags":{"name":"계양","name:en":"Gyeyang","name:ja":"ケヤン(桂陽)","name:ko":"계양","name:zh":"桂阳","operator":"인천교통공사","operator:en":"Incheon Transit Corporation","operator:ko":"인천교통공사","operator:type":"public","operator:wikidata":"Q483883","public_transport":"station","railway":"station","ref":"I110","station":"subway","subway":"yes","wheelchair":"yes","wikidata":"Q54261","wikipedia":"ko:계양역"}},{"type":"node","id":3152004119,"lat":37.5663544,"lon":126.7426554,"tags":{"name":"귤현","name:en":"Gyulhyeon","name:ja":"キュルヒョン(橘峴)","name:ko":"귤현","name:zh":"橘岘","operator":"인천교통공사","operator:en":"Incheon Transit Corporation","operator:ko":"인천교통공사","operator:type":"public","operator:wikidata":"Q483883","public_transport":"station","railway":"station","ref":"I111","station":"subway","subway":"yes","wheelchair":"yes","wikidata":"Q491159","wikipedia":"ko:귤현역"}},{"type":"node","id":3216256063,"lat":37.4751286,"lon":126.6330567,"tags":{"internet_access":"wlan","loc_name":"동인천역","loc_name:en":"Dongincheon station","name":"동인천","name:en":"Dongincheon","name:ja":"トンインチョン(東仁川)","name:ko":"동인천","name:ko-Hani":"東仁川","name:zh":"东仁川","name:zh-Hans":"东仁川","name:zh-Hant":"東仁川","not:network:wikidata":"Q167674","operator":"한국철도공사","operator:en":"Korea Railroad Corporation","operator:ko":"한국철도공사","operator:short":"KORAIL","operator:type":"public","operator:wikidata":"Q18169","operator:wikipedia":"en:Korail","public_transport":"station","railway":"station","ref":"160","station":"subway","subway":"yes","train":"yes","wheelchair":"yes","wikidata":"Q498018","wikipedia":"ko:동인천역"}},{"type":"node","id":3218977267,"lat":37.4647335,"lon":126.6935306,"tags":{"name":"간석","name:en":"Ganseok","name:ja":"カンソク(間石)","name:ko":"간석","operator":"한국철도공사","public_transport":"station","railway":"station","station":"subway","subway":"yes","train":"yes","wikidata":"Q490501","wikipedia":"ko:간석역"}},{"type":"node","id":3233869354,"lat":37.4884914,"lon":126.7406058,"tags":{"name":"부개","name:en":"Bugae","name:ja":"プゲ(富開)","name:ko":"부개","operator":"한국철도공사","operator:en":"Korea Railroad Corporation","operator:ko":"한국철도공사","operator:short":"KORAIL","operator:type":"public","operator:wikidata":"Q18169","operator:wikipedia":"en:Korail","public_transport":"station","railway":"station","station":"subway","subway":"yes","train":"yes","wheelchair":"yes","wikidata":"Q490712","wikipedia":"ko:부개역"}},{"type":"node","id":3401205505,"lat":37.5058355,"lon":126.7531743,"tags":{"name":"상동","name:en":"Sang-dong","name:ja":"サンドン(上洞)","name:ko":"상동","operator":"인천교통공사","public_transport":"station","railway":"station","station":"subway","subway":"yes","wheelchair":"yes","wikidata":"Q69073","wikipedia":"ko:상동역 (부천)"}},{"type":"node","id":3832481409,"lat":37.449692,"lon":126.4504519,"tags":{"access":"customers","airside":"yes","light_rail":"yes","name":"제1터미널","name:en":"Terminal 1","name:ja":"第1ターミナル","name:ko":"제1터미널","name:zh":"第1航站樓","operator":"인천공항시설관리","public_transport":"station","railway":"station","station":"light_rail"}},{"type":"node","id":5208486247,"lat":37.4922986,"lon":126.823534,"tags":{"alt_name":"성공회대입구역","alt_name:en":"Sungkonghoe Univ. Station","alt_name:ko":"성공회대입구역","bicycle":"yes","internet_access":"wlan","name":"온수","name:en":"Onsu","name:ja":"オンス(温水)","name:ko":"온수","network":"수도권 전철","network:en":"Seoul Metropolitan Subway","network:ko":"수도권 전철","network:wikidata":"Q16950","operator":"한국철도공사;서울교통공사","public_transport":"station","railway":"station","station":"subway","subway":"yes","wikidata":"Q69040","wikipedia":"ko:온수역"}},{"type":"node","id":5338792760,"lat":37.3375382,"lon":126.7673001,"tags":{"alt_name":"능길","alt_name:en":"Neunggil","alt_ref":"0888","name":"신길온천","name:en":"Singiloncheon","name:ja":"新吉温泉","name:ko":"신길온천","name:zh":"新吉温泉","operator":"한국철도공사","operator:en":"Korea Railroad Corporation","operator:ko":"한국철도공사","operator:short":"KORAIL","operator:type":"public","operator:wikidata":"Q18169","operator:wikipedia":"en:Korail","public_transport":"station","railway":"station","railway:ref":"신길온","ref:KROIS":"210217","ref:XROIS":"3900462","station":"subway","subway":"yes","train":"yes","wikidata":"Q490346","wikipedia":"ko:신길온천역"}},{"type":"node","id":5340678901,"lat":37.6453484,"lon":126.6287215,"tags":{"light_rail":"yes","name":"구래","name:en":"Gurae","name:ja":"クレ(九来)","name:ko":"구래","name:zh":"九來","operator":"김포골드라인SRS","public_transport":"station","railway":"station","ref":"101","station":"light_rail","wheelchair":"yes","wikidata":"Q24864050"}},{"type":"node","id":5347790596,"lat":37.3518096,"lon":126.7429544,"tags":{"internet_access":"wlan","name":"정왕","name:en":"Jeongwang","name:ja":"正往","name:ja-Hira":"チョンワン","name:ko":"정왕","network":"수도권 전철","operator":"한국철도공사","operator:en":"Korea Railroad Corporation","operator:ko":"한국철도공사","operator:short":"KORAIL","operator:type":"public","operator:wikidata":"Q18169","operator:wikipedia":"en:Korail","public_transport":"station","railway":"station","ref":"455;K257","station":"subway","subway":"yes","train":"yes","website":"https://info.korail.com/mbs/www/index.jsp","wikidata":"Q490469","wikipedia":"ko:정왕역"}},{"type":"node","id":5349743238,"lat":37.3160302,"lon":126.8385294,"tags":{"name":"중앙","name:en":"Jungang","name:ja":"中央","name:ja-Hira":"チュンアン","name:ko":"중앙","operator":"한국철도공사","operator:en":"Korea Railroad Corporation","operator:ko":"한국철도공사","operator:short":"KORAIL","operator:type":"public","operator:wikidata":"Q18169","operator:wikipedia":"en:Korail","public_transport":"station","railway":"station","station":"subway","subway":"yes","train":"yes","wikidata":"Q497905","wikipedia":"ko:중앙역 (안산)"}},{"type":"node","id":5426080900,"lat":37.4396565,"lon":126.7596323,"tags":{"light_rail":"yes","name":"운연","name:en":"Unyeon","name:ja":"ウニョン(雲宴)","name:ko":"운연","operator":"인천교통공사","public_transport":"station","railway":"station","station":"light_rail","wikidata":"Q20823481","wikipedia":"ko:운연역"}},{"type":"node","id":5444366645,"lat":37.4351332,"lon":126.9023059,"tags":{"name":"석수","name:en":"Seoksu","name:ja":"ソクス(石水)","name:ko":"석수","operator":"한국철도공사","operator:en":"Korea Railroad Corporation","operator:ko":"한국철도공사","operator:short":"KORAIL","operator:type":"public","operator:wikidata":"Q18169","operator:wikipedia":"en:Korail","public_transport":"station","railway":"station","station":"subway","subway":"yes","train":"yes","wheelchair":"yes","wikidata":"Q137181"}},{"type":"node","id":5444369664,"lat":37.4660736,"lon":126.8894844,"tags":{"name":"독산","name:en":"Doksan","name:ja":"トクサン(禿山)","name:ko":"독산","network":"수도권 전철","network:en":"Seoul Metropolitan Subway","network:ko":"수도권 전철","network:wikidata":"Q16950","operator":"한국철도공사","operator:en":"Korea Railroad Corporation","operator:ko":"한국철도공사","operator:short":"KORAIL","operator:type":"public","operator:wikidata":"Q18169","operator:wikipedia":"en:Korail","public_transport":"station","railway":"station","station":"subway","subway":"yes","train":"yes","wheelchair":"yes","wikidata":"Q137175","wikipedia":"ko:독산역"}},{"type":"node","id":5444507509,"lat":37.4016302,"lon":126.9228826,"tags":{"name":"안양","name:en":"Anyang","name:ja":"アニャン(安養)","name:ko":"안양","network":"코레일","network:en":"Korail","network:ko":"코레일","network:wikidata":"Q18169","not:network:wikidata":"Q167674","operator":"한국철도공사","operator:en":"Korea Railroad Corporation","operator:ko":"한국철도공사","operator:short":"KORAIL","operator:type":"public","operator:wikidata":"Q18169","operator:wikipedia":"en:Korail","public_transport":"station","railway":"station","station":"subway","subway":"yes","train":"yes","wheelchair":"yes","wikidata":"Q54301"}},{"type":"node","id":5448524543,"lat":37.4558132,"lon":126.8939002,"tags":{"alt_ref":"0252","name":"금천구청","name:en":"Geumcheon-gu Office","name:ja":"クムチョングチョン(衿川区庁)","name:ko":"금천구청","network":"수도권 전철","network:en":"Seoul Metropolitan Subway","network:ko":"수도권 전철","network:wikidata":"Q16950","old_name":"시흥","old_name:en":"Siheung","old_name:ko":"시흥","operator":"한국철도공사","operator:en":"Korea Railroad Corporation","operator:ko":"한국철도공사","operator:short":"KORAIL","operator:type":"public","operator:wikidata":"Q18169","operator:wikipedia":"en:Korail","public_transport":"station","railway":"station","railway:ref":"금천구","ref":"P144","ref:AFC":"1703","ref:KROIS":"010173","ref:XROIS":"3900036","station":"subway","subway":"yes","train":"yes","wikidata":"Q54299","wikipedia":"ko:금천구청역"}},{"type":"node","id":5727672637,"lat":37.3619245,"lon":126.7384943,"tags":{"alt_name":"오이도역","alt_name:en":"Oido Station","alt_name:ko-Latn":"Oidoyeok","name":"오이도","name:en":"Oido","name:ja":"烏耳島","name:ja-Hira":"オイド","name:ko":"오이도","name:ko-Latn":"Oido","not:network:wikidata":"Q18169","operator":"한국철도공사","operator:en":"Korea Railroad Corporation","operator:ko":"한국철도공사","operator:short":"KORAIL","operator:type":"public","operator:wikidata":"Q18169","operator:wikipedia":"en:Korail","public_transport":"station","railway":"station","ref":"456;K258","station":"subway","subway":"yes","wikidata":"Q490570","wikipedia":"ko:오이도역"}},{"type":"node","id":5772497241,"lat":37.5619247,"lon":126.8013934,"tags":{"name":"김포공항","name:en":"Gimpo Int'l Airport","name:ja":"キンポゴンハン(金浦空港)","name:ko":"김포공항","name:zh":"金浦机场","operator":"서울교통공사","public_transport":"station","railway":"station","station":"subway","subway":"yes","wheelchair":"yes","wikidata":"Q54263","wikipedia":"ko:김포공항역"}},{"type":"node","id":5774282517,"lat":37.5034468,"lon":126.8825086,"tags":{"addr:city":"서울특별시","addr:district":"구로구","addr:housenumber":"174","addr:postcode":"08213","addr:street":"구로중앙로","addr:subdistrict":"구로동","internet_access":"wlan","name":"구로","name:en":"Guro","name:ja":"九老","name:ko":"구로","name:ko-Kana":"クロ","name:zh":"九老","network":"수도권 전철","network:en":"Seoul Metropolitan Subway","network:ko":"수도권 전철","network:wikidata":"Q16950","operator":"한국철도공사","operator:en":"Korea Railroad Corporation","operator:ko":"한국철도공사","operator:short":"KORAIL","operator:type":"public","operator:wikidata":"Q18169","operator:wikipedia":"en:Korail","public_transport":"station","railway":"station","ref":"141","station":"subway","subway":"yes","train":"yes","wheelchair":"yes","wikidata":"Q497916","wikipedia":"ko:구로역"}},{"type":"node","id":5807729379,"lat":37.4126256,"lon":126.6881558,"tags":{"addr:city":"인천광역시","addr:district":"연수구","addr:housenumber":"195","addr:street":"벚꽃로","addr:subdistrict":"연수동","name":"원인재","name:en":"Woninjae","name:ja":"ウォニンジェ(源仁斎)","name:ko":"원인재","name:zh":"源仁斋","operator":"인천교통공사","public_transport":"station","railway":"station","ref":"I130","station":"subway","subway":"yes","wheelchair":"yes","wikidata":"Q20399","wikipedia":"ko:원인재역"}},{"type":"node","id":5809225533,"lat":37.4572915,"lon":126.7020849,"tags":{"name":"인천시청","name:en":"Incheon City Hall","name:ja":"インチョンシチョン(仁川市庁)","name:ko":"인천시청","name:zh":"仁川市厅","operator":"인천교통공사","public_transport":"station","railway":"station","ref":"I124;I221","station":"subway","subway":"yes","wikidata":"Q491008","wikipedia":"ko:인천시청역"}},{"type":"node","id":5811114444,"lat":37.4782105,"lon":126.9330119,"tags":{"light_rail":"yes","name":"서원","name:en":"Seowon","name:ja":"ソウォン(書院)","name:ko":"서원","operator":"로템SRS","public_transport":"station","railway":"station","start_date":"2022-05-28","station":"light_rail"}},{"type":"node","id":5835544502,"lat":37.515363,"lon":126.9069345,"tags":{"addr:city":"서울특별시","addr:district":"영등포구","addr:housenumber":"846","addr:postcode":"07306","addr:street":"경인로","addr:subdistrict":"영등포동","internet_access":"wlan","internet_access:fee":"no","name":"영등포","name:en":"Yeongdeungpo","name:ja":"永登浦","name:ko":"영등포","name:ko-Kana":"ヨンドゥンポ","name:zh":"永登浦","network":"코레일","network:en":"Korail","network:ko":"코레일","network:wikidata":"Q18169","not:network:wikidata":"Q167674","operator":"한국철도공사","operator:en":"Korea Railroad Corporation","operator:ko":"한국철도공사","operator:short":"KORAIL","operator:type":"public","operator:wikidata":"Q18169","operator:wikipedia":"en:Korail","public_transport":"station","railway":"station","ref":"139","start_date":"1900-07-08","station":"subway","subway":"yes","train":"yes","website":"https://www.letskorail.com/ebizprd/stationKtxView.do?stationSeq=10279285&searchCondition=ktx1","wikidata":"Q43311","wikipedia":"en:Yeongdeungpo Station"}},{"type":"node","id":5840686670,"lat":37.5142381,"lon":126.94204,"tags":{"addr:city":"서울특별시","addr:district":"동작구","addr:housenumber":"151","addr:postcode":"06902","addr:street":"노량진로","addr:subdistrict":"노량진동","internet_access":"wlan","name":"노량진","name:en":"Noryangjin","name:ja":"鷺梁津","name:ja-Hira":"ノリャンジン","name:ko":"노량진","name:zh":"鹭梁津","network":"수도권 전철","network:en":"Seoul Metropolitan Subway","network:ko":"수도권 전철","network:wikidata":"Q16950","operator":"한국철도공사","operator:en":"Korea Railroad Corporation","operator:ko":"한국철도공사","operator:short":"KORAIL","operator:type":"public","operator:wikidata":"Q18169","operator:wikipedia":"en:Korail","public_transport":"station","railway":"station","station":"subway","subway":"yes","train":"yes","wikidata":"Q60001","wikipedia":"ko:노량진역"}},{"type":"node","id":5900362272,"lat":37.5133577,"lon":126.9264784,"tags":{"addr:city":"서울특별시","addr:district":"영등포구","addr:housenumber":"300","addr:postcode":"07319","addr:street":"여의대방로","addr:subdistrict":"신길동","name":"대방","name:en":"Daebang","name:ja":"テバン(大方)","name:ko":"대방","name:ko-Latn":"Daebang","name:zh":"大方","network":"수도권 전철","network:en":"Seoul Metropolitan Subway","network:ko":"수도권 전철","network:wikidata":"Q16950","operator":"한국철도공사","operator:en":"Korea Railroad Corporation","operator:ko":"한국철도공사","operator:short":"KORAIL","operator:type":"public","operator:wikidata":"Q18169","operator:wikipedia":"en:Korail","public_transport":"station","railway":"station","ref":"102","station":"subway","subway":"yes","train":"yes","wheelchair":"yes","wikidata":"Q137162","wikipedia":"ko:대방역"}},{"type":"node","id":5902085992,"lat":37.4766821,"lon":126.6168874,"tags":{"name":"인천","name:ca":"Inchon","name:cs":"Inčchon","name:da":"Incheon","name:de":"Incheon","name:el":"Ίντσον","name:en":"Incheon","name:et":"Incheon","name:eu":"Incheon","name:fr":"Inchon","name:he":"אינצ'ון","name:ja":"仁川","name:ko":"인천","name:ko-Hani":"仁川","name:lt":"Inčonas","name:oc":"Inchon","name:ru":"Инчхон","name:uk":"Інчхон","name:zh":"仁川","name:zh-Hant":"仁川","network":"수도권 전철","not:network:wikidata":"Q167674","operator":"한국철도공사","operator:en":"Korea Railroad Corporation","operator:ko":"한국철도공사","operator:short":"KORAIL","operator:type":"public","operator:wikidata":"Q18169","operator:wikipedia":"en:Korail","public_transport":"station","railway":"station","station":"subway","train":"yes","wheelchair":"no","wikidata":"Q497898","wikipedia":"ko:인천역"}},{"type":"node","id":5911861706,"lat":37.3270474,"lon":126.7887966,"tags":{"alt_name":"안산역","alt_name:en":"Ansan station","name":"안산","name:en":"Ansan","name:ja":"安山","name:ja-Hira":"アンサン","name:ko":"안산","operator":"한국철도공사","operator:en":"Korea Railroad Corporation","operator:ko":"한국철도공사","operator:short":"KORAIL","operator:type":"public","operator:wikidata":"Q18169","operator:wikipedia":"en:Korail","public_transport":"station","railway":"station","station":"subway","subway":"yes","train":"yes","wikidata":"Q497991","wikipedia":"ko:안산역"}},{"type":"node","id":5916874391,"lat":37.5493558,"lon":126.9136561,"tags":{"addr:city":"서울특별시","addr:district":"마포구","addr:housenumber":"지하55","addr:postcode":"04037","addr:street":"양화로","addr:subdistrict":"서교동","alt_name:ja":"ホルト児童福祉会","alt_name:ko":"홀트아동복지회","name":"합정","name:en":"Hapjeong","name:ja":"ハプチョン(合井)","name:ko":"합정","name:ko-Latn":"Hapjeong","name:zh":"合井","operator":"서울교통공사","public_transport":"station","railway":"station","ref":"238,622","station":"subway","subway":"yes","wikidata":"Q498168","wikipedia":"ko:합정역"}},{"type":"node","id":5919544685,"lat":37.5573487,"lon":126.926908,"tags":{"addr:city":"서울특별시","addr:district":"마포구","addr:housenumber":"지하188","addr:postcode":"04050","addr:street":"양화로","addr:subdistrict":"동교동","name":"홍대입구","name:en":"Hongik Univ.","name:ja":"弘大入口","name:ko":"홍대입구","name:ko-Kana":"ホンデイック","name:ko-Latn":"Hongdaeibgu","name:zh":"弘大入口","name:zh-Hans":"弘大入口","name:zh-Hant":"弘大入口","operator":"한국철도공사;공항철도주식회사","platforms":"2","public_transport":"station","railway":"station","ref":"A03;K314","station":"subway","subway":"yes","train":"yes","wheelchair":"yes"}},{"type":"node","id":5921531579,"lat":37.3198402,"lon":126.8078802,"tags":{"description":"서해선 초지역","internet_access":"wlan","name":"초지","name:en":"Choji","name:ja":"チョジ(草芝)","name:ko":"초지","name:ko-Hani":"草芝","name:zh":"草芝","operator":"한국철도공사","operator:en":"Korea Railroad Corporation","operator:ko":"한국철도공사","operator:short":"KORAIL","operator:type":"public","operator:wikidata":"Q18169","operator:wikipedia":"en:Korail","public_transport":"station","railway":"station","railway:ref":"신초지","ref":"S26","ref:AFC":"4813","ref:KROIS":"270191","ref:XROIS":"3901082","station":"subway","subway":"yes","train":"yes","wikidata":"Q490597","wikipedia":"ko:초지역"}},{"type":"node","id":5937907124,"lat":37.6346457,"lon":126.832577,"tags":{"name":"화정","name:en":"Hwajeong","name:ja":"ファジョン(花井)","name:ko":"화정","operator":"한국철도공사","operator:en":"Korea Railroad Corporation","operator:ko":"한국철도공사","operator:short":"KORAIL","operator:type":"public","operator:wikidata":"Q18169","operator:wikipedia":"en:Korail","public_transport":"station","railway":"station","station":"subway","train":"yes","wikidata":"Q79836"}},{"type":"node","id":5937907125,"lat":37.6317813,"lon":126.8102838,"tags":{"addr:city":"고양시","addr:district":"덕양구","addr:housenumber":"71-81","addr:province":"경기도","addr:street":"대주로","alt_name":"대곡역","alt_name:en":"Daegok station","internet_access":"wlan","name":"대곡","name:el":"Ντέγκοκ","name:en":"Daegok","name:ja":"テゴク(大谷)","name:ko":"대곡","network":"수도권 전철","network:en":"Seoul Metropolitan Subway","network:ko":"수도권 전철","network:wikidata":"Q16950","not:network:wikidata":"Q167674;Q18169","operator":"한국철도공사","operator:en":"Korea Railroad Corporation","operator:ko":"한국철도공사","operator:short":"KORAIL","operator:type":"public","operator:wikidata":"Q18169","operator:wikipedia":"en:Korail","public_transport":"station","railway":"station","station":"subway","train":"yes","wheelchair":"yes","wikidata":"Q59856","wikipedia":"ko:대곡역 (고양)"}},{"type":"node","id":5937907134,"lat":37.6520039,"lon":126.7777596,"tags":{"name":"마두","name:el":"Μάντου","name:en":"Madu","name:ja":"マドゥ(馬頭)","name:ko":"마두","operator":"한국철도공사","operator:en":"Korea Railroad Corporation","operator:ko":"한국철도공사","operator:short":"KORAIL","operator:type":"public","operator:wikidata":"Q18169","operator:wikipedia":"en:Korail","public_transport":"station","railway":"station","station":"subway","train":"yes","wheelchair":"yes","wikidata":"Q79830"}},{"type":"node","id":5937907135,"lat":37.659711,"lon":126.7732651,"tags":{"name":"정발산","name:el":"Τζόνγκμπαλσαν","name:en":"Jeongbalsan","name:ja":"チョンバルサン(鼎鉢山)","name:ko":"정발산","operator":"한국철도공사","operator:en":"Korea Railroad Corporation","operator:ko":"한국철도공사","operator:short":"KORAIL","operator:type":"public","operator:wikidata":"Q18169","operator:wikipedia":"en:Korail","public_transport":"station","railway":"station","ref":"311","station":"subway","train":"yes","wikidata":"Q79827"}},{"type":"node","id":5968926272,"lat":37.5662179,"lon":126.827917,"tags":{"addr:city":"서울특별시","addr:district":"강서구","addr:housenumber":"지하2","addr:postcode":"07788","addr:street":"마곡중앙5로","addr:subdistrict":"마곡동","name":"마곡나루","name:en":"Magongnaru","name:ja":"マゴンナル(麻谷ナル)","name:ko":"마곡나루","name:zh":"麻谷渡口","name:zh-Hans":"麻谷渡口","name:zh-Hant":"麻谷渡口","operator":"서울시메트로9호선","operator:en":"Seoul Metro Line 9 Corporation","operator:ko":"서울시메트로9호선","operator:wikidata":"Q13311220","phone":"+82 02-2656-0905","public_transport":"station","railway":"station","station":"subway","subway":"yes","website":"http://www.metro9.co.kr/site/program/station/info?menuid=001001001&station_code=905","wheelchair":"yes","wikidata":"Q59984","wikipedia":"en:Magongnaru Station"}},{"type":"node","id":6033312683,"lat":37.5345964,"lon":126.902478,"tags":{"addr:city":"서울특별시","addr:district":"영등포구","addr:housenumber":"229","addr:postcode":"07222","addr:street":"당산로","addr:subdistrict":"당산동6가","name":"당산","name:en":"Dangsan","name:ja":"タンサン(堂山)","name:ko":"당산","name:ko-Latn":"Dangsan","name:zh":"堂山","operator":"서울교통공사","platforms":"2","public_transport":"station","railway":"station","ref":"237","station":"subway","subway":"yes","wheelchair":"yes","wikidata":"Q59997","wikipedia":"ko:당산역"}},{"type":"node","id":6033314412,"lat":37.5183839,"lon":126.8948726,"tags":{"addr:city":"서울특별시","addr:district":"영등포구","addr:housenumber":"지하28","addr:postcode":"07298","addr:street":"당산로","addr:subdistrict":"문래동3가","name":"문래","name:en":"Mullae","name:ja":"ムンレ(文来)","name:ko":"문래","name:zh":"文来","name:zh-Hans":"文来","name:zh-Hant":"文來","operator":"서울교통공사","platforms":"2","public_transport":"station","railway":"station","ref":"235","station":"subway","subway":"yes","wheelchair":"no","wikidata":"Q487853","wikipedia":"ko:문래역"}},{"type":"node","id":6033314425,"lat":37.5089397,"lon":126.8912262,"tags":{"addr:city":"서울특별시","addr:district":"구로구","addr:housenumber":"지하117-21","addr:street":"경인로","internet_access":"wlan","name":"신도림","name:en":"Sindorim","name:ja":"新道林","name:ko":"신도림","name:ko-Kana":"シンドリム","name:zh":"新道林","network":"수도권 전철","network:en":"Seoul Metropolitan Subway","network:ko":"수도권 전철","network:wikidata":"Q16950","operator":"서울교통공사","public_transport":"station","railway":"station","ref":"234","station":"subway","subway":"yes","wheelchair":"yes","wikidata":"Q43298","wikipedia":"ko:신도림역"}},{"type":"node","id":6033314429,"lat":37.4852761,"lon":126.9015916,"tags":{"addr:city":"서울특별시","addr:district":"구로구","addr:housenumber":"477","addr:postcode":"08391","addr:street":"도림천로","addr:subdistrict":"구로동","alt_name":"원광디지털대","name":"구로디지털단지","name:en":"Guro Digital Complex","name:ja":"クロデジタルダンジ(九老デジタル団地)","name:ko":"구로디지털단지","old_name":"구로공단","old_name:ko":"Gurogongdan","operator":"서울교통공사","public_transport":"station","railway":"station","ref":"232","station":"subway","subway":"yes","wikidata":"Q488236"}},{"type":"node","id":6033314471,"lat":37.4875949,"lon":126.9133919,"tags":{"addr:city":"서울특별시","addr:district":"동작구","addr:housenumber":"2","addr:postcode":"07067","addr:street":"대림로","addr:subdistrict":"신대방동","name":"신대방","name:en":"Sindaebang","name:ja":"シンデバン(新大方)","name:ko":"신대방","name:zh":"新大方","operator":"서울교통공사","operator:en":"Seoul Metro","operator:ko":"서울교통공사","operator:type":"public","operator:wikidata":"Q28699048","platforms":"2","public_transport":"station","railway":"station","ref":"231","station":"subway","subway":"yes","wikidata":"Q487835","wikipedia":"ko:신대방역"}},{"type":"node","id":6033314481,"lat":37.4842316,"lon":126.9296803,"tags":{"addr:city":"서울특별시","addr:district":"관악구","addr:housenumber":"지하1614","addr:postcode":"08777","addr:street":"남부순환로","addr:subdistrict":"신림동","name":"신림","name:en":"Sillim","name:ja":"新林","name:ja-Hira":"シンリム","name:ko":"신림","name:ko-Hani":"新林","name:zh":"新林","operator":"서울교통공사","platforms":"1","public_transport":"station","railway":"station","ref":"230","station":"subway","subway":"yes","wheelchair":"yes","wikidata":"Q487848","wikipedia":"ko:신림역 (서울)"}},{"type":"node","id":6033314701,"lat":37.4823889,"lon":126.9419387,"tags":{"addr:city":"서울특별시","addr:district":"관악구","addr:housenumber":"지하1721","addr:postcode":"08757","addr:street":"남부순환로","addr:subdistrict":"봉천동","name":"봉천","name:en":"Bongcheon","name:ja":"奉天","name:ja-Hira":"ポンチョン","name:ko":"봉천","name:zh":"奉天","operator":"서울교통공사","platforms":"1","public_transport":"station","railway":"station","ref":"229","station":"subway","subway":"yes","wikidata":"Q488265","wikipedia":"ko:봉천역"}},{"type":"node","id":6033364440,"lat":37.512295,"lon":126.865945,"tags":{"addr:city":"서울특별시","addr:district":"양천구","addr:housenumber":"지하33","addr:postcode":"08100","addr:street":"목동로3길","addr:subdistrict":"신정동","name":"양천구청","name:en":"Yangcheon-gu Office","name:ja":"ヤンチョングチョン(陽川区庁)","name:ko":"양천구청","operator":"서울교통공사","public_transport":"station","railway":"station","ref":"234-2","station":"subway","subway":"yes","wheelchair":"yes","wikidata":"Q488276","wikipedia":"ko:양천구청역"}},{"type":"node","id":6033364448,"lat":37.5199831,"lon":126.8530463,"tags":{"addr:city":"서울특별시","addr:district":"양천구","addr:housenumber":"261","addr:postcode":"08073","addr:street":"중앙로","addr:subdistrict":"신정동","name":"신정네거리","name:en":"Sinjeongnegeori","name:ja":"シンジョンネゴリ(新亭ネゴリ)","name:ko":"신정네거리","name:zh":"新亭十字路口","operator":"서울교통공사","public_transport":"station","railway":"station","ref":"234-3","station":"subway","subway":"yes","wikidata":"Q488259","wikipedia":"ko:신정네거리역"}},{"type":"node","id":6033364545,"lat":37.5144539,"lon":126.882684,"tags":{"addr:city":"서울특별시","addr:district":"구로구","addr:housenumber":"160","addr:postcode":"08200","addr:street":"경인로67길","addr:subdistrict":"신도림동","name":"도림천","name:en":"Dorimcheon","name:ja":"ドリムチョン(道林川)","name:ko":"도림천","name:zh":"道林川","name:zh-Hans":"道林川","name:zh-Hant":"道林川","operator":"서울교통공사","public_transport":"station","railway":"station","ref":"234-1","station":"subway","subway":"yes","wikidata":"Q488782","wikipedia":"ko:도림천역"}},{"type":"node","id":6039313663,"lat":37.5268526,"lon":126.9325288,"tags":{"alt_name":"여의나루역","alt_name:en":"Yeouinaru Station","alt_name:ko":"여의나루역","alt_name:ko-Latn":"Yeouinaruyeok","name":"여의나루","name:en":"Yeouinaru","name:ja":"ヨイナル(汝矣ナル)","name:ko":"여의나루","name:ko-Latn":"Yeouinaru","name:zh":"汝矣渡口","note":"wrong tag false=A","operator":"서울교통공사","public_transport":"station","railway":"station","station":"subway","subway":"yes","wheelchair":"yes","wikidata":"Q490655","wikipedia":"ko:여의나루역"}},{"type":"node","id":6039313670,"lat":37.5216685,"lon":126.9243018,"tags":{"alt_name":"여의도역","alt_name:en":"Yeouido Station","alt_name:ko":"여의도역","bicycle":"yes","name":"여의도","name:en":"Yeouido","name:ja":"ヨイド(汝矣島)","name:ko":"여의도","name:zh":"汝矣岛","operator":"서울교통공사;서울시메트로9호선","public_transport":"station","railway":"station","station":"subway","subway":"yes","wheelchair":"yes","wikidata":"Q498126"}},{"type":"node","id":6039313671,"lat":37.5166485,"lon":126.9187443,"tags":{"addr:city":"서울특별시","addr:district":"영등포구","addr:housenumber":"327","addr:postcode":"07319","addr:street":"영등포로","addr:subdistrict":"신길동","layer":"1","name":"신길","name:en":"Singil","name:ja":"新吉","name:ko":"신길","name:ko-Kana":"シンギル","name:zh":"新吉","name:zh-Hans":"新吉","name:zh-Hant":"新吉","network":"수도권 전철","network:en":"Seoul Metropolitan Subway","network:ko":"수도권 전철","network:wikidata":"Q16950","operator":"한국철도공사","operator:en":"Korea Railroad Corporation","operator:ko":"한국철도공사","operator:short":"KORAIL","operator:type":"public","operator:wikidata":"Q18169","operator:wikipedia":"en:Korail","platforms":"4","public_transport":"station","railway":"station","station":"subway","subway":"yes","train":"yes","wheelchair":"yes","wikidata":"Q137168"}},{"type":"node","id":6039313679,"lat":37.5226934,"lon":126.9051415,"tags":{"name":"영등포시장","name:en":"Yeongdeungpo Market","name:ja":"ヨンドゥンポシジャン(永登浦市場)","name:ko":"영등포시장","name:ko-Latn":"Yeongdeungposijangyeok","name:zh":"永登浦市场","operator":"서울교통공사","public_transport":"station","railway":"station","station":"subway","subway":"yes","wikidata":"Q498159"}},{"type":"node","id":6039313682,"lat":37.5240181,"lon":126.8963369,"tags":{"name":"영등포구청","name:en":"Yeongdeungpo-gu Office","name:ja":"ヨンドゥンポグチョン(永登浦区厅)","name:ko":"영등포구청","name:zh":"永登浦区厅","operator":"서울교통공사","public_transport":"station","railway":"station","station":"subway","subway":"yes"}},{"type":"node","id":6039313683,"lat":37.5256329,"lon":126.8861176,"tags":{"name":"양평","name:en":"Yangpyeong","name:ja":"楊坪","name:ko":"양평","name:zh":"杨坪","name:zh-Hans":"杨坪","name:zh-Hant":"楊坪","operator":"서울교통공사","public_transport":"station","railway":"station","station":"subway","subway":"yes","wikidata":"Q56142","wikipedia":"ko:양평역 (서울)"}},{"type":"node","id":6039313988,"lat":37.5245648,"lon":126.8751222,"tags":{"alt_name":"목동운동장앞","alt_name:en":"Mok-dong Stadium Station","alt_name:ko":"목동운동장앞","bicycle":"yes","name":"오목교","name:en":"Omokgyo","name:ja":"オモッキョ(梧木橋)","name:ko":"오목교","operator":"서울교통공사","public_transport":"station","railway":"station","station":"subway","subway":"yes","wikidata":"Q490855","wikipedia":"ko:오목교역"}},{"type":"node","id":6039313992,"lat":37.5261241,"lon":126.8645174,"tags":{"name":"목동","name:en":"Mok-dong","name:ja":"モクトン(木洞)","name:ko":"목동","operator":"서울교통공사","public_transport":"station","railway":"station","station":"subway","subway":"yes","wikidata":"Q490860"}},{"type":"node","id":6039313994,"lat":37.5250413,"lon":126.8559699,"tags":{"alt_name":"은행정역","alt_name:en":"Eunhaengjeong Station","alt_name:ko":"은행정역","name":"신정","name:en":"Sinjeong","name:ja":"シンジョン(新亭)","name:ko":"신정","name:zh":"新亭","name:zh-Hans":"新亭","name:zh-Hant":"新亭","operator":"서울교통공사","public_transport":"station","railway":"station","station":"subway","subway":"yes","wheelchair":"yes","wikidata":"Q490461"}},{"type":"node","id":6039313997,"lat":37.5321119,"lon":126.8465265,"tags":{"addr:city":"서울특별시","addr:district":"강서구","addr:housenumber":"지하54","addr:postcode":"07757","addr:street":"강서로","addr:subdistrict":"화곡동","name":"까치산","name:en":"Kkachisan","name:ja":"カチ山","name:ko":"까치산","operator":"서울교통공사","public_transport":"station","railway":"station","ref":"234-4;518","station":"subway","subway":"yes","wikidata":"Q490909","wikipedia":"ko:까치산역"}},{"type":"node","id":6039314002,"lat":37.5416728,"lon":126.840397,"tags":{"name":"화곡","name:en":"Hwagok","name:ja":"ファゴク(禾谷)","name:ko":"화곡","operator":"서울교통공사","public_transport":"station","railway":"station","station":"subway","subway":"yes","wikidata":"Q490866"}},{"type":"node","id":6039314018,"lat":37.5488943,"lon":126.8363227,"tags":{"name":"우장산","name:en":"Ujangsan","name:ja":"ウジャンサン(雨装山)","name:ko":"우장산","operator":"서울교통공사","public_transport":"station","railway":"station","station":"subway","subway":"yes","wikidata":"Q490685"}},{"type":"node","id":6039314025,"lat":37.5584951,"lon":126.8374653,"tags":{"name":"발산","name:en":"Balsan","name:ja":"パルサン(鉢山)","name:ko":"발산","operator":"서울교통공사","public_transport":"station","railway":"station","station":"subway","subway":"yes","wikidata":"Q490833"}},{"type":"node","id":6039314027,"lat":37.5602492,"lon":126.8247463,"tags":{"addr:city":"서울특별시","addr:district":"강서구","addr:housenumber":"지하163","addr:postcode":"07800","addr:street":"공항대로","addr:subdistrict":"마곡동","internet_access":"wlan","internet_access:fee":"no","name":"마곡","name:en":"Magok","name:ja":"マゴク(麻谷)","name:ko":"마곡","operator":"서울교통공사","operator:en":"Seoul Metro","operator:ko":"서울교통공사","operator:type":"public","operator:wikidata":"Q28699048","public_transport":"station","railway":"station","station":"subway","subway":"yes","wikidata":"Q490915"}},{"type":"node","id":6039314028,"lat":37.5612772,"lon":126.8119428,"tags":{"name":"송정","name:en":"Songjeong","name:ja":"ソンジョン(松亭)","name:ko":"송정","operator":"서울교통공사","platforms":"2","public_transport":"station","railway":"station","station":"subway","subway":"yes","wikidata":"Q490245"}},{"type":"node","id":6039314030,"lat":37.5728758,"lon":126.8082601,"tags":{"name":"개화산","name:en":"Gaehwasan","name:ja":"ケファサン(開花山)","name:ko":"개화산","operator":"서울교통공사","public_transport":"station","railway":"station","station":"subway","subway":"yes","wikidata":"Q490705","wikipedia":"ko:개화산역"}},{"type":"node","id":6039314033,"lat":37.5774043,"lon":126.812732,"tags":{"name":"방화","name:en":"Banghwa","name:ja":"パンファ(傍花)","name:ko":"방화","operator":"서울교통공사","public_transport":"station","railway":"station","station":"subway","subway":"yes","wikidata":"Q490661"}},{"type":"node","id":6041674901,"lat":37.5474717,"lon":126.9319609,"tags":{"name":"광흥창","name:en":"Gwangheungchang","name:ja":"クァンフンチャン(広興倉)","name:ko":"광흥창","name:ko-Latn":"Gwangheungchang","name:zh":"廣興倉","operator":"서울교통공사","public_transport":"station","railway":"station","station":"subway","subway":"yes","wikidata":"Q490026"}},{"type":"node","id":6041674902,"lat":37.5477577,"lon":126.9228923,"tags":{"name":"상수","name:en":"Sangsu","name:ja":"サンス(上水)","name:ko":"상수","name:ko-Latn":"Sangsu","name:zh":"上水","name:zh-Hans":"上水","name:zh-Hant":"上水","operator":"서울교통공사","public_transport":"station","railway":"station","station":"subway","subway":"yes","wikidata":"Q490885"}},{"type":"node","id":6041674907,"lat":37.5560254,"lon":126.9101277,"tags":{"name":"망원","name:en":"Mangwon","name:ja":"マンウォン(望遠)","name:ko":"망원","name:zh":"望遠","operator":"서울교통공사","public_transport":"station","railway":"station","station":"subway","subway":"yes","wikidata":"Q490301"}},{"type":"node","id":6041674909,"lat":37.5635586,"lon":126.9033645,"tags":{"name":"마포구청","name:en":"Mapo-gu Office","name:ja":"マポグチョン(麻浦区庁)","name:ko":"마포구청","name:zh":"麻浦區廳","operator":"서울교통공사","public_transport":"station","railway":"station","station":"subway","subway":"yes","wheelchair":"yes","wikidata":"Q490286"}},{"type":"node","id":6041674912,"lat":37.5701918,"lon":126.8993179,"tags":{"bicycle":"yes","name":"월드컵경기장","name:en":"World Cup Stadium","name:ja":"ワールドカップ・キョンギジャン(ワールドカップ競技場)","name:ko":"월드컵경기장","name:zh":"世界杯体育场","operator":"서울교통공사","public_transport":"station","railway":"station","station":"subway","subway":"yes","wheelchair":"yes","wikidata":"Q490074"}},{"type":"node","id":6041674915,"lat":37.5841441,"lon":126.9099118,"tags":{"name":"증산","name:en":"Jeungsan","name:ja":"チュンサン(繒山)","name:ko":"증산","name:zh":"繒山","operator":"서울교통공사","public_transport":"station","railway":"station","station":"subway","subway":"yes","wikidata":"Q490276"}},{"type":"node","id":6048953566,"lat":37.4794207,"lon":126.8544598,"tags":{"name":"광명사거리","name:en":"Gwangmyeongsageori","name:ja":"クァンミョンサゴリ(光明サゴリ)","name:ko":"광명사거리","operator":"서울교통공사","public_transport":"station","railway":"station","station":"subway","subway":"yes","wikidata":"Q69027","wikipedia":"ko:광명사거리역"}},{"type":"node","id":6048953567,"lat":37.4760012,"lon":126.8675973,"tags":{"addr:city":"광명시","addr:housenumber":"지하13","addr:province":"경기도","addr:street":"철산로","internet_access":"wlan","name":"철산","name:en":"Cheolsan","name:ja":"鉄山","name:ko":"철산","name:ko-Kana":"チョルサン","network":"수도권 전철","network:en":"Seoul Metropolitan Subway","network:ko":"수도권 전철","network:wikidata":"Q16950","operator":"서울교통공사","public_transport":"station","railway":"station","ref":"747","station":"subway","subway":"yes","wikidata":"Q69018","wikipedia":"ko:철산역"}},{"type":"node","id":6048953568,"lat":37.4815947,"lon":126.8826166,"tags":{"addr:city":"서울특별시","addr:district":"금천구","addr:housenumber":"309","addr:postcode":"08510","addr:street":"벚꽃로","addr:subdistrict":"가산동","alt_ref":"0825","internet_access":"wlan","name":"가산디지털단지","name:en":"Gasan Digital Complex","name:ja":"加山デジタル団地","name:ko":"가산디지털단지","network":"수도권 전철","network:en":"Seoul Metropolitan Subway","network:ko":"수도권 전철","network:wikidata":"Q16950","old_name":"가리봉","operator":"한국철도공사","operator:en":"Korea Railroad Corporation","operator:ko":"한국철도공사","operator:short":"KORAIL","operator:type":"public","operator:wikidata":"Q18169","operator:wikipedia":"en:Korail","public_transport":"station","railway":"station","railway:ref":"가산디","ref:AFC":"1702","ref:KROIS":"010141","ref:XROIS":"3900034","station":"subway","subway":"yes","train":"yes","wheelchair":"yes","wikidata":"Q54328","wikipedia":"ko:가산디지털단지역"}},{"type":"node","id":6048953569,"lat":37.4853612,"lon":126.8866651,"tags":{"addr:city":"서울특별시","addr:district":"구로구","addr:housenumber":"7","addr:postcode":"08320","addr:street":"도림로","addr:subdistrict":"구로동","name":"남구로","name:en":"Namguro","name:ja":"ナムグロ(南九老)","name:ko":"남구로","operator":"서울교통공사","public_transport":"station","railway":"station","station":"subway","subway":"yes","wikidata":"Q69012","wikipedia":"ko:남구로역"}},{"type":"node","id":6048953572,"lat":37.4934375,"lon":126.8949325,"tags":{"addr:city":"서울특별시","addr:district":"구로구","addr:housenumber":"351","addr:postcode":"08304","addr:street":"도림천로","addr:subdistrict":"구로동","alt_name":"구로구청","alt_name:en":"Guro-gu Office","alt_name:ko":"구로구청","name":"대림","name:en":"Daerim","name:ja":"テリム(大林)","name:ko":"대림","name:zh":"大林","name:zh-Hans":"大林","name:zh-Hant":"大林","operator":"서울교통공사","public_transport":"station","railway":"station","ref":"233;744","station":"subway","subway":"yes","wikidata":"Q69008","wikipedia":"ko:대림역"}},{"type":"node","id":6048953575,"lat":37.5001667,"lon":126.9088751,"tags":{"name":"신풍","name:en":"Sinpung","name:ja":"シンプン(新豊)","name:ko":"신풍","operator":"서울교통공사","public_transport":"station","railway":"station","station":"subway","subway":"yes","wikidata":"Q69002","wikipedia":"ko:신풍역"}},{"type":"node","id":6048953576,"lat":37.4999284,"lon":126.9203764,"tags":{"name":"보라매","name:en":"Boramae","name:ja":"ボラメ","name:ko":"보라매","name:zh":"波拉美","operator":"서울교통공사","public_transport":"station","railway":"station","station":"subway","subway":"yes","wikidata":"Q68988","wikipedia":"ko:보라매역"}},{"type":"node","id":6048953577,"lat":37.499706,"lon":126.9282246,"tags":{"name":"신대방삼거리","name:en":"Sindaebangsamgeori","name:ja":"新大方サムゴリ","name:ko":"신대방삼거리","name:zh":"新大方丁字路口","operator":"서울교통공사","operator:en":"Seoul Metro","operator:ko":"서울교통공사","operator:type":"public","operator:wikidata":"Q28699048","public_transport":"station","railway":"station","station":"subway","subway":"yes","wikidata":"Q68981","wikipedia":"ko:신대방삼거리역"}},{"type":"node","id":6048953578,"lat":37.5050172,"lon":126.9392793,"tags":{"name":"장승배기","name:en":"Jangseungbaegi","name:ja":"チャンスンベギ","name:ko":"장승배기","name:zh":"长丞拜基","name:zh-Hans":"长丞拜基","name:zh-Hant":"長丞拜基","operator":"서울교통공사","public_transport":"station","railway":"station","station":"subway","subway":"yes","wikidata":"Q68970","wikipedia":"ko:장승배기역"}},{"type":"node","id":6048953579,"lat":37.503216,"lon":126.9476726,"tags":{"name":"상도","name:en":"Sangdo","name:ja":"サンド(上道)","name:ko":"상도","operator":"서울교통공사","public_transport":"station","railway":"station","station":"subway","subway":"yes","wikidata":"Q68961","wikipedia":"ko:상도역"}},{"type":"node","id":6050654946,"lat":37.5070226,"lon":126.731337,"tags":{"name":"굴포천","name:en":"Gulpocheon","name:ja":"クルポチョン(掘浦川)","name:ko":"굴포천","name:zh":"掘浦川","operator":"인천교통공사","public_transport":"station","railway":"station","station":"subway","subway":"yes","wheelchair":"yes","wikidata":"Q69082","wikipedia":"ko:굴포천역"}},{"type":"node","id":6050654947,"lat":37.506496,"lon":126.7423475,"tags":{"name":"삼산체육관","name:en":"Samsan Gymnasium","name:ja":"サムサンチェユックァン(三山体育館)","name:ko":"삼산체육관","operator":"인천교통공사","public_transport":"station","railway":"station","station":"subway","subway":"yes","wheelchair":"yes","wikidata":"Q69077","wikipedia":"ko:삼산체육관역"}},{"type":"node","id":6050654949,"lat":37.5030388,"lon":126.7762325,"tags":{"addr:housenumber":"지하314","addr:street":"길주로","name":"신중동","name:en":"Sinjung-dong","name:ja":"シンジュンドン(新中洞)","name:ko":"신중동","operator":"인천교통공사","public_transport":"station","railway":"station","station":"subway","subway":"yes","wheelchair":"yes","wikidata":"Q69061","wikipedia":"ko:신중동역"}},{"type":"node","id":6050654950,"lat":37.5037314,"lon":126.7872014,"tags":{"addr:housenumber":"지하406","addr:street":"길주로","name":"춘의","name:en":"Chunui","name:ja":"チュヌィ(春衣)","name:ko":"춘의","name:zh":"春衣","name:zh-Hans":"春衣","name:zh-Hant":"春衣","operator":"인천교통공사","public_transport":"station","railway":"station","station":"subway","subway":"yes","wheelchair":"limited","wikidata":"Q69056","wikipedia":"ko:춘의역"}},{"type":"node","id":6050654951,"lat":37.5054566,"lon":126.7972885,"tags":{"name":"부천종합운동장","name:en":"Bucheon Stadium","name:ja":"プチョンチョンハブンドンジャン(富川総合運動場)","name:ko":"부천종합운동장","operator":"인천교통공사","public_transport":"station","railway":"station","station":"subway","subway":"yes","wheelchair":"yes","wikidata":"Q69052","wikipedia":"ko:부천종합운동장역"}},{"type":"node","id":6050654952,"lat":37.5062407,"lon":126.8113842,"tags":{"name":"까치울","name:en":"Kkachiul","name:ja":"カチウル","name:ko":"까치울","operator":"인천교통공사","public_transport":"station","railway":"station","station":"subway","subway":"yes","wheelchair":"yes","wikidata":"Q69046","wikipedia":"ko:까치울역"}},{"type":"node","id":6050654953,"lat":37.4863668,"lon":126.8389218,"tags":{"name":"천왕","name:en":"Cheonwang","name:ja":"チョヌァン(天旺)","name:ko":"천왕","operator":"서울교통공사","public_transport":"station","railway":"station","station":"subway","subway":"yes","wikidata":"Q69034","wikipedia":"ko:천왕역"}},{"type":"node","id":6122528127,"lat":37.5074652,"lon":126.721104,"tags":{"name":"부평구청","name:en":"Bupyeong-gu Office","name:ja":"プピョングチョン(富平区庁)","name:ko":"부평구청","name:zh":"富平区厅","operator":"인천교통공사","public_transport":"station","railway":"station","ref":"759","station":"subway","subway":"yes","wikidata":"Q20301","wikipedia":"ko:부평구청역"}},{"type":"node","id":6125828716,"lat":37.6430359,"lon":126.7880378,"tags":{"name":"백석","name:el":"Μπέκσοκ","name:en":"Baekseok","name:ja":"ペクソク(白石)","name:ko":"백석","operator":"한국철도공사","operator:en":"Korea Railroad Corporation","operator:ko":"한국철도공사","operator:short":"KORAIL","operator:type":"public","operator:wikidata":"Q18169","operator:wikipedia":"en:Korail","public_transport":"station","railway":"station","station":"subway","train":"yes","wikidata":"Q79832"}},{"type":"node","id":6185441876,"lat":37.5086974,"lon":126.7036926,"tags":{"addr:city":"인천광역시","addr:district":"부평구","addr:housenumber":"379","addr:street":"길주로","internet_access":"wlan","name":"산곡","name:en":"Sangok","name:ja":"サンゴク(山谷)","name:ko":"산곡","name:zh":"山谷","operator":"인천교통공사","public_transport":"station","railway":"station","start_date":"2021-05-22","station":"subway","subway":"yes","wikidata":"Q23994867","wikipedia":"ko:산곡역"}},{"type":"node","id":6257062989,"lat":37.4558762,"lon":126.4449946,"tags":{"light_rail":"yes","name":"탑승동","name:en":"Concourse","name:ja":"コンコース","name:ko":"탑승동","name:zh":"候机楼","operator":"인천공항시설관리","public_transport":"station","railway":"station","station":"light_rail"}},{"type":"node","id":6257062992,"lat":37.4661319,"lon":126.4358904,"tags":{"light_rail":"yes","name":"제2터미널","name:en":"Terminal 2","name:ja":"第2ターミナル","name:ko":"제2터미널","name:zh":"第2航站樓","operator":"인천공항시설관리","public_transport":"station","railway":"station","station":"light_rail"}},{"type":"node","id":6271625486,"lat":37.4852186,"lon":126.8118113,"tags":{"addr:housenumber":"1","addr:street":"역곡로","alt_name":"가톨릭대","internet_access":"wlan","layer":"1","loc_name":"역곡역","name":"역곡","name:en":"Yeokgok","name:ja":"ヨッゴク(駅谷)","name:ko":"역곡","network":"수도권 전철","network:en":"Seoul Metropolitan Subway","network:ko":"수도권 전철","network:wikidata":"Q16950","operator":"한국철도공사","operator:en":"Korea Railroad Corporation","operator:ko":"한국철도공사","operator:short":"KORAIL","operator:type":"public","operator:wikidata":"Q18169","operator:wikipedia":"en:Korail","public_transport":"station","railway":"station","station":"subway","subway":"yes","train":"yes","wheelchair":"yes","wikidata":"Q490341"}},{"type":"node","id":6923835563,"lat":37.3168514,"lon":126.8231007,"tags":{"name":"고잔","name:en":"Gojan","name:ja":"古桟","name:ja-Hira":"コジャン","name:ko":"고잔","operator":"한국철도공사","operator:en":"Korea Railroad Corporation","operator:ko":"한국철도공사","operator:short":"KORAIL","operator:type":"public","operator:wikidata":"Q18169","operator:wikipedia":"en:Korail","public_transport":"station","railway":"station","station":"subway","subway":"yes","train":"yes","wikidata":"Q490271","wikipedia":"ko:고잔역"}},{"type":"node","id":7227044235,"lat":37.4651527,"lon":126.6790276,"tags":{"light_rail":"yes","name":"주안","name:en":"Juan","name:ja":"チュアン","name:ko":"주안","name:zh":"朱安","operator":"인천교통공사","public_transport":"station","railway":"station","ref":"I218","station":"light_rail","wheelchair":"yes"}},{"type":"node","id":7252470162,"lat":37.3206177,"lon":126.8061208,"tags":{"name":"초지","name:en":"Choji","name:ja":"チョジ(草芝)","name:ko":"초지","name:ko-Hani":"草芝","name:zh":"草芝","old_name":"공단","old_name:en":"Gongdan","operator":"한국철도공사","operator:en":"Korea Railroad Corporation","operator:ko":"한국철도공사","operator:short":"KORAIL","operator:type":"public","operator:wikidata":"Q18169","operator:wikipedia":"en:Korail","public_transport":"station","railway":"station","station":"subway","subway":"yes","train":"yes","wikidata":"Q490597","wikipedia":"ko:초지역"}},{"type":"node","id":8095249961,"lat":37.5247194,"lon":126.6753212,"tags":{"alt_name":"가정(루원시티)","alt_name:en":"Gajeong(Lu1 City)","alt_name:ko":"가정(루원시티)","light_rail":"yes","name":"가정","name:en":"Gajeong","name:ja":"カジョン(佳亭)","name:ko":"가정","name:zh":"佳亭","network":"인천도시철도 2호선","operator":"인천교통공사","public_transport":"station","railway":"station","station":"light_rail","wheelchair":"yes","wikidata":"Q20823465","wikipedia":"ko:가정역"}},{"type":"node","id":8232932947,"lat":37.5785381,"lon":126.7976654,"tags":{"name":"개화","name:en":"Gaehwa","name:ja":"ケファ(開花)","name:ko":"개화","operator":"서울시메트로9호선","public_transport":"station","railway":"station","station":"subway","subway":"yes","wheelchair":"yes"}},{"type":"node","id":8236203299,"lat":37.4068054,"lon":126.6261064,"tags":{"addr:city":"인천광역시","addr:country":"KR","addr:district":"연수구","addr:subdistrict":"송도동","name":"송도달빛축제공원","name:en":"Songdo Moonlight Festival Park","name:ja":"松島月光祝祭公園","name:ja-Hira":"ソンドダルビッチュクチェゴンウォン","name:ko":"송도달빛축제공원","operator":"인천교통공사","public_transport":"station","railway":"station","start_date":"2020-12-12","station":"subway","subway":"yes","wikidata":"Q31178299","wikipedia":"ko:송도달빛축제공원역"}},{"type":"node","id":8298678455,"lat":37.5072835,"lon":126.6762126,"tags":{"light_rail":"yes","name":"석남","name:en":"Seongnam(Geobuk Market)","name:ja":"ソクナム(石南)","name:ko":"석남","name:zh":"石南(龟市场)","operator":"인천교통공사","public_transport":"station","railway":"station","ref":"I213","station":"light_rail","wheelchair":"yes"}},{"type":"node","id":8298678456,"lat":37.5062862,"lon":126.6746369,"tags":{"addr:city":"인천광역시","addr:district":"서구","addr:housenumber":"120","addr:street":"길주로","alt_name":"석남(거북시장)","alt_name:ko":"석남(거북시장)","internet_access":"wlan","name":"석남","name:en":"Seongnam","name:ja":"ソクナム(石南)","name:ko":"석남","name:zh":"石南(龟市场)","operator":"인천교통공사","public_transport":"station","railway":"station","start_date":"2021-05-22","station":"subway","subway":"yes","wikidata":"Q20823467","wikipedia":"ko:석남역"}},{"type":"node","id":8334234978,"lat":37.6701524,"lon":126.7612377,"tags":{"name":"주엽","name:el":"Τζούγιοπ","name:en":"Juyeop","name:ja":"チュヨプ(注葉)","name:ko":"주엽","operator":"한국철도공사","operator:en":"Korea Railroad Corporation","operator:ko":"한국철도공사","operator:short":"KORAIL","operator:type":"public","operator:wikidata":"Q18169","operator:wikipedia":"en:Korail","public_transport":"station","railway":"station","ref":"310","station":"subway","train":"yes","wheelchair":"yes","wikidata":"Q79805","wikipedia":"ko:주엽역"}},{"type":"node","id":8390030398,"lat":37.3935066,"lon":126.6345613,"tags":{"addr:city":"인천광역시","addr:district":"연수구","addr:housenumber":"지하240","addr:street":"인천타워대로","addr:subdistrict":"송도동","internet_access":"wlan","name":"센트럴파크","name:en":"Central Park","name:ja":"セントラルパーク","name:ko":"센트럴파크","name:zh":"中央公园","operator":"인천교통공사","operator:en":"Incheon Transit Corporation","operator:ko":"인천교통공사","operator:type":"public","operator:wikidata":"Q483883","public_transport":"station","railway":"station","station":"subway","subway":"yes","wikidata":"Q491218","wikipedia":"ko:센트럴파크역"}},{"type":"node","id":8390030399,"lat":37.386116,"lon":126.6394474,"tags":{"addr:city":"인천광역시","addr:country":"KR","addr:district":"연수구","addr:street":"인천타워대로","addr:subdistrict":"송도동","name":"인천대입구","name:en":"Incheon National University","name:ja":"仁川大入口","name:ko":"인천대입구","name:ko-Kana":"インチョンデイック","name:zh":"仁川大学","operator":"인천교통공사","public_transport":"station","railway":"station","ref":"I136","station":"subway","subway":"yes","wikidata":"Q490957","wikipedia":"ko:인천대입구역"}},{"type":"node","id":8390030400,"lat":37.3774709,"lon":126.645923,"tags":{"addr:city":"인천광역시","addr:district":"연수구","addr:housenumber":"지하57","addr:street":"인천타워대로","addr:subdistrict":"송도동","name":"지식정보단지","name:en":"BIT Zone","name:ja":"チシク·チョンボダンジ(知識情報団地)","name:ko":"지식정보단지","name:zh":"知识信息园区","operator":"인천교통공사","public_transport":"station","railway":"station","ref":"I135","station":"subway","subway":"yes","train":"no","wikidata":"Q491001","wikipedia":"ko:지식정보단지역"}},{"type":"node","id":8390030401,"lat":37.3823022,"lon":126.6562543,"tags":{"addr:city":"인천광역시","addr:district":"연수구","addr:housenumber":"지하150","addr:street":"송도국제대로","addr:subdistrict":"송도동","internet_access":"wlan","name":"테크노파크","name:en":"Technopark","name:ja":"テクノパーク","name:ko":"테크노파크","name:zh":"科技公园","operator":"인천교통공사","public_transport":"station","railway":"station","ref":"I134","station":"subway","subway":"yes","wikidata":"Q491166","wikipedia":"ko:테크노파크역"}},{"type":"node","id":8390030402,"lat":37.3881737,"lon":126.6618928,"tags":{"addr:city":"인천광역시","addr:district":"연수구","addr:housenumber":"지하66","addr:street":"송도국제대로","addr:subdistrict":"송도동","alt_name":"연세대학교","alt_name:en":"Yonsei Univ.","alt_name:ko":"연세대학교","alt_name:zh":"延世大学","name":"캠퍼스타운","name:en":"Campus Town","name:ja":"キャンパスタウン","name:ko":"캠퍼스타운","name:zh":"大学城","operator":"인천교통공사","public_transport":"station","railway":"station","ref":"I133","station":"subway","subway":"yes","wikidata":"Q490992","wikipedia":"ko:캠퍼스타운역"}},{"type":"node","id":8390030403,"lat":37.3986231,"lon":126.6735412,"tags":{"addr:city":"인천광역시","addr:district":"연수구","addr:housenumber":"80","addr:street":"경원대로","addr:subdistrict":"동춘동","name":"동막","name:en":"Dongmak","name:ja":"トンマク(東幕)","name:ko":"동막","name:zh":"东幕","operator":"인천교통공사","public_transport":"station","railway":"station","ref":"I132","station":"subway","subway":"yes","wikidata":"Q491237","wikipedia":"ko:동막역"}},{"type":"node","id":8390030404,"lat":37.4048204,"lon":126.6802706,"tags":{"name":"동춘","name:en":"Dongchun","name:ja":"トンチュン(東春)","name:ko":"동춘","name:zh":"东春","operator":"인천교통공사","public_transport":"station","railway":"station","ref":"I131","station":"subway","subway":"yes","wikidata":"Q491246","wikipedia":"ko:동춘역"}},{"type":"node","id":8390030405,"lat":37.4180647,"lon":126.6939309,"tags":{"addr:city":"인천광역시","addr:district":"연수구","addr:housenumber":"368","addr:postcode":"21938","addr:street":"경원대로","name":"신연수","name:en":"Sinyeonsu","name:ja":"シニョンス(新延寿)","name:ko":"신연수","name:zh":"新延寿","operator":"인천교통공사","public_transport":"station","railway":"station","ref":"I129","station":"subway","subway":"yes","wikidata":"Q491194","wikipedia":"ko:신연수역"}},{"type":"node","id":8390030408,"lat":37.4272405,"lon":126.6989894,"tags":{"name":"선학","name:en":"Seonhak","name:ja":"ソンハク(仙鶴)","name:ko":"선학","name:zh":"仙鹤","operator":"인천교통공사","public_transport":"station","railway":"station","ref":"I128","station":"subway","subway":"yes","wikidata":"Q490653","wikipedia":"ko:선학역"}},{"type":"node","id":8390030409,"lat":37.4351045,"lon":126.6977955,"tags":{"name":"문학경기장","name:en":"Munhak Sports Complex","name:ja":"文鶴競技場 (ムンハク·キョンギジャン)","name:ko":"문학경기장","name:zh":"文鹤体育场","operator":"인천교통공사","public_transport":"station","railway":"station","ref":"I127","station":"subway","subway":"yes","wikidata":"Q490970","wikipedia":"ko:문학경기장역"}},{"type":"node","id":8390030410,"lat":37.4419457,"lon":126.6997157,"tags":{"name":"인천터미널","name:en":"Incheon Bus Terminal","name:ja":"仁川ターミナル(インチョンターミナル)","name:ko":"인천터미널","name:zh":"仁川客运站","operator":"인천교통공사","public_transport":"station","railway":"station","ref":"I126","station":"subway","subway":"yes","wheelchair":"yes","wikidata":"Q490948","wikipedia":"ko:인천터미널역"}},{"type":"node","id":8390030411,"lat":37.449506,"lon":126.7009761,"tags":{"name":"예술회관","name:en":"Arts Center","name:ja":"芸術会館 (イェスルフェグァン)","name:ko":"예술회관","name:zh":"艺术会馆","operator":"인천교통공사","public_transport":"station","railway":"station","ref":"I125","station":"subway","subway":"yes"}},{"type":"node","id":8390030413,"lat":37.4671553,"lon":126.7079494,"tags":{"name":"간석오거리","name:en":"Ganseogogeori","name:ja":"間石オゴリ(カンソク·オゴリ)","name:ko":"간석오거리","name:zh":"间石五岔路口","operator":"인천교통공사","public_transport":"station","railway":"station","ref":"I123","station":"subway","subway":"yes","wheelchair":"yes","wikidata":"Q491224","wikipedia":"ko:간석오거리역"}},{"type":"node","id":8390030414,"lat":37.4779093,"lon":126.7103571,"tags":{"name":"부평삼거리","name:en":"Bupyeongsamgeori","name:ja":"プピョンサムゴリ","name:ko":"부평삼거리","name:zh":"富平三岔路口","operator":"인천교통공사","public_transport":"station","railway":"station","ref":"I122","station":"subway","subway":"yes","wheelchair":"yes","wikidata":"Q491186","wikipedia":"ko:부평삼거리역"}},{"type":"node","id":8390030415,"lat":37.4854218,"lon":126.7185419,"tags":{"addr:city":"인천광역시","addr:country":"KR","addr:district":"부평구","addr:subdistrict":"부평동","name":"동수","name:en":"Dongsu","name:ja":"トンス(東樹)","name:ko":"동수","name:zh":"东树","operator":"인천교통공사","public_transport":"station","railway":"station","ref":"I121","station":"subway","subway":"yes","wikidata":"Q491198","wikipedia":"ko:동수역"}},{"type":"node","id":8390030416,"lat":37.4899854,"lon":126.7237346,"tags":{"name":"부평","name:en":"Bupyeong","name:ja":"富平","name:ko":"부평","name:ko-Kana":"プピョン","name:zh":"富平","operator":"인천교통공사","public_transport":"station","railway":"station","ref":"I120","station":"subway","subway":"yes","wheelchair":"yes","wikidata":"Q490474","wikipedia":"ko:부평역"}},{"type":"node","id":8390080117,"lat":37.4983678,"lon":126.722289,"tags":{"name":"부평시장","name:en":"Bupyeong Market","name:ja":"プピョンシジャン(冨平市場)","name:ko":"부평시장","name:ko-Latn":"Bupyeongsijang","name:zh":"富平市场","operator":"인천교통공사","public_transport":"station","railway":"station","ref":"I119","station":"subway","subway":"yes","wheelchair":"yes","wikidata":"Q490952","wikipedia":"ko:부평시장역"}},{"type":"node","id":8390080118,"lat":37.5082283,"lon":126.7205539,"tags":{"name":"부평구청","name:en":"Bupyeong-gu Office","name:ja":"プピョングチョン(富平区庁)","name:ko":"부평구청","name:zh":"富平区厅","operator":"인천교통공사","public_transport":"station","railway":"station","ref":"I118","station":"subway","subway":"yes","wikidata":"Q20301","wikipedia":"ko:부평구청역"}},{"type":"node","id":8390080120,"lat":37.5168126,"lon":126.7215178,"tags":{"name":"갈산","name:en":"Galsan","name:ja":"カルサン(葛山)","name:ko":"갈산","name:zh":"葛山","operator":"인천교통공사","operator:en":"Incheon Transit Corporation","operator:ko":"인천교통공사","operator:type":"public","operator:wikidata":"Q483883","public_transport":"station","railway":"station","ref":"I117","station":"subway","subway":"yes","wikidata":"Q491231","wikipedia":"ko:갈산역 (인천)"}},{"type":"node","id":8390080121,"lat":37.5303129,"lon":126.7225307,"tags":{"addr:city":"인천광역시","addr:country":"KR","addr:district":"계양구","addr:subdistrict":"작전동","name":"작전","name:en":"Jakjeon","name:ja":"チャクチョン(鵲田)","name:ko":"작전","name:zh":"鹊田","operator":"인천교통공사","platforms":"2","public_transport":"station","railway":"station","ref":"I116","station":"subway","subway":"yes","wikidata":"Q490985","wikipedia":"ko:작전역"}},{"type":"node","id":8390080122,"lat":37.5384076,"lon":126.7226027,"tags":{"name":"경인교대입구","name:en":"Gyeongin Nat'l Univ. of Education","name:ja":"キョンインギョデイック(京仁教大入口)","name:ko":"경인교대입구","name:ko-Latn":"Gyeongingyodaeipgu","operator":"인천교통공사","public_transport":"station","railway":"station","ref":"I115","station":"subway","subway":"yes","wikidata":"Q490940","wikipedia":"ko:경인교대입구역"}},{"type":"node","id":8390080123,"lat":37.543336,"lon":126.7278571,"tags":{"name":"계산","name:en":"Gyesan","name:ja":"ケサン(桂山)","name:ko":"계산","name:zh":"桂山","operator":"인천교통공사","public_transport":"station","railway":"station","ref":"I114","station":"subway","subway":"yes","wikidata":"Q491181","wikipedia":"ko:계산역"}},{"type":"node","id":8401534566,"lat":37.4687357,"lon":126.945328,"tags":{"light_rail":"yes","name":"관악산","name:en":"Gwanaksan","name:ja":"クァナクサン(冠岳山)","name:ko":"관악산","operator":"로템SRS","public_transport":"station","railway":"station","start_date":"2022-05-28","station":"light_rail","wikidata":"Q85980636"}},{"type":"node","id":8401534568,"lat":37.4720025,"lon":126.9337059,"tags":{"light_rail":"yes","name":"서울대벤처타운","name:en":"Seoul Nat'l Univ. Venture Town","name:ja":"ソウル大ベンチャータウン","name:ko":"서울대벤처타운","operator":"로템SRS","public_transport":"station","railway":"station","start_date":"2022-05-28","station":"light_rail"}},{"type":"node","id":8401534570,"lat":37.4846585,"lon":126.9296105,"tags":{"addr:city":"서울특별시","addr:district":"관악구","addr:housenumber":"지하1614","addr:postcode":"08777","addr:street":"남부순환로","addr:subdistrict":"신림동","light_rail":"yes","name":"신림","name:en":"Sillim","name:ja":"新林","name:ja-Hira":"シンリム","name:ko":"신림","name:zh":"新林","operator":"로템SRS","public_transport":"station","railway":"station","ref":"S408","start_date":"2022-05-28","station":"light_rail","wheelchair":"yes","wikidata":"Q487848","wikipedia":"ko:신림역"}},{"type":"node","id":8401534571,"lat":37.4896958,"lon":126.9278008,"tags":{"light_rail":"yes","name":"당곡","name:en":"Danggok","name:ja":"タンゴク(堂谷)","name:ko":"당곡","name:zh":"堂谷","name:zh-Hans":"堂谷","name:zh-Hant":"堂谷","operator":"로템SRS","public_transport":"station","railway":"station","start_date":"2022-05-28","station":"light_rail"}},{"type":"node","id":8401534572,"lat":37.4929641,"lon":126.9242732,"tags":{"addr:city":"서울특별시","addr:country":"KR","addr:district":"동작구","addr:subdistrict":"신대방동","light_rail":"yes","name":"보라매병원","name:en":"Boramae Medical Center","name:ja":"ボラメ病院","name:ko":"보라매병원","operator":"로템SRS","public_transport":"station","railway":"station","start_date":"2022-05-28","station":"light_rail"}},{"type":"node","id":8401534573,"lat":37.4952932,"lon":126.9181903,"tags":{"addr:city":"서울특별시","addr:country":"KR","addr:district":"동작구","addr:subdistrict":"신대방동","light_rail":"yes","name":"보라매공원","name:en":"Boramae Park","name:ja":"ボラメゴンウォン(ボラメ公園)","name:ko":"보라매공원","operator":"로템SRS","public_transport":"station","railway":"station","start_date":"2022-05-28","station":"light_rail"}},{"type":"node","id":8401534574,"lat":37.5002811,"lon":126.9204736,"tags":{"light_rail":"yes","name":"보라매","name:en":"Boramae","name:ja":"ボラメ","name:ko":"보라매","name:zh":"波拉美","operator":"로템SRS","public_transport":"station","railway":"station","start_date":"2022-05-28","station":"light_rail","wikidata":"Q68988","wikipedia":"ko:보라매역"}},{"type":"node","id":8401534575,"lat":37.5059628,"lon":126.9227236,"tags":{"light_rail":"yes","name":"서울지방병무청","name:en":"Seoul Regional Office of Military Manpower","name:ja":"ソウルジバンビョンムチョン(ソウル地方兵務庁)","name:ko":"서울지방병무청","name:zh":"首尔地方兵务厅","name:zh-Hans":"首尔地方兵务厅","name:zh-Hant":"首爾地方兵務廳","operator":"로템SRS","public_transport":"station","railway":"station","start_date":"2022-05-28","station":"light_rail"}},{"type":"node","id":8401534576,"lat":37.5125806,"lon":126.9251737,"tags":{"addr:city":"서울특별시","addr:district":"영등포구","addr:housenumber":"300","addr:postcode":"07319","addr:street":"여의대방로","addr:subdistrict":"신길동","light_rail":"yes","name":"대방","name:en":"Daebang","name:ja":"テバン(大方)","name:ko":"대방","name:ko-Latn":"Daebang","name:zh":"大方","operator":"로템SRS","public_transport":"station","railway":"station","ref":"S402","start_date":"2022-05-28","station":"light_rail","wheelchair":"no","wikidata":"Q137162","wikipedia":"ko:대방역"}},{"type":"node","id":8401534578,"lat":37.517362,"lon":126.928282,"tags":{"name":"샛강","name:en":"Saetgang","name:ja":"セッカン","name:ko":"샛강","name:zh":"赛江","operator":"서울시메트로9호선","operator:en":"Seoul Metro Line 9 Corporation","operator:ko":"서울시메트로9호선","operator:wikidata":"Q13311220","public_transport":"station","railway":"station","station":"subway","subway":"yes","wheelchair":"yes","wikidata":"Q60000","wikipedia":"ko:샛강역"}},{"type":"node","id":8401534582,"lat":37.5173674,"lon":126.9294177,"tags":{"light_rail":"yes","name":"샛강","name:en":"Saetgang","name:ja":"セッカン","name:ko":"샛강","name:zh":"赛江","operator":"로템SRS","public_transport":"station","railway":"station","start_date":"2022-05-28","station":"light_rail","wheelchair":"yes","wikidata":"Q60000","wikipedia":"ko:샛강역"}},{"type":"node","id":8724752444,"lat":37.5773957,"lon":126.8980769,"tags":{"alt_ref":"0915","name":"디지털미디어시티","name:en":"Digital Media City","name:ja":"デジタルメディアシティ","name:ko":"디지털미디어시티","name:zh":"数码媒体城","name:zh-Hans":"数码媒体城","name:zh-Hant":"數碼媒體城","old_name":"수색","operator":"공항철도주식회사","operator:en":"Airport Railroad Corporation","operator:ko":"공항철도주식회사","operator:short":"A'REX","operator:type":"consortium","operator:wikidata":"Q4675224","operator:wikipedia":"en:Airport Railroad Corporation","public_transport":"station","railway":"station","railway:ref":"디엠공","ref":"A04","ref:AFC":"4204","ref:KROIS":"C10095","ref:XROIS":"3900929","station":"subway","subway":"yes","wikidata":"Q54265"}},{"type":"node","id":8724752445,"lat":37.5761895,"lon":126.9014558,"tags":{"alt_name:en":"DMC","name":"디지털미디어시티","name:en":"Digital Media City","name:ja":"デジタルメディアシティ","name:ko":"디지털미디어시티","name:zh":"数码媒体城","old_name":"수색","operator":"서울교통공사","public_transport":"station","railway":"station","station":"subway","subway":"yes","wikidata":"Q54265"}},{"type":"node","id":8822741689,"lat":37.533531,"lon":126.9026845,"tags":{"addr:city":"서울특별시","addr:district":"영등포구","addr:housenumber":"지하40","addr:postcode":"07214","addr:street":"양평로","addr:subdistrict":"당산동6가","name":"당산","name:en":"Dangsan","name:ja":"タンサン(堂山)","name:ko":"당산","name:ko-Latn":"Dangsan","name:zh":"堂山","operator":"서울시메트로9호선","operator:en":"Seoul Metro Line 9 Corporation","operator:ko":"서울시메트로9호선","operator:wikidata":"Q13311220","platforms":"2","public_transport":"station","railway":"station","ref":"913","station":"subway","subway":"yes","wikidata":"Q59997","wikipedia":"ko:당산역"}},{"type":"node","id":8829295765,"lat":37.5175077,"lon":126.9163515,"tags":{"addr:city":"서울특별시","addr:district":"영등포구","addr:housenumber":"지하9","addr:street":"경인로","layer":"1","name":"신길","name:en":"Singil","name:ja":"新吉","name:ko":"신길","name:ko-Kana":"シンギル","name:zh":"新吉","name:zh-Hans":"新吉","name:zh-Hant":"新吉","operator":"서울교통공사","public_transport":"station","railway":"station","ref":"525","station":"subway","subway":"yes","wikidata":"Q137168"}},{"type":"node","id":8829295766,"lat":37.4804538,"lon":126.8828796,"tags":{"addr:city":"서울특별시","addr:district":"금천구","addr:housenumber":"309","addr:postcode":"08510","addr:street":"벚꽃로","addr:subdistrict":"가산동","internet_access":"wlan","name":"가산디지털단지","name:en":"Gasan Digital Complex","name:ja":"加山デジタル団地","name:ko":"가산디지털단지","network":"수도권 전철","network:en":"Seoul Metropolitan Subway","network:ko":"수도권 전철","network:wikidata":"Q16950","operator":"서울교통공사","public_transport":"station","railway":"station","station":"subway","subway":"yes","wheelchair":"yes","wikidata":"Q54328","wikipedia":"ko:가산디지털단지역"}},{"type":"node","id":9181579788,"lat":37.5378593,"lon":126.8939823,"tags":{"name":"선유도","name:en":"Seonyudo","name:ja":"ソニュド(仙遊島)","name:ko":"선유도","operator":"서울시메트로9호선","public_transport":"station","railway":"station","station":"subway","subway":"yes","wheelchair":"yes","wikidata":"Q59995","wikipedia":"ko:선유도역"}},{"type":"node","id":9181579789,"lat":37.544211,"lon":126.8831758,"tags":{"addr:city":"서울특별시","addr:district":"양천구","addr:housenumber":"지하217","addr:postcode":"07969","addr:street":"목동중앙로","addr:subdistrict":"목동","internet_access":"wlan","name":"신목동","name:en":"Sinmokdong","name:ja":"シンモクトン(新木洞)","name:ko":"신목동","operator":"서울시메트로9호선","phone":"+82 2 2656 0911","public_transport":"station","railway":"station","station":"subway","subway":"yes"}},{"type":"node","id":9181579790,"lat":37.5470335,"lon":126.8753972,"tags":{"name":"염창","name:en":"Yeomchang","name:ja":"ヨムチャン(塩倉)","name:ko":"염창","operator":"서울시메트로9호선","platforms":"2","public_transport":"station","railway":"station","station":"subway","subway":"yes","wikidata":"Q59993"}},{"type":"node","id":9181579791,"lat":37.5511518,"lon":126.864574,"tags":{"name":"등촌","name:en":"Deungchon","name:ja":"トゥンチョン(登村)","name:ko":"등촌","operator":"서울시메트로9호선","platforms":"2","public_transport":"station","railway":"station","station":"subway","subway":"yes","wikidata":"Q59992"}},{"type":"node","id":9181579792,"lat":37.5575102,"lon":126.8618185,"tags":{"name":"증미","name:en":"Jeungmi","name:ja":"チュンミ(曽米)","name:ko":"증미","operator":"서울시메트로9호선","platforms":"2","public_transport":"station","railway":"station","station":"subway","subway":"yes","wheelchair":"yes","wikidata":"Q59989"}},{"type":"node","id":9181579793,"lat":37.5611423,"lon":126.8550997,"tags":{"name":"가양","name:en":"Gayang","name:ja":"カヤン(加陽)","name:ko":"가양","operator":"서울시메트로9호선","platforms":"2","public_transport":"station","railway":"station","station":"subway","subway":"yes","wikidata":"Q59987"}},{"type":"node","id":9181579794,"lat":37.5684524,"lon":126.8412958,"tags":{"name":"양천향교","name:en":"Yangcheon Hyanggyo","name:ja":"ヤンチョンヒャンギョ(陽川郷校)","name:ko":"양천향교","name:zh":"阳川乡校","operator":"서울시메트로9호선","platforms":"2","public_transport":"station","railway":"station","station":"subway","subway":"yes","wikidata":"Q59985"}},{"type":"node","id":9181579795,"lat":37.5674973,"lon":126.8165921,"tags":{"name":"신방화","name:en":"Sinbanghwa","name:ja":"シンバンファ(新傍花)","name:ko":"신방화","operator":"서울시메트로9호선","platforms":"2","public_transport":"station","railway":"station","station":"subway","subway":"yes","wikidata":"Q59982"}},{"type":"node","id":9181579796,"lat":37.5636577,"lon":126.8106016,"tags":{"name":"공항시장","name:en":"Airport Market","name:ja":"空港市場","name:ja-Hira":"コンハンシジャン","name:ko":"공항시장","operator":"서울시메트로9호선","platforms":"2","public_transport":"station","railway":"station","station":"subway","subway":"yes","wheelchair":"yes","wikidata":"Q59980"}},{"type":"node","id":9417728884,"lat":37.5058364,"lon":126.7974606,"tags":{"name":"부천종합운동장","name:en":"Bucheon Stadium","name:ja":"プチョンチョンハブンドンジャン(富川総合運動場)","name:ko":"부천종합운동장","network":"코레일","not:network:wikidata":"Q167674","operator":"한국철도공사","operator:en":"Korea Railroad Corporation","operator:ko":"한국철도공사","operator:short":"KORAIL","operator:type":"public","operator:wikidata":"Q18169","operator:wikipedia":"en:Korail","public_transport":"station","railway":"station","railway:ref":"부천종","ref":"S15","ref:AFC":"1982","ref:KROIS":"270027","ref:XROIS":"3901122","start_date":"2023-07-01","station":"subway","subway":"yes","wheelchair":"yes","wikidata":"Q69052","wikipedia":"ko:부천종합운동장역"}},{"type":"node","id":9417728897,"lat":37.5238457,"lon":126.8048614,"tags":{"name":"원종","name:en":"Wonjong","name:ja":"ウォンジョン(遠宗)","name:ko":"원종","not:network:wikidata":"Q167674;Q18169","operator":"한국철도공사","operator:en":"Korea Railroad Corporation","operator:ko":"한국철도공사","operator:short":"KORAIL","operator:type":"public","operator:wikidata":"Q18169","operator:wikipedia":"en:Korail","public_transport":"station","railway":"station","ref":"S14","start_date":"2023-07-01","station":"subway","subway":"yes","wikidata":"Q97338594","wikipedia":"ko:원종역"}},{"type":"node","id":9485597747,"lat":37.5136137,"lon":126.9415727,"tags":{"addr:city":"서울특별시","addr:district":"동작구","addr:housenumber":"지하130","addr:postcode":"06922","addr:street":"노량진로","addr:subdistrict":"노량진동","internet_access":"wlan","name":"노량진","name:en":"Noryangjin","name:ja":"鷺梁津","name:ja-Hira":"ノリャンジン","name:ko":"노량진","name:zh":"鹭梁津","operator":"서울시메트로9호선","operator:en":"Seoul Metro Line 9 Corporation","operator:ko":"서울시메트로9호선","operator:wikidata":"Q13311220","public_transport":"station","railway":"station","station":"subway","subway":"yes","wheelchair":"yes","wikidata":"Q60001","wikipedia":"ko:노량진역"}},{"type":"node","id":9687706173,"lat":37.5949865,"lon":126.6279299,"tags":{"light_rail":"yes","name":"검단오류","name:en":"Geomdan Oryu","name:ja":"コムダンオリュ","name:ko":"검단오류","operator":"인천교통공사","public_transport":"station","railway":"station","ref":"I201","station":"light_rail","wikidata":"Q20823454","wikipedia":"ko:검단오류역"}},{"type":"node","id":9687706211,"lat":37.5951775,"lon":126.6423769,"tags":{"light_rail":"yes","name":"왕길","name:en":"Wanggil","name:ja":"ワンギル(旺吉)","name:ko":"왕길","operator":"인천교통공사","public_transport":"station","railway":"station","ref":"I202","station":"light_rail","wikidata":"Q20823455"}},{"type":"node","id":9687738050,"lat":37.6018213,"lon":126.6567336,"tags":{"light_rail":"yes","name":"검단사거리","name:en":"Geomdan Sageori","name:ja":"コムダンサゴリ","name:ko":"검단사거리","operator":"인천교통공사","public_transport":"station","railway":"station","ref":"I203","station":"light_rail","wikidata":"Q20823457","wikipedia":"ko:검단사거리역"}},{"type":"node","id":9687738066,"lat":37.5975663,"lon":126.6672467,"tags":{"light_rail":"yes","name":"마전","name:en":"Majeon","name:ja":"マジョン(麻田)","name:ko":"마전","operator":"인천교통공사","public_transport":"station","railway":"station","ref":"I204","station":"light_rail","wikidata":"Q20823458"}},{"type":"node","id":9687738079,"lat":37.5928725,"lon":126.6728745,"tags":{"light_rail":"yes","name":"완정","name:en":"Wanjeong","name:ja":"ワンジョン","name:ko":"완정","name:zh":"完井","operator":"인천교통공사","public_transport":"station","railway":"station","ref":"I205","station":"light_rail","wheelchair":"yes","wikidata":"Q20823459"}},{"type":"node","id":9687738091,"lat":37.5848634,"lon":126.6759581,"tags":{"light_rail":"yes","name":"독정","name:en":"Dokjeong","name:ja":"ドクチョン","name:ko":"독정","name:zh":"笃亭","operator":"인천교통공사","public_transport":"station","railway":"station","ref":"I206","station":"light_rail","wheelchair":"yes","wikidata":"Q20823460"}},{"type":"node","id":9687738113,"lat":37.568749,"lon":126.6755711,"tags":{"light_rail":"yes","name":"검암","name:en":"Geomam","name:ja":"コマム(黔岩)","name:ko":"검암","name:zh":"黔岩","operator":"인천교통공사","public_transport":"station","railway":"station","ref":"I207","station":"light_rail","wikidata":"Q54257","wikipedia":"ko:검암역"}},{"type":"node","id":9687738126,"lat":37.5612482,"lon":126.6775102,"tags":{"light_rail":"yes","name":"검바위","name:en":"Geombawi","name:ja":"コムバウィ","name:ko":"검바위","name:zh":"黔石","operator":"인천교통공사","public_transport":"station","railway":"station","ref":"I208","station":"light_rail","wikidata":"Q20823461"}},{"type":"node","id":9687738136,"lat":37.5515881,"lon":126.6771005,"tags":{"light_rail":"yes","name":"아시아드경기장","name:en":"Asiad Stadium","name:ja":"アシアードキョンギジャン","name:ko":"아시아드경기장","name:zh":"亚运会赛场(公村十字路口)","operator":"인천교통공사","public_transport":"station","railway":"station","station":"light_rail","wikidata":"Q20823463"}},{"type":"node","id":9687738138,"lat":37.5439777,"lon":126.6768161,"tags":{"light_rail":"yes","name":"서구청","name:en":"Seo-gu Office","name:ja":"ソグチョン(西区庁)","name:ko":"서구청","name:zh":"西区厅","operator":"인천교통공사","public_transport":"station","railway":"station","ref":"I210","station":"light_rail","wheelchair":"yes","wikidata":"Q20823464"}},{"type":"node","id":9687738164,"lat":37.5174983,"lon":126.6767904,"tags":{"light_rail":"yes","name":"가정중앙시장","name:en":"Gajeong Jungang Market","name:ja":"カジョンチュンアンシジャン(佳亭中央市場)","name:ko":"가정중앙시장","name:zh":"佳亭中央市场","operator":"인천교통공사","public_transport":"station","railway":"station","ref":"I212","station":"light_rail","wikidata":"Q20823466"}},{"type":"node","id":9687738181,"lat":37.4999808,"lon":126.6758231,"tags":{"light_rail":"yes","name":"서부여성회관","name:en":"West Woman's Community Center","name:ja":"西部女性会館 (ソブヨソンフェグァン)","name:ko":"서부여성회관","name:zh":"西部女性会馆","operator":"인천교통공사","public_transport":"station","railway":"station","ref":"I214","station":"light_rail","wikidata":"Q20823468"}},{"type":"node","id":9687738197,"lat":37.4904588,"lon":126.6752387,"tags":{"light_rail":"yes","name":"인천가좌","name:en":"Incheon Gajwa","name:ja":"仁川佳佐 (インチョンカジュア)","name:ko":"인천가좌","name:zh":"仁川佳佐","operator":"인천교통공사","public_transport":"station","railway":"station","ref":"I215","station":"light_rail","wikidata":"Q20823470"}},{"type":"node","id":9687738218,"lat":37.4839499,"lon":126.6839791,"tags":{"light_rail":"yes","name":"가재울","name:en":"Gajaeul","name:ja":"カジェウル","name:ko":"가재울","name:zh":"蝲蛄溪","operator":"인천교통공사","public_transport":"station","railway":"station","ref":"I216","station":"light_rail","wikidata":"Q20823471"}},{"type":"node","id":9687738224,"lat":37.4739903,"lon":126.6811593,"tags":{"addr:city":"인천광역시","addr:district":"서구","addr:housenumber":"343","addr:street":"방축로","light_rail":"yes","name":"주안국가산단","name:en":"Juan National Industrial Complex","name:ja":"チュアングッカサンダン(朱安国家産団)","name:ko":"주안국가산단","name:zh":"朱安国家产团(仁川J谷)","operator":"인천교통공사","public_transport":"station","railway":"station","ref":"I217","station":"light_rail","wikidata":"Q20823472"}},{"type":"node","id":9687738258,"lat":37.4584104,"lon":126.6808299,"tags":{"light_rail":"yes","name":"시민공원","name:en":"Citizens Park (Culture Creation Zone)","name:ja":"市民公園(文化創作地帯) (シミンゴンウォン)","name:ko":"시민공원","name:zh":"市民公园(文化创作地带)","operator":"인천교통공사","public_transport":"station","railway":"station","ref":"I219","station":"light_rail","wheelchair":"yes","wikidata":"Q20823473"}},{"type":"node","id":9687738266,"lat":37.4576813,"lon":126.6922113,"tags":{"light_rail":"yes","name":"석바위시장","name:en":"Seokbawi Market","name:ja":"石バウィ市場 (ソッバウィシジャン)","name:ko":"석바위시장","name:zh":"石岩市场","operator":"인천교통공사","public_transport":"station","railway":"station","ref":"I220","station":"light_rail","wikidata":"Q20823474"}},{"type":"node","id":9687738274,"lat":37.456812,"lon":126.702435,"tags":{"light_rail":"yes","name":"인천시청","name:en":"Incheon City Hall","name:ja":"インチョンシチョン","name:ko":"인천시청","name:zh":"仁川市厅","operator":"인천교통공사","public_transport":"station","railway":"station","ref":"I221","station":"light_rail"}},{"type":"node","id":9687738281,"lat":37.4567338,"lon":126.7107789,"tags":{"light_rail":"yes","name":"석천사거리","name:en":"Seokcheon Sageori","name:ko":"석천사거리","operator":"인천교통공사","public_transport":"station","railway":"station","ref":"I222","station":"light_rail","wheelchair":"yes","wikidata":"Q20823475"}},{"type":"node","id":9687738286,"lat":37.455858,"lon":126.7194799,"tags":{"light_rail":"yes","name":"모래내시장","name:en":"Moraenae Market","name:ja":"モレネ市場 (モレネシジャン)","name:ko":"모래내시장","name:zh":"沙丘市场","operator":"인천교통공사","public_transport":"station","railway":"station","ref":"I223","station":"light_rail","wikidata":"Q20823477"}},{"type":"node","id":9687738321,"lat":37.4549681,"lon":126.7318593,"tags":{"light_rail":"yes","name":"만수","name:en":"Mansu","name:ja":"万寿(マンス)","name:ko":"만수","name:zh":"万寿","operator":"인천교통공사","public_transport":"station","railway":"station","ref":"I224","station":"light_rail","wikidata":"Q20823478"}},{"type":"node","id":9687738323,"lat":37.4481646,"lon":126.7368118,"tags":{"light_rail":"yes","name":"남동구청","name:en":"Namdong-gu Office","name:ja":"ナムドングチョン(南洞区庁)","name:ko":"남동구청","name:zh":"南洞区厅","operator":"인천교통공사","public_transport":"station","railway":"station","ref":"I225","station":"light_rail","wikidata":"Q20823479"}},{"type":"node","id":9687738344,"lat":37.4485494,"lon":126.7528149,"tags":{"light_rail":"yes","name":"인천대공원","name:en":"Incheon Grand Park","name:ja":"インチョンデゴンウォン(仁川大公園)","name:ko":"인천대공원","name:zh":"仁川大公园","operator":"인천교통공사","public_transport":"station","railway":"station","ref":"I226","station":"light_rail","wikidata":"Q20823480"}},{"type":"node","id":10814378022,"lat":37.6416413,"lon":126.6147983,"tags":{"light_rail":"yes","name":"양촌","name:en":"Yangchon","name:ja":"ヤンチョン(陽村)","name:ko":"양촌","name:zh":"陽村","operator":"김포골드라인SRS","public_transport":"station","railway":"station","ref":"100","station":"light_rail","wikidata":"Q24864027"}},{"type":"node","id":10814394645,"lat":37.6405997,"lon":126.6442376,"tags":{"light_rail":"yes","name":"마산","name:en":"Masan","name:ja":"マサン(麻山)","name:ko":"마산","name:zh":"麻山","operator":"김포골드라인SRS","public_transport":"station","railway":"station","ref":"102","station":"light_rail"}},{"type":"node","id":10814394648,"lat":37.6440265,"lon":126.6690138,"tags":{"light_rail":"yes","name":"장기","name:en":"Janggi","name:ja":"チャンギ(場基)","name:ko":"장기","name:zh":"場基","operator":"김포골드라인SRS","public_transport":"station","railway":"station","station":"light_rail"}},{"type":"node","id":10814394650,"lat":37.6538088,"lon":126.683938,"tags":{"light_rail":"yes","name":"운양","name:en":"Unyang","name:ja":"ウンヤン(雲陽)","name:ko":"운양","name:zh":"雲陽","operator":"김포골드라인SRS","public_transport":"station","railway":"station","ref":"104","station":"light_rail"}},{"type":"node","id":10814394652,"lat":37.6317148,"lon":126.7056466,"tags":{"light_rail":"yes","name":"걸포북변","name:en":"Geolpo Bukbyeon","name:ja":"コルポブクビョン(傑浦北辺)","name:ko":"걸포북변","operator":"김포골드라인SRS","public_transport":"station","railway":"station","ref":"105","station":"light_rail"}},{"type":"node","id":10814394654,"lat":37.6202004,"lon":126.719765,"tags":{"alt_name:ja":"サウ(キンポ市庁)","light_rail":"yes","name":"사우","name:en":"Sau","name:ja":"沙隅","name:ko":"사우","name:ko-Hani":"沙隅","name:zh":"沙隅","operator":"김포골드라인SRS","public_transport":"station","railway":"station","ref":"106","station":"light_rail"}},{"type":"node","id":10814394656,"lat":37.612374,"lon":126.7324628,"tags":{"light_rail":"yes","name":"풍무","name:en":"Pungmu","name:ja":"プンム(豊舞)","name:ko":"풍무","name:zh":"豊舞","operator":"김포골드라인SRS","public_transport":"station","railway":"station","ref":"107","station":"light_rail"}},{"type":"node","id":10814394658,"lat":37.6012627,"lon":126.7702118,"tags":{"light_rail":"yes","name":"고촌","name:en":"Gochon","name:ja":"ゴチョン(高村)","name:ko":"고촌","name:zh":"高村","operator":"김포골드라인SRS","public_transport":"station","railway":"station","ref":"108","station":"light_rail"}},{"type":"node","id":10814394660,"lat":37.5623275,"lon":126.8019608,"tags":{"light_rail":"yes","name":"김포공항","name:en":"Gimpo Int'l Airport","name:ja":"キンポゴンハン(金浦空港)","name:ko":"김포공항","name:zh":"金浦机场","operator":"김포골드라인SRS","operator:en":"Gimpo Goldline SRS","operator:ko":"김포골드라인SRS","operator:type":"private","public_transport":"station","railway":"station","ref":"G109","ref:AFC":"4929","station":"light_rail","wheelchair":"yes","wikidata":"Q54263","wikipedia":"ko:김포공항역"}},{"type":"node","id":10814394661,"lat":37.5619877,"lon":126.8015843,"tags":{"name":"김포공항","name:en":"Gimpo Int'l Airport","name:ja":"キンポゴンハン(金浦空港)","name:ko":"김포공항","name:zh":"金浦机场","operator":"서울시메트로9호선","operator:en":"Seoul Metro Line 9 Corporation","operator:ko":"서울시메트로9호선","operator:wikidata":"Q13311220","public_transport":"station","railway":"station","ref":"902","ref:AFC":"4102","station":"subway","subway":"yes","wheelchair":"yes","wikidata":"Q54263","wikipedia":"ko:김포공항역"}},{"type":"node","id":10814394662,"lat":37.561745,"lon":126.8015857,"tags":{"alt_ref":"0916","name":"김포공항","name:en":"Gimpo Int'l Airport","name:ja":"キンポゴンハン(金浦空港)","name:ko":"김포공항","name:zh":"金浦机场","name:zh-Hans":"金浦空港","name:zh-Hant":"金浦空港","operator":"공항철도주식회사","operator:en":"Airport Railroad Corporation","operator:ko":"공항철도주식회사","operator:short":"A'REX","operator:type":"consortium","operator:wikidata":"Q4675224","operator:wikipedia":"en:Airport Railroad Corporation","public_transport":"station","railway":"station","railway:ref":"김포공","ref":"A05","ref:AFC":"4207","ref:KROIS":"C10204","ref:XROIS":"3900930","station":"subway","subway":"yes","wheelchair":"yes","wikidata":"Q54263","wikipedia":"ko:김포공항역"}},{"type":"node","id":11237829305,"lat":37.5091331,"lon":126.8916649,"tags":{"addr:city":"서울특별시","addr:district":"구로구","addr:housenumber":"688","addr:postcode":"08209","addr:street":"경인로","addr:subdistrict":"신도림동","internet_access":"wlan","name":"신도림","name:en":"Sindorim","name:ja":"新道林","name:ko":"신도림","name:ko-Kana":"シンドリム","name:zh":"新道林","network":"수도권 전철","network:en":"Seoul Metropolitan Subway","network:ko":"수도권 전철","network:wikidata":"Q16950","not:network:wikidata":"Q167674","operator":"한국철도공사","operator:en":"Korea Railroad Corporation","operator:ko":"한국철도공사","operator:short":"KORAIL","operator:type":"public","operator:wikidata":"Q18169","operator:wikipedia":"en:Korail","platforms":"4","public_transport":"station","railway":"station","ref":"140","station":"subway","subway":"yes","train":"yes","wheelchair":"yes","wikidata":"Q43298","wikipedia":"ko:신도림역"}},{"type":"node","id":12961370706,"lat":37.5922592,"lon":126.7133006,"tags":{"addr:city":"인천광역시","addr:district":"서구","name":"아라","name:en":"Ara","name:ja":"アラ","name:ko":"아라","name:zh":"阿拉","operator":"인천교통공사","public_transport":"station","railway":"station","ref":"I109","station":"subway","subway":"yes","wheelchair":"yes","wikidata":"Q130284078","wikipedia":"ko:아라역"}},{"type":"node","id":12961370707,"lat":37.6026764,"lon":126.6985265,"tags":{"addr:city":"인천광역시","addr:district":"서구","name":"신검단중앙","name:en":"Singeomdanjungang","name:ja":"新黔丹中央(シンゴムダンジュンアン)","name:ko":"신검단중앙","name:zh":"新黔丹中央","operator":"인천교통공사","public_transport":"station","railway":"station","ref":"I108","station":"subway","subway":"yes","wheelchair":"yes","wikidata":"Q130284071","wikipedia":"ko:신검단중앙역"}},{"type":"node","id":12961370708,"lat":37.6024395,"lon":126.6885664,"tags":{"name":"검단호수공원","name:en":"Geomdan Lake Park","name:ja":"黔丹湖水公園(コムダンホスゴンウォン)","name:ko":"검단호수공원","name:zh":"黔丹湖水公园","operator":"인천교통공사","public_transport":"station","railway":"station","ref":"I107","station":"subway","subway":"yes","wikidata":"Q130284074","wikipedia":"ko:검단호수공원역"}},{"type":"node","id":13055976391,"lat":37.5566261,"lon":126.9234474,"tags":{"addr:city":"서울특별시","addr:district":"마포구","addr:housenumber":"지하160","addr:postcode":"04050","addr:street":"양화로","addr:subdistrict":"동교동","name":"홍대입구","name:en":"Hongik Univ.","name:ja":"弘大入口","name:ko":"홍대입구","name:ko-Kana":"ホンデイック","name:ko-Latn":"Hongdaeibgu","name:zh":"弘大入口","name:zh-Hans":"弘大入口","name:zh-Hant":"弘大入口","operator":"서울교통공사","platforms":"2","public_transport":"station","railway":"station","ref":"239","station":"subway","subway":"yes","train":"yes","wheelchair":"yes"}},{"type":"way","id":224626521,"center":{"lat":37.5536572,"lon":126.7448919},"nodes":[8390080125,2334293803,11202846516,11202846511,2334293799,2334293790,2334293822,2334293801,2334293791,8239162843,2334293797,2334293806,2334293817,2334293815,2334293811,2334293802,2334293793,2334293804,2334293789,11202846512,2334293816,2334293796,2334293814,8239162842,2334293823,2334293821,2334293795,11202846513,2334293798,2334293805,2334293826,2334293794,2334293800,2354552401,2334293824,11202846491,11202846490,11202846489,2354552387,2334293788,2334293819,8239162841,2334293807,2334293792,2334293818,2334293812,8239162840,2334293808,2334293810,2334293820,2334293809,11202846506,8390080125],"tags":{"bench":"yes","bin":"yes","covered":"yes","description":"train_station","layer":"-1","lit":"yes","name":"박촌","name:en":"Bakchon","name:ja":"パクチョン(朴村)","name:ko":"박촌","name:zh":"朴村","operator":"인천교통공사","operator:en":"Incheon Transit Corporation","operator:ko":"인천교통공사","operator:type":"public","operator:wikidata":"Q483883","platforms":"4","public_transport":"station","railway":"station","ref":"I112","station":"subway","subway":"yes","tactile_paving":"yes","wheelchair":"yes","wikidata":"Q491172","wikipedia":"ko:박촌역"}},{"type":"way","id":227895543,"center":{"lat":37.5451276,"lon":126.7387707},"nodes":[8390080124,2365266879,2365266864,2365266833,2365266815,2365266793,2365266779,2365266790,3152004139,2365266802,2365266805,3152004137,2365266765,2365266835,2365266882,2365266876,2365266875,2365266776,2365266803,2365266880,3152004138,2365266786,11148173050,2365266789,3152004140,8390080124],"tags":{"bench":"yes","bin":"yes","covered":"yes","description":"train_station","layer":"-1","lit":"yes","name":"임학","name:en":"Imhak","name:ja":"イムハク(林鶴)","name:ko":"임학","name:zh":"林鹤","operator":"인천교통공사","operator:en":"Incheon Transit Corporation","operator:ko":"인천교통공사","operator:type":"public","operator:wikidata":"Q483883","platforms":"2","public_transport":"station","railway":"station","ref":"I113","station":"subway","subway":"yes","tactile_paving":"yes","wheelchair":"yes","wikidata":"Q491162","wikipedia":"ko:임학역"}},{"type":"way","id":268233172,"center":{"lat":37.5046451,"lon":126.7635965},"nodes":[3401205506,2735909657,2735909655,2735909613,2735909654,2735909616,2735909619,2735909622,2735909625,2735909627,2735909629,2735909631,2735909633,2735909635,2735909637,2735909639,2735909640,2735909642,2735909661,2735909644,2735909646,2735909648,2735909650,3401205506],"tags":{"ele":"-1","name":"부천시청","name:en":"Bucheon City Hall","name:ja":"プチョンシチョン(富川市庁)","name:ko":"부천시청","operator":"인천교통공사","public_transport":"station","railway":"station","station":"subway","subway":"yes","wheelchair":"yes","wikidata":"Q69067","wikipedia":"ko:부천시청역"}},{"type":"way","id":299211053,"center":{"lat":37.5142483,"lon":126.942914},"nodes":[3031655527,3215386413,3031655528,3031655529,3031656250,3031656249,3031656243,3031656244,5760454255,5760454256,5760454257,4636820118,3031656248,3031656297,3031656254,3031655512,3031656252,3031656247,3031656246,3031655526,3031656241,3031656240,3031656239,3031655517,5900364889,3031656237,3031656236,3031656235,3031655520,5900364887,3031656233,3031655532,3031655531,3031655523,3031655527],"tags":{"building":"train_station","layer":"1","operator":"한국철도공사","station":"subway","subway":"yes"}},{"type":"way","id":407869047,"center":{"lat":37.612196,"lon":126.834008},"nodes":[4098969494,4098969522,4098969523,11295446992,11295446993,4098969521,4098969495,4098969496,4098969497,4098969498,4098969499,4098969500,4098969501,4098969502,4098969503,4098969504,4098969505,4098969506,4098969507,4098969508,4098969509,4098969510,4098969511,4098969512,4098969494],"tags":{"building":"train_station","layer":"1","operator":"한국철도공사","station":"subway","subway":"yes"}},{"type":"way","id":483500411,"center":{"lat":37.6189774,"lon":126.8209793},"nodes":[4762463240,4762463241,4762463242,4762463243,5891336706,5891336705,4762463244,5891336707,5891336708,4762463245,4762463246,4762463247,5891336703,5891336702,5891336701,5891336704,4762463240],"tags":{"addr:housenumber":"35","addr:street":"토당로","building":"train_station","layer":"1","operator":"한국철도공사","station":"subway","subway":"yes"}},{"type":"way","id":495912684,"center":{"lat":37.6124803,"lon":126.8455015},"nodes":[4876323633,4876323631,4876323624,4876323625,4876323626,4876323627,4876323628,4876323629,4876323630,4876323632,5891336689,5891336688,4876323633],"tags":{"building":"train_station","layer":"1","station":"subway","subway":"yes"}},{"type":"way","id":502801769,"center":{"lat":37.3916497,"lon":126.7428755},"nodes":[4931749820,4931750021,4931750022,4931750023,8238972215,4931749820],"tags":{"building":"train_station","operator":"한국철도공사","operator:en":"Korea Railroad Corporation","operator:ko":"한국철도공사","operator:short":"KORAIL","operator:type":"public","operator:wikidata":"Q18169","operator:wikipedia":"en:Korail","public_transport":"station","station":"subway","train":"yes"}},{"type":"way","id":1491725843,"center":{"lat":37.5130045,"lon":126.9259008},"nodes":[13670786952,13670786964,13670786963,13670786962,13670786961,13670786960,13670786959,13670786953,13670786954,13670786955,13670786956,13670786957,13670786943,13670786944,13670786945,13670786946,13670786947,13670786958,13670786948,13670786949,13670786950,13670786951,13670786952],"tags":{"name":"대방","public_transport":"station","railway":"station","station":"subway","subway":"yes"}}]}