{"elements":[{"type":"node","id":21455149,"lat":49.1690149,"lon":16.5666148,"tags":{"name":"Osová","public_transport":"stop_position","railway":"tram_stop","tram":"yes"}},{"type":"node","id":21496136,"lat":49.1713883,"lon":16.554581,"tags":{"name":"Starý Lískovec, smyčka","public_transport":"stop_position","railway":"tram_stop","tram":"yes"}},{"type":"node","id":21496169,"lat":49.2171666,"lon":16.6277661,"tags":{"name":"Štefánikova čtvrť","public_transport":"stop_position","railway":"tram_stop","tram":"yes"}},{"type":"node","id":21684684,"lat":49.2473413,"lon":16.5788102,"tags":{"name":"Řečkovice","public_transport":"stop_position","railway":"tram_stop","tram":"yes"}},{"type":"node","id":25237365,"lat":49.1940973,"lon":16.5697178,"tags":{"name":"Pisárky","public_transport":"stop_position","railway":"tram_stop","tram":"yes"}},{"type":"node","id":59817069,"lat":49.1915025,"lon":16.6411204,"tags":{"name":"Židovský hřbitov","public_transport":"stop_position","railway":"tram_stop","tram":"yes"}},{"type":"node","id":88962046,"lat":49.2119373,"lon":16.5683965,"tags":{"name":"Stránského","public_transport":"stop_position","railway":"tram_stop","tram":"yes"}},{"type":"node","id":158758772,"lat":49.2296162,"lon":16.5956444,"tags":{"name":"Královo Pole, nádraží","passenger_information_display":"yes","public_transport":"stop_position","railway":"tram_stop","tram":"yes"}},{"type":"node","id":171320139,"lat":49.1876665,"lon":16.6659848,"tags":{"name":"Podstránská","network":"Integrovaný dopravní systém Jihomoravského kraje","network:short":"IDS JMK","network:wikidata":"Q12020731","operator":"Dopravní podnik města Brna","operator:short":"DPMB","operator:wikidata":"Q3700534","public_transport":"stop_position","railway":"tram_stop","source":"survey","tram":"yes"}},{"type":"node","id":292055453,"lat":49.2260852,"lon":16.5193214,"tags":{"name":"Rakovecká","public_transport":"stop_position","railway":"tram_stop","tram":"yes"}},{"type":"node","id":292055472,"lat":49.2209734,"lon":16.5202754,"tags":{"name":"Kubíčkova","public_transport":"stop_position","railway":"tram_stop","tram":"yes"}},{"type":"node","id":292055473,"lat":49.2173239,"lon":16.5167737,"tags":{"name":"Ondrouškova","public_transport":"stop_position","railway":"tram_stop","tram":"yes"}},{"type":"node","id":292055474,"lat":49.2277699,"lon":16.5318552,"tags":{"name":"Zoologická zahrada","passenger_information_display":"yes","public_transport":"stop_position","railway":"tram_stop","tram":"yes"}},{"type":"node","id":292055481,"lat":49.1911838,"lon":16.611874,"tags":{"bus":"yes","local_ref":"1","name":"Hlavní nádraží","passenger_information_display":"yes","public_transport":"stop_position","railway":"tram_stop","tram":"yes"}},{"type":"node","id":292055482,"lat":49.1910722,"lon":16.6119842,"tags":{"bus":"yes","local_ref":"3","name":"Hlavní nádraží","passenger_information_display":"yes","public_transport":"stop_position","railway":"tram_stop","tram":"yes"}},{"type":"node","id":292055483,"lat":49.1900547,"lon":16.6088728,"tags":{"local_ref":"1","name":"Nové sady","public_transport":"stop_position","railway":"tram_stop","tram":"yes"}},{"type":"node","id":292055484,"lat":49.1899557,"lon":16.6088903,"tags":{"local_ref":"3","name":"Nové sady","public_transport":"stop_position","railway":"tram_stop","tram":"yes"}},{"type":"node","id":292055487,"lat":49.1950266,"lon":16.6147778,"tags":{"bus":"yes","name":"Malinovského náměstí","public_transport":"stop_position","railway":"tram_stop","tram":"yes"}},{"type":"node","id":307619657,"lat":49.1300208,"lon":16.6037504,"tags":{"name":"Modřice, Tyršova","public_transport":"stop_position","railway":"tram_stop","tram":"yes"}},{"type":"node","id":307922161,"lat":49.1272515,"lon":16.6044984,"tags":{"name":"Modřice, smyčka","public_transport":"stop_position","railway":"tram_stop","tram":"yes"}},{"type":"node","id":308610696,"lat":49.2235234,"lon":16.6226784,"tags":{"name":"Halasovo náměstí","public_transport":"stop_position","railway":"tram_stop","tram":"yes"}},{"type":"node","id":308613959,"lat":49.2160787,"lon":16.6155179,"tags":{"name":"Bieblova","public_transport":"stop_position","railway":"tram_stop","tram":"yes"}},{"type":"node","id":309925680,"lat":49.1792218,"lon":16.5975101,"tags":{"name":"Vsetínská","public_transport":"stop_position","railway":"tram_stop","tram":"yes"}},{"type":"node","id":309925685,"lat":49.1822074,"lon":16.6003225,"tags":{"name":"Vojtova","public_transport":"stop_position","railway":"tram_stop","tram":"yes"}},{"type":"node","id":309925689,"lat":49.1847399,"lon":16.6026953,"tags":{"name":"Křídlovická","passenger_information_display":"yes","public_transport":"stop_position","railway":"tram_stop","tram":"yes"}},{"type":"node","id":309925692,"lat":49.1885699,"lon":16.6069947,"tags":{"name":"Soukenická","passenger_information_display":"yes","public_transport":"stop_position","railway":"tram_stop","tram":"yes"}},{"type":"node","id":320945589,"lat":49.2067307,"lon":16.677286,"tags":{"name":"Masarova","public_transport":"stop_position","railway":"tram_stop","source":"gps","tram":"yes"}},{"type":"node","id":332291514,"lat":49.2097882,"lon":16.6811401,"tags":{"name":"Kotlanova","public_transport":"stop_position","railway":"tram_stop","tram":"yes"}},{"type":"node","id":349325297,"lat":49.235123,"lon":16.5875242,"tags":{"bus":"yes","name":"Hudcova","public_transport":"stop_position","railway":"tram_stop","tram":"yes"}},{"type":"node","id":416950978,"lat":49.2469809,"lon":16.5792435,"tags":{"name":"Řečkovice","public_transport":"stop_position","railway":"tram_stop","tram":"yes"}},{"type":"node","id":418384501,"lat":49.1963143,"lon":16.6540549,"tags":{"name":"Juliánov","public_transport":"stop_position","railway":"tram_stop","source":"gps","tram":"yes"}},{"type":"node","id":470223349,"lat":49.2327168,"lon":16.5891102,"tags":{"name":"Tylova","public_transport":"stop_position","railway":"tram_stop","tram":"yes"}},{"type":"node","id":519340951,"lat":49.1979449,"lon":16.5982241,"tags":{"bench":"yes","bin":"yes","bus":"yes","departures_board":"realtime","highway":"bus_stop","lit":"yes","name":"Obilní trh","network":"Integrovaný dopravní systém Jihomoravského kraje","network:short":"IDS JMK","network:wikidata":"Q12020731","network:wikipedia":"cs:Integrovaný dopravní systém Jihomoravského kraje","public_transport":"platform","shelter":"yes","tactile_paving":"no","tram":"yes"}},{"type":"node","id":583546565,"lat":49.1712222,"lon":16.5973433,"tags":{"name":"Ústřední hřbitov","public_transport":"stop_position","railway":"tram_stop","tram":"yes"}},{"type":"node","id":602658010,"lat":49.2198226,"lon":16.6432378,"tags":{"bench":"yes","bin":"yes","bus":"yes","highway":"bus_stop","lit":"yes","name":"Proškovo náměstí","network":"Integrovaný dopravní systém Jihomoravského kraje","network:short":"IDS JMK","network:wikidata":"Q12020731","network:wikipedia":"cs:Integrovaný dopravní systém Jihomoravského kraje","public_transport":"platform","shelter":"yes","source":"gps","tactile_paving":"no"}},{"type":"node","id":602658017,"lat":49.2202039,"lon":16.6434238,"tags":{"bench":"yes","bin":"yes","bus":"yes","check_date:shelter":"2022-12-31","highway":"bus_stop","lit":"yes","name":"Proškovo náměstí","network":"Integrovaný dopravní systém Jihomoravského kraje","network:short":"IDS JMK","network:wikidata":"Q12020731","network:wikipedia":"cs:Integrovaný dopravní systém Jihomoravského kraje","public_transport":"platform","shelter":"yes","source":"gps","tactile_paving":"no"}},{"type":"node","id":602658028,"lat":49.222549,"lon":16.6446897,"tags":{"bench":"yes","bin":"yes","bus":"yes","highway":"bus_stop","lit":"yes","name":"Obřanská - u školy","network":"Integrovaný dopravní systém Jihomoravského kraje","network:short":"IDS JMK","network:wikidata":"Q12020731","network:wikipedia":"cs:Integrovaný dopravní systém Jihomoravského kraje","public_transport":"platform","shelter":"no","source":"gps","tactile_paving":"yes"}},{"type":"node","id":602658032,"lat":49.2229736,"lon":16.644871,"tags":{"bench":"yes","bin":"yes","bus":"yes","highway":"bus_stop","lit":"yes","name":"Obřanská - u školy","network":"Integrovaný dopravní systém Jihomoravského kraje","network:short":"IDS JMK","network:wikidata":"Q12020731","network:wikipedia":"cs:Integrovaný dopravní systém Jihomoravského kraje","public_transport":"platform","shelter":"no","source":"gps","tactile_paving":"yes"}},{"type":"node","id":602658057,"lat":49.2255266,"lon":16.6449052,"tags":{"bench":"yes","bin":"yes","bus":"yes","highway":"bus_stop","lit":"yes","name":"Čtvery hony","network":"Integrovaný dopravní systém Jihomoravského kraje","network:short":"IDS JMK","network:wikidata":"Q12020731","network:wikipedia":"cs:Integrovaný dopravní systém Jihomoravského kraje","public_transport":"platform","shelter":"yes","tactile_paving":"yes"}},{"type":"node","id":612080414,"lat":49.19179,"lon":16.6738143,"tags":{"name":"Stránská skála","network":"Integrovaný dopravní systém Jihomoravského kraje","network:short":"IDS JMK","network:wikidata":"Q12020731","operator":"Dopravní podnik města Brna","operator:short":"DPMB","operator:wikidata":"Q3700534","public_transport":"stop_position","railway":"tram_stop","tram":"yes"}},{"type":"node","id":613092301,"lat":49.1758847,"lon":16.6213049,"tags":{"name":"Komárov","public_transport":"stop_position","railway":"tram_stop","tram":"yes"}},{"type":"node","id":613092302,"lat":49.176164,"lon":16.6216392,"tags":{"name":"Komárov","public_transport":"stop_position","railway":"tram_stop","tram":"yes"}},{"type":"node","id":613092743,"lat":49.2313614,"lon":16.5770385,"tags":{"name":"Technologický park","public_transport":"stop_position","railway":"tram_stop","tram":"yes"}},{"type":"node","id":613140972,"lat":49.2279903,"lon":16.6525791,"tags":{"bus":"yes","name":"Babická","public_transport":"stop_position","railway":"tram_stop","tram":"yes"}},{"type":"node","id":654215651,"lat":49.2081975,"lon":16.6201625,"tags":{"bench":"yes","bin":"yes","bus":"yes","covered":"yes","highway":"bus_stop","lit":"yes","name":"Tomanova","network":"IDS JMK","network:wikidata":"Q12020731","network:wikipedia":"cs:Integrovaný dopravní systém Jihomoravského kraje","public_transport":"platform","shelter":"yes","tactile_paving":"yes"}},{"type":"node","id":968108520,"lat":49.2281935,"lon":16.6523994,"tags":{"bus":"yes","name":"Babická","public_transport":"stop_position","railway":"tram_stop","tram":"yes"}},{"type":"node","id":1279034565,"lat":49.1921935,"lon":16.6138567,"tags":{"bus":"yes","local_ref":"6","name":"Hlavní nádraží","public_transport":"stop_position","railway":"tram_stop","tram":"yes"}},{"type":"node","id":1577931238,"lat":49.219787,"lon":16.6192712,"tags":{"name":"Fügnerova","public_transport":"stop_position","railway":"tram_stop","tram":"yes"}},{"type":"node","id":1709805076,"lat":49.2183182,"lon":16.508984,"tags":{"name":"Ečerova","public_transport":"stop_position","railway":"tram_stop","tram":"yes"}},{"type":"node","id":2041933176,"lat":49.1954891,"lon":16.6138202,"tags":{"bench":"yes","bin":"yes","bus":"yes","highway":"bus_stop","lit":"yes","name":"Malinovského náměstí","network":"Integrovaný dopravní systém Jihomoravského kraje","network:short":"IDS JMK","network:wikidata":"Q12020731","network:wikipedia":"cs:Integrovaný dopravní systém Jihomoravského kraje","public_transport":"platform","shelter":"yes","tactile_paving":"no","wheelchair":"no"}},{"type":"node","id":2041933183,"lat":49.1961824,"lon":16.6129441,"tags":{"bench":"yes","bin":"yes","bus":"yes","highway":"bus_stop","lit":"yes","name":"Malinovského náměstí","network":"Integrovaný dopravní systém Jihomoravského kraje","network:short":"IDS JMK","network:wikidata":"Q12020731","network:wikipedia":"cs:Integrovaný dopravní systém Jihomoravského kraje","public_transport":"platform","shelter":"yes","tactile_paving":"no","wheelchair":"no"}},{"type":"node","id":2294305596,"lat":49.2265114,"lon":16.6236995,"tags":{"name":"Čertova rokle","public_transport":"stop_position","railway":"tram_stop","tram":"yes"}},{"type":"node","id":2557868745,"lat":49.2124096,"lon":16.6174319,"tags":{"name":"Lesnická","public_transport":"stop_position","railway":"tram_stop","tram":"yes"}},{"type":"node","id":2558146942,"lat":49.2020494,"lon":16.5815043,"tags":{"bus":"yes","name":"Náměstí Míru","public_transport":"stop_position","railway":"tram_stop","tram":"yes"}},{"type":"node","id":2812155916,"lat":49.1986004,"lon":16.589179,"tags":{"bench":"yes","bin":"yes","bus":"yes","departures_board":"realtime","fixme":"resurvey position","highway":"bus_stop","lit":"yes","name":"Všetičkova","network":"IDS JMK","network:wikidata":"Q12020731","network:wikipedia":"cs:Integrovaný dopravní systém Jihomoravského kraje","public_transport":"platform","shelter":"no","tactile_paving":"yes"}},{"type":"node","id":2812232969,"lat":49.2159116,"lon":16.5891991,"tags":{"bench":"yes","bin":"yes","bus":"yes","highway":"bus_stop","lit":"yes","name":"Tererova","network":"Integrovaný dopravní systém Jihomoravského kraje","network:short":"IDS JMK","network:wikidata":"Q12020731","network:wikipedia":"cs:Integrovaný dopravní systém Jihomoravského kraje","public_transport":"platform","shelter":"no","tactile_paving":"no"}},{"type":"node","id":2812232970,"lat":49.2154898,"lon":16.5892884,"tags":{"bench":"yes","bin":"yes","bus":"yes","highway":"bus_stop","lit":"no","name":"Tererova","network":"Integrovaný dopravní systém Jihomoravského kraje","network:short":"IDS JMK","network:wikidata":"Q12020731","network:wikipedia":"cs:Integrovaný dopravní systém Jihomoravského kraje","public_transport":"platform","shelter":"yes","tactile_paving":"no"}},{"type":"node","id":2812235815,"lat":49.2062781,"lon":16.5930333,"tags":{"bench":"no","bin":"yes","bus":"yes","highway":"bus_stop","lit":"yes","name":"Rybkova","network":"Integrovaný dopravní systém Jihomoravského kraje","network:short":"IDS JMK","network:wikidata":"Q12020731","network:wikipedia":"cs:Integrovaný dopravní systém Jihomoravského kraje","public_transport":"platform","shelter":"no","tactile_paving":"no"}},{"type":"node","id":2812241123,"lat":49.2104982,"lon":16.5858645,"tags":{"bench":"yes","bin":"yes","bus":"yes","highway":"bus_stop","lit":"yes","name":"Tábor","network":"Integrovaný dopravní systém Jihomoravského kraje","network:short":"IDS JMK","network:wikidata":"Q12020731","network:wikipedia":"cs:Integrovaný dopravní systém Jihomoravského kraje","public_transport":"platform","shelter":"yes","tactile_paving":"no"}},{"type":"node","id":2812241124,"lat":49.2112622,"lon":16.5835353,"tags":{"bench":"no","bin":"yes","bus":"yes","highway":"bus_stop","lit":"yes","name":"Králova","network":"Integrovaný dopravní systém Jihomoravského kraje","network:short":"IDS JMK","network:wikidata":"Q12020731","network:wikipedia":"cs:Integrovaný dopravní systém Jihomoravského kraje","public_transport":"platform","shelter":"no","tactile_paving":"no"}},{"type":"node","id":2812258252,"lat":49.1955188,"lon":16.6133316,"tags":{"bench":"yes","bin":"yes","bus":"yes","highway":"bus_stop","lit":"yes","name":"Malinovského náměstí","network":"Integrovaný dopravní systém Jihomoravského kraje","network:short":"IDS JMK","network:wikidata":"Q12020731","network:wikipedia":"cs:Integrovaný dopravní systém Jihomoravského kraje","public_transport":"platform","shelter":"yes","tactile_paving":"no","wheelchair":"no"}},{"type":"node","id":2812265794,"lat":49.2035822,"lon":16.6067354,"tags":{"name":"Antonínská","public_transport":"stop_position","railway":"tram_stop","tram":"yes"}},{"type":"node","id":2815655662,"lat":49.2078624,"lon":16.6203336,"tags":{"bench":"yes","bin":"yes","bus":"yes","covered":"yes","highway":"bus_stop","lit":"yes","name":"Tomanova","network":"IDS JMK","network:wikidata":"Q12020731","network:wikipedia":"cs:Integrovaný dopravní systém Jihomoravského kraje","public_transport":"platform","shelter":"yes","tactile_paving":"yes"}},{"type":"node","id":3015951190,"lat":49.192674,"lon":16.6775032,"tags":{"name":"Stránská skála - smyčka","network":"Integrovaný dopravní systém Jihomoravského kraje","network:short":"IDS JMK","network:wikidata":"Q12020731","operator":"Dopravní podnik města Brna","operator:short":"DPMB","operator:wikidata":"Q3700534","public_transport":"stop_position","railway":"tram_stop","tram":"yes"}},{"type":"node","id":3015951191,"lat":49.1927163,"lon":16.6770586,"tags":{"name":"Stránská skála - smyčka","network":"Integrovaný dopravní systém Jihomoravského kraje","network:short":"IDS JMK","network:wikidata":"Q12020731","operator":"Dopravní podnik města Brna","operator:short":"DPMB","operator:wikidata":"Q3700534","public_transport":"stop_position","railway":"tram_stop","tram":"yes"}},{"type":"node","id":3024225163,"lat":49.2168753,"lon":16.6280964,"tags":{"name":"Štefánikova čtvrť","public_transport":"stop_position","railway":"tram_stop","tram":"yes"}},{"type":"node","id":3325029090,"lat":49.1920821,"lon":16.6139104,"tags":{"bus":"yes","local_ref":"5","name":"Hlavní nádraží","public_transport":"stop_position","railway":"tram_stop","tram":"yes"}},{"type":"node","id":3325029092,"lat":49.1913005,"lon":16.612672,"tags":{"bus":"yes","local_ref":"4","name":"Hlavní nádraží","passenger_information_display":"yes","public_transport":"stop_position","railway":"tram_stop","tram":"yes"}},{"type":"node","id":3325029093,"lat":49.1914157,"lon":16.6125789,"tags":{"bus":"yes","local_ref":"2","name":"Hlavní nádraží","passenger_information_display":"yes","public_transport":"stop_position","railway":"tram_stop","tram":"yes"}},{"type":"node","id":3325029100,"lat":49.1901905,"lon":16.6096322,"tags":{"local_ref":"4","name":"Nové sady","public_transport":"stop_position","railway":"tram_stop","tram":"yes"}},{"type":"node","id":3325029101,"lat":49.190267,"lon":16.6095611,"tags":{"local_ref":"2","name":"Nové sady","public_transport":"stop_position","railway":"tram_stop","tram":"yes"}},{"type":"node","id":3329757236,"lat":49.1956955,"lon":16.6080099,"tags":{"name":"Náměstí Svobody","public_transport":"stop_position","railway":"tram_stop","tram":"yes"}},{"type":"node","id":3329757238,"lat":49.1958603,"lon":16.6079997,"tags":{"name":"Náměstí Svobody","public_transport":"stop_position","railway":"tram_stop","tram":"yes"}},{"type":"node","id":3329757239,"lat":49.1928335,"lon":16.6101089,"tags":{"name":"Zelný trh","public_transport":"stop_position","railway":"tram_stop","tram":"yes"}},{"type":"node","id":3329757241,"lat":49.1932154,"lon":16.6097847,"tags":{"name":"Zelný trh","public_transport":"stop_position","railway":"tram_stop","tram":"yes"}},{"type":"node","id":3329757264,"lat":49.1928004,"lon":16.6101119,"tags":{"bench":"yes","bin":"no","lit":"yes","name":"Zelný trh","network":"IDS JMK","network:wikidata":"Q12020731","network:wikipedia":"cs:Integrovaný dopravní systém Jihomoravského kraje","public_transport":"platform","railway":"platform","shelter":"no","tactile_paving":"no"}},{"type":"node","id":3329757270,"lat":49.1932469,"lon":16.6097761,"tags":{"bench":"yes","bin":"no","lit":"yes","name":"Zelný trh","network":"IDS JMK","network:wikidata":"Q12020731","network:wikipedia":"cs:Integrovaný dopravní systém Jihomoravského kraje","public_transport":"platform","railway":"platform","shelter":"no","tactile_paving":"no"}},{"type":"node","id":3329757288,"lat":49.1956575,"lon":16.6079833,"tags":{"bench":"yes","bin":"yes","lit":"yes","name":"Náměstí Svobody","network":"IDS JMK","network:wikidata":"Q12020731","network:wikipedia":"cs:Integrovaný dopravní systém Jihomoravského kraje","public_transport":"platform","railway":"platform","shelter":"yes","tactile_paving":"yes"}},{"type":"node","id":3329757292,"lat":49.1957979,"lon":16.6080471,"tags":{"bench":"yes","bin":"no","lit":"yes","name":"Náměstí Svobody","network":"IDS JMK","network:wikidata":"Q12020731","network:wikipedia":"cs:Integrovaný dopravní systém Jihomoravského kraje","public_transport":"platform","railway":"platform","shelter":"yes","tactile_paving":"yes"}},{"type":"node","id":3329758213,"lat":49.1975018,"lon":16.60729,"tags":{"local_ref":"5","name":"Česká","public_transport":"stop_position","railway":"tram_stop","tram":"yes"}},{"type":"node","id":3329758427,"lat":49.1978575,"lon":16.6071966,"tags":{"local_ref":"6","name":"Česká","public_transport":"stop_position","railway":"tram_stop","tram":"yes"}},{"type":"node","id":3329758745,"lat":49.1976212,"lon":16.605689,"tags":{"local_ref":"1","name":"Česká","passenger_information_display":"yes","public_transport":"stop_position","railway":"tram_stop","tram":"yes"}},{"type":"node","id":3329758746,"lat":49.1977219,"lon":16.60653,"tags":{"local_ref":"2","name":"Česká","passenger_information_display":"yes","public_transport":"stop_position","railway":"tram_stop","tram":"yes"}},{"type":"node","id":3329758747,"lat":49.1978299,"lon":16.6051304,"tags":{"local_ref":"3","name":"Česká","passenger_information_display":"yes","public_transport":"stop_position","railway":"tram_stop","tram":"yes"}},{"type":"node","id":3329758748,"lat":49.1981354,"lon":16.6050767,"tags":{"local_ref":"4","name":"Česká","passenger_information_display":"yes","public_transport":"stop_position","railway":"tram_stop","tram":"yes"}},{"type":"node","id":3331518919,"lat":49.1970888,"lon":16.6021537,"tags":{"name":"Komenského náměstí","network":"Integrovaný dopravní systém Jihomoravského kraje","network:short":"IDS JMK","network:wikidata":"Q12020731","operator":"Dopravní podnik města Brna","operator:short":"DPMB","operator:wikidata":"Q3700534","public_transport":"stop_position","railway":"tram_stop","tram":"yes","wheelchair":"yes"}},{"type":"node","id":3331518921,"lat":49.1971371,"lon":16.6026839,"tags":{"name":"Komenského náměstí","network":"Integrovaný dopravní systém Jihomoravského kraje","network:short":"IDS JMK","network:wikidata":"Q12020731","operator":"Dopravní podnik města Brna","operator:short":"DPMB","operator:wikidata":"Q3700534","public_transport":"stop_position","railway":"tram_stop","tram":"yes"}},{"type":"node","id":3331519051,"lat":49.1921921,"lon":16.6052695,"tags":{"bench":"no","bin":"yes","bus":"yes","highway":"bus_stop","lit":"yes","name":"Šilingrovo náměstí","network":"IDS JMK","network:wikidata":"Q12020731","network:wikipedia":"cs:Integrovaný dopravní systém Jihomoravského kraje","public_transport":"platform","shelter":"no","tactile_paving":"yes","wheelchair":"yes"}},{"type":"node","id":3331519242,"lat":49.1917822,"lon":16.60534,"tags":{"name":"Šilingrovo náměstí","public_transport":"stop_position","railway":"tram_stop","tram":"yes"}},{"type":"node","id":3331519243,"lat":49.1921727,"lon":16.6052484,"tags":{"name":"Šilingrovo náměstí","public_transport":"stop_position","railway":"tram_stop","tram":"yes"}},{"type":"node","id":3331519245,"lat":49.1922134,"lon":16.6047213,"tags":{"name":"Šilingrovo náměstí","public_transport":"stop_position","railway":"tram_stop","tram":"yes"}},{"type":"node","id":3331519246,"lat":49.192276,"lon":16.6042302,"tags":{"name":"Šilingrovo náměstí","public_transport":"stop_position","railway":"tram_stop","tram":"yes"}},{"type":"node","id":3337976292,"lat":49.1707098,"lon":16.5808564,"tags":{"name":"Běloruská","public_transport":"stop_position","railway":"tram_stop","tram":"yes"}},{"type":"node","id":3337977696,"lat":49.1723203,"lon":16.5864137,"tags":{"name":"Krematorium","public_transport":"stop_position","railway":"tram_stop","tram":"yes"}},{"type":"node","id":3337977698,"lat":49.1722472,"lon":16.5863845,"tags":{"name":"Krematorium","public_transport":"stop_position","railway":"tram_stop","tram":"yes"}},{"type":"node","id":3337977700,"lat":49.1853077,"lon":16.6033156,"tags":{"name":"Křídlovická","passenger_information_display":"yes","public_transport":"stop_position","railway":"tram_stop","tram":"yes"}},{"type":"node","id":3337977705,"lat":49.1889339,"lon":16.607537,"tags":{"name":"Soukenická","passenger_information_display":"yes","public_transport":"stop_position","railway":"tram_stop","tram":"yes"}},{"type":"node","id":3337977706,"lat":49.170537,"lon":16.5545018,"tags":{"name":"Starý Lískovec, smyčka","public_transport":"stop_position","railway":"tram_stop","tram":"yes"}},{"type":"node","id":3337977709,"lat":49.1826085,"lon":16.600759,"tags":{"name":"Vojtova","public_transport":"stop_position","railway":"tram_stop","tram":"yes"}},{"type":"node","id":3337977711,"lat":49.1796868,"lon":16.598013,"tags":{"name":"Vsetínská","public_transport":"stop_position","railway":"tram_stop","tram":"yes"}},{"type":"node","id":3337977754,"lat":49.1690149,"lon":16.5674276,"tags":{"name":"Osová","public_transport":"stop_position","railway":"tram_stop","tram":"yes"}},{"type":"node","id":3339546834,"lat":49.1913185,"lon":16.576638,"tags":{"name":"ARENA BRNO","public_transport":"stop_position","railway":"tram_stop","tram":"yes"}},{"type":"node","id":3339546836,"lat":49.1915263,"lon":16.5761118,"tags":{"name":"ARENA BRNO","public_transport":"stop_position","railway":"tram_stop","tram":"yes"}},{"type":"node","id":3339546839,"lat":49.1900106,"lon":16.5933993,"tags":{"local_ref":"1","name":"Mendlovo náměstí","passenger_information_display":"yes","public_transport":"stop_position","railway":"tram_stop","tram":"yes"}},{"type":"node","id":3339546840,"lat":49.1897788,"lon":16.592601,"tags":{"local_ref":"2","name":"Mendlovo náměstí","passenger_information_display":"yes","public_transport":"stop_position","railway":"tram_stop","tram":"yes"}},{"type":"node","id":3339546847,"lat":49.1902848,"lon":16.5948204,"tags":{"local_ref":"3","name":"Mendlovo náměstí","passenger_information_display":"yes","public_transport":"stop_position","railway":"tram_stop","tram":"yes"}},{"type":"node","id":3339546854,"lat":49.1894877,"lon":16.5848271,"tags":{"name":"Výstaviště - hlavní vstup","public_transport":"stop_position","railway":"tram_stop","tram":"yes"}},{"type":"node","id":3339546858,"lat":49.1895904,"lon":16.5844716,"tags":{"name":"Výstaviště - hlavní vstup","public_transport":"stop_position","railway":"tram_stop","tram":"yes"}},{"type":"node","id":3339546859,"lat":49.1902074,"lon":16.5804899,"tags":{"name":"Výstaviště - vstup G2","public_transport":"stop_position","railway":"tram_stop","tram":"yes"}},{"type":"node","id":3339546861,"lat":49.190322,"lon":16.579945,"tags":{"name":"Výstaviště - vstup G2","public_transport":"stop_position","railway":"tram_stop","tram":"yes"}},{"type":"node","id":3341632788,"lat":49.2119579,"lon":16.5685888,"tags":{"name":"Stránského","public_transport":"stop_position","railway":"tram_stop","tram":"yes"}},{"type":"node","id":3341632792,"lat":49.2132079,"lon":16.5597518,"tags":{"name":"Vozovna Komín","public_transport":"stop_position","railway":"tram_stop","tram":"yes"}},{"type":"node","id":3343438227,"lat":49.2193948,"lon":16.5481339,"tags":{"name":"Branka","public_transport":"stop_position","railway":"tram_stop","tram":"yes"}},{"type":"node","id":3343438229,"lat":49.2193945,"lon":16.5472826,"tags":{"name":"Branka","public_transport":"stop_position","railway":"tram_stop","tram":"yes"}},{"type":"node","id":3343438231,"lat":49.2258811,"lon":16.5187422,"tags":{"name":"Rakovecká","public_transport":"stop_position","railway":"tram_stop","tram":"yes"}},{"type":"node","id":3343438235,"lat":49.2217382,"lon":16.5367749,"tags":{"name":"Kamenolom","public_transport":"stop_position","railway":"tram_stop","tram":"yes"}},{"type":"node","id":3343438238,"lat":49.2218927,"lon":16.5367007,"tags":{"name":"Kamenolom","public_transport":"stop_position","railway":"tram_stop","tram":"yes"}},{"type":"node","id":3343438240,"lat":49.2206043,"lon":16.5202639,"tags":{"name":"Kubíčkova","public_transport":"stop_position","railway":"tram_stop","tram":"yes"}},{"type":"node","id":3343438242,"lat":49.2174057,"lon":16.5169253,"tags":{"name":"Ondrouškova","public_transport":"stop_position","railway":"tram_stop","tram":"yes"}},{"type":"node","id":3343438246,"lat":49.2187091,"lon":16.542179,"tags":{"name":"Podlesí","public_transport":"stop_position","railway":"tram_stop","tram":"yes"}},{"type":"node","id":3343438248,"lat":49.2187051,"lon":16.5424185,"tags":{"name":"Podlesí","public_transport":"stop_position","railway":"tram_stop","tram":"yes"}},{"type":"node","id":3343438250,"lat":49.2281217,"lon":16.5216187,"tags":{"name":"Přístaviště","public_transport":"stop_position","railway":"tram_stop","tram":"yes"}},{"type":"node","id":3343438253,"lat":49.228504,"lon":16.5225784,"tags":{"name":"Přístaviště","public_transport":"stop_position","railway":"tram_stop","tram":"yes"}},{"type":"node","id":3343438256,"lat":49.2178784,"lon":16.553708,"tags":{"name":"Svratecká","public_transport":"stop_position","railway":"tram_stop","tram":"yes"}},{"type":"node","id":3343438258,"lat":49.217996,"lon":16.5534691,"tags":{"name":"Svratecká","public_transport":"stop_position","railway":"tram_stop","tram":"yes"}},{"type":"node","id":3343438260,"lat":49.2276427,"lon":16.5320406,"tags":{"name":"Zoologická zahrada","passenger_information_display":"yes","public_transport":"stop_position","railway":"tram_stop","tram":"yes"}},{"type":"node","id":3343916944,"lat":49.1914814,"lon":16.5993288,"tags":{"name":"Nemocnice u sv. Anny","public_transport":"stop_position","railway":"tram_stop","tram":"yes"}},{"type":"node","id":3343916946,"lat":49.1915277,"lon":16.5988173,"tags":{"name":"Nemocnice u sv. Anny","public_transport":"stop_position","railway":"tram_stop","tram":"yes"}},{"type":"node","id":3348674884,"lat":49.1886434,"lon":16.5969895,"tags":{"bench":"no","bin":"yes","bus":"yes","highway":"bus_stop","lit":"yes","name":"Václavská","network":"IDS JMK","network:wikidata":"Q12020731","network:wikipedia":"cs:Integrovaný dopravní systém Jihomoravského kraje","public_transport":"platform","shelter":"no","tactile_paving":"no"}},{"type":"node","id":3348674885,"lat":49.1887155,"lon":16.5971974,"tags":{"bench":"yes","bin":"yes","bus":"yes","highway":"bus_stop","lit":"yes","name":"Václavská","network":"IDS JMK","network:wikidata":"Q12020731","network:wikipedia":"cs:Integrovaný dopravní systém Jihomoravského kraje","public_transport":"platform","shelter":"no","tactile_paving":"no"}},{"type":"node","id":3348674886,"lat":49.1891817,"lon":16.6033376,"tags":{"bench":"yes","bin":"yes","bus":"yes","highway":"bus_stop","lit":"yes","name":"Hybešova","network":"IDS JMK","network:wikidata":"Q12020731","network:wikipedia":"cs:Integrovaný dopravní systém Jihomoravského kraje","public_transport":"platform","shelter":"yes","tactile_paving":"no"}},{"type":"node","id":3348674887,"lat":49.1892146,"lon":16.6034213,"tags":{"name":"Hybešova","public_transport":"stop_position","railway":"tram_stop","tram":"yes"}},{"type":"node","id":3348674889,"lat":49.1892591,"lon":16.6028671,"tags":{"name":"Hybešova","public_transport":"stop_position","railway":"tram_stop","tram":"yes"}},{"type":"node","id":3348674890,"lat":49.1893094,"lon":16.6028719,"tags":{"bench":"no","bin":"yes","bus":"yes","highway":"bus_stop","lit":"yes","name":"Hybešova","network":"Integrovaný dopravní systém Jihomoravského kraje","network:short":"IDS JMK","network:wikidata":"Q12020731","network:wikipedia":"cs:Integrovaný dopravní systém Jihomoravského kraje","public_transport":"platform","shelter":"yes","tactile_paving":"no"}},{"type":"node","id":3348674894,"lat":49.1871817,"lon":16.5946382,"tags":{"bus":"yes","name":"Poříčí","public_transport":"stop_position","railway":"tram_stop","tram":"yes"}},{"type":"node","id":3348674896,"lat":49.1873667,"lon":16.5945374,"tags":{"bus":"yes","name":"Poříčí","public_transport":"stop_position","railway":"tram_stop","tram":"yes"}},{"type":"node","id":3348674898,"lat":49.1886829,"lon":16.5970077,"tags":{"name":"Václavská","public_transport":"stop_position","railway":"tram_stop","tram":"yes"}},{"type":"node","id":3348674899,"lat":49.188683,"lon":16.5971903,"tags":{"name":"Václavská","public_transport":"stop_position","railway":"tram_stop","tram":"yes"}},{"type":"node","id":3349657530,"lat":49.2169806,"lon":16.5989039,"tags":{"bus":"yes","name":"Kartouzská","public_transport":"stop_position","railway":"tram_stop","tram":"yes"}},{"type":"node","id":3349872384,"lat":49.1790896,"lon":16.5953541,"tags":{"name":"Celní","public_transport":"stop_position","railway":"tram_stop","tram":"yes"}},{"type":"node","id":3349872386,"lat":49.1795882,"lon":16.5952753,"tags":{"name":"Celní","public_transport":"stop_position","railway":"tram_stop","tram":"yes"}},{"type":"node","id":3349872387,"lat":49.1753683,"lon":16.5961637,"tags":{"name":"Hluboká","public_transport":"stop_position","railway":"tram_stop","tram":"yes"}},{"type":"node","id":3349872389,"lat":49.1755262,"lon":16.5960666,"tags":{"name":"Hluboká","public_transport":"stop_position","railway":"tram_stop","tram":"yes"}},{"type":"node","id":3349872390,"lat":49.1834998,"lon":16.5949669,"tags":{"name":"Nemocnice Milosrdných bratří","public_transport":"stop_position","railway":"tram_stop","tram":"yes"}},{"type":"node","id":3349872392,"lat":49.1838713,"lon":16.595071,"tags":{"name":"Nemocnice Milosrdných bratří","public_transport":"stop_position","railway":"tram_stop","tram":"yes"}},{"type":"node","id":3349872789,"lat":49.1713303,"lon":16.5972597,"tags":{"name":"Ústřední hřbitov","public_transport":"stop_position","railway":"tram_stop","tram":"yes"}},{"type":"node","id":3349872791,"lat":49.1650733,"lon":16.5985944,"tags":{"name":"Ústřední hřbitov - smyčka","public_transport":"stop_position","railway":"tram_stop","tram":"yes"}},{"type":"node","id":3349872792,"lat":49.1648876,"lon":16.5981053,"tags":{"name":"Ústřední hřbitov - smyčka","public_transport":"stop_position","railway":"tram_stop","tram":"yes"}},{"type":"node","id":3351754389,"lat":49.161432,"lon":16.5993023,"tags":{"name":"Bohunická","public_transport":"stop_position","railway":"tram_stop","tram":"yes"}},{"type":"node","id":3351754390,"lat":49.1622547,"lon":16.5992317,"tags":{"name":"Bohunická","public_transport":"stop_position","railway":"tram_stop","tram":"yes"}},{"type":"node","id":3351754391,"lat":49.1296162,"lon":16.6036953,"tags":{"name":"Modřice, Tyršova","public_transport":"stop_position","railway":"tram_stop","tram":"yes"}},{"type":"node","id":3351756895,"lat":49.1269721,"lon":16.6041616,"tags":{"name":"Modřice, smyčka","public_transport":"stop_position","railway":"tram_stop","tram":"yes"}},{"type":"node","id":3351756897,"lat":49.1371881,"lon":16.6034675,"tags":{"name":"Modřická cihelna","public_transport":"stop_position","railway":"tram_stop","tram":"yes"}},{"type":"node","id":3351756899,"lat":49.1375861,"lon":16.6033628,"tags":{"name":"Modřická cihelna","public_transport":"stop_position","railway":"tram_stop","tram":"yes"}},{"type":"node","id":3351756900,"lat":49.1425946,"lon":16.6025898,"tags":{"name":"Moravanská","public_transport":"stop_position","railway":"tram_stop","tram":"yes"}},{"type":"node","id":3351756902,"lat":49.1429428,"lon":16.602476,"tags":{"name":"Moravanská","public_transport":"stop_position","railway":"tram_stop","tram":"yes"}},{"type":"node","id":3351756903,"lat":49.1493047,"lon":16.6014349,"tags":{"name":"Moravanské lány","public_transport":"stop_position","railway":"tram_stop","tram":"yes"}},{"type":"node","id":3351756905,"lat":49.1496364,"lon":16.6013273,"tags":{"name":"Moravanské lány","public_transport":"stop_position","railway":"tram_stop","tram":"yes"}},{"type":"node","id":3351756906,"lat":49.1578175,"lon":16.5999242,"tags":{"name":"Ořechovská","public_transport":"stop_position","railway":"tram_stop","tram":"yes"}},{"type":"node","id":3351756907,"lat":49.1585431,"lon":16.5998429,"tags":{"name":"Ořechovská","public_transport":"stop_position","railway":"tram_stop","tram":"yes"}},{"type":"node","id":3354663428,"lat":49.2003975,"lon":16.5844432,"tags":{"bench":"yes","bin":"yes","bus":"yes","departures_board":"realtime","highway":"bus_stop","lit":"yes","name":"Heinrichova","network":"IDS JMK","network:wikidata":"Q12020731","network:wikipedia":"cs:Integrovaný dopravní systém Jihomoravského kraje","public_transport":"platform","shelter":"yes","tactile_paving":"yes"}},{"type":"node","id":3354663429,"lat":49.2004099,"lon":16.5845065,"tags":{"name":"Heinrichova","public_transport":"stop_position","railway":"tram_stop","tram":"yes"}},{"type":"node","id":3354663434,"lat":49.2022033,"lon":16.5820464,"tags":{"bus":"yes","name":"Náměstí Míru","public_transport":"stop_position","railway":"tram_stop","tram":"yes"}},{"type":"node","id":3354663441,"lat":49.1982141,"lon":16.597484,"tags":{"name":"Obilní trh","network":"Integrovaný dopravní systém Jihomoravského kraje","network:short":"IDS JMK","network:wikidata":"Q12020731","operator":"Dopravní podnik města Brna","operator:short":"DPMB","operator:wikidata":"Q3700534","public_transport":"stop_position","railway":"tram_stop","tram":"yes"}},{"type":"node","id":3354663442,"lat":49.1986402,"lon":16.5892789,"tags":{"name":"Všetičkova","public_transport":"stop_position","railway":"tram_stop","tram":"yes"}},{"type":"node","id":3354663444,"lat":49.1987432,"lon":16.5886893,"tags":{"name":"Všetičkova","public_transport":"stop_position","railway":"tram_stop","tram":"yes"}},{"type":"node","id":3354663445,"lat":49.1987903,"lon":16.5887979,"tags":{"bench":"yes","bin":"yes","bus":"yes","check_date:lit":"2023-02-03","highway":"bus_stop","lit":"yes","name":"Všetičkova","network":"Integrovaný dopravní systém Jihomoravského kraje","network:short":"IDS JMK","network:wikidata":"Q12020731","network:wikipedia":"cs:Integrovaný dopravní systém Jihomoravského kraje","public_transport":"platform","shelter":"no","tactile_paving":"yes"}},{"type":"node","id":3354663602,"lat":49.1982108,"lon":16.5930954,"tags":{"bench":"no","bin":"yes","bus":"yes","highway":"bus_stop","lit":"yes","name":"Úvoz","network":"IDS JMK","network:wikidata":"Q12020731","network:wikipedia":"cs:Integrovaný dopravní systém Jihomoravského kraje","public_transport":"platform","shelter":"no","tactile_paving":"no","tram":"yes"}},{"type":"node","id":3354663603,"lat":49.1982518,"lon":16.5930939,"tags":{"name":"Úvoz","public_transport":"stop_position","railway":"tram_stop","tram":"yes"}},{"type":"node","id":3354663605,"lat":49.1982737,"lon":16.5926488,"tags":{"name":"Úvoz","public_transport":"stop_position","railway":"tram_stop","source":"survey","tram":"yes"}},{"type":"node","id":3354663606,"lat":49.1983222,"lon":16.5926269,"tags":{"bench":"no","bin":"yes","bus":"yes","departures_board":"realtime","highway":"bus_stop","lit":"yes","name":"Úvoz","network":"Integrovaný dopravní systém Jihomoravského kraje","network:short":"IDS JMK","network:wikidata":"Q12020731","network:wikipedia":"cs:Integrovaný dopravní systém Jihomoravského kraje","public_transport":"platform","shelter":"no","tactile_paving":"no","tram":"yes"}},{"type":"node","id":3354697762,"lat":49.1980093,"lon":16.5982361,"tags":{"name":"Obilní trh","network":"Integrovaný dopravní systém Jihomoravského kraje","network:short":"IDS JMK","network:wikidata":"Q12020731","operator":"Dopravní podnik města Brna","operator:short":"DPMB","operator:wikidata":"Q3700534","public_transport":"stop_position","railway":"tram_stop","tram":"yes"}},{"type":"node","id":3360070968,"lat":49.1897796,"lon":16.6146587,"tags":{"bus":"yes","name":"Úzká","public_transport":"stop_position","railway":"tram_stop","tram":"yes"}},{"type":"node","id":3360070970,"lat":49.1901741,"lon":16.6146296,"tags":{"bus":"yes","name":"Úzká","public_transport":"stop_position","railway":"tram_stop","tram":"yes"}},{"type":"node","id":3361679499,"lat":49.1927573,"lon":16.6353478,"tags":{"bench":"yes","bin":"yes","check_date:shelter":"2025-05-27","highway":"bus_stop","lit":"yes","name":"Geislerova","network":"IDS JMK","network:wikidata":"Q12020731","network:wikipedia":"cs:Integrovaný dopravní systém Jihomoravského kraje","public_transport":"platform","shelter":"yes","tactile_paving":"yes"}},{"type":"node","id":3361679500,"lat":49.1927567,"lon":16.6347591,"tags":{"name":"Geislerova","public_transport":"stop_position","railway":"tram_stop","tram":"yes"}},{"type":"node","id":3361679502,"lat":49.1927883,"lon":16.6353323,"tags":{"name":"Geislerova","public_transport":"stop_position","railway":"tram_stop","tram":"yes"}},{"type":"node","id":3361679503,"lat":49.1927945,"lon":16.6347536,"tags":{"bench":"yes","bin":"yes","highway":"bus_stop","lit":"yes","name":"Geislerova","network":"IDS JMK","network:wikidata":"Q12020731","network:wikipedia":"cs:Integrovaný dopravní systém Jihomoravského kraje","public_transport":"platform","shelter":"no","tactile_paving":"yes"}},{"type":"node","id":3361679505,"lat":49.1906943,"lon":16.6339043,"tags":{"bus":"yes","name":"Životského","public_transport":"stop_position","railway":"tram_stop","tram":"yes"}},{"type":"node","id":3361679506,"lat":49.1910211,"lon":16.6339803,"tags":{"bus":"yes","name":"Životského","public_transport":"stop_position","railway":"tram_stop","tram":"yes"}},{"type":"node","id":3361679508,"lat":49.1912439,"lon":16.6257817,"tags":{"name":"Masná","public_transport":"stop_position","railway":"tram_stop","tram":"yes"}},{"type":"node","id":3361679510,"lat":49.191251,"lon":16.6243223,"tags":{"name":"Masná","public_transport":"stop_position","railway":"tram_stop","tram":"yes"}},{"type":"node","id":3361679514,"lat":49.1918351,"lon":16.6190214,"tags":{"name":"Vlhká","public_transport":"stop_position","railway":"tram_stop","tram":"yes"}},{"type":"node","id":3361679517,"lat":49.1918435,"lon":16.6191293,"tags":{"name":"Vlhká","public_transport":"stop_position","railway":"tram_stop","tram":"yes"}},{"type":"node","id":3362029135,"lat":49.1941573,"lon":16.6410834,"tags":{"name":"Buzkova","public_transport":"stop_position","railway":"tram_stop","tram":"yes"}},{"type":"node","id":3362029136,"lat":49.1941627,"lon":16.6410565,"tags":{"bench":"yes","bin":"yes","highway":"bus_stop","lit":"yes","name":"Buzkova","network":"IDS JMK","network:wikidata":"Q12020731","network:wikipedia":"cs:Integrovaný dopravní systém Jihomoravského kraje","public_transport":"platform","shelter":"no","tactile_paving":"yes"}},{"type":"node","id":3362029138,"lat":49.1942099,"lon":16.6414784,"tags":{"bench":"no","bin":"yes","highway":"bus_stop","lit":"yes","name":"Buzkova","network":"IDS JMK","network:wikidata":"Q12020731","network:wikipedia":"cs:Integrovaný dopravní systém Jihomoravského kraje","public_transport":"platform","shelter":"no","tactile_paving":"yes"}},{"type":"node","id":3362029139,"lat":49.1942245,"lon":16.6414672,"tags":{"name":"Buzkova","public_transport":"stop_position","railway":"tram_stop","tram":"yes"}},{"type":"node","id":3362029140,"lat":49.195513,"lon":16.6501556,"tags":{"bench":"yes","bin":"yes","bus":"yes","departures_board":"realtime","highway":"bus_stop","lit":"yes","name":"Dělnický dům","network":"IDS JMK","network:wikidata":"Q12020731","network:wikipedia":"cs:Integrovaný dopravní systém Jihomoravského kraje","public_transport":"platform","shelter":"no","tactile_paving":"yes","tram":"yes","zone":"100"}},{"type":"node","id":3362029141,"lat":49.1955515,"lon":16.6501069,"tags":{"bus":"yes","departures_board":"realtime","name":"Dělnický dům","public_transport":"stop_position","railway":"tram_stop","tram":"yes"}},{"type":"node","id":3362029142,"lat":49.1955649,"lon":16.6495877,"tags":{"bus":"yes","departures_board":"realtime","name":"Dělnický dům","public_transport":"stop_position","railway":"tram_stop","tram":"yes"}},{"type":"node","id":3362029144,"lat":49.1955852,"lon":16.6495922,"tags":{"bench":"yes","bin":"yes","bus":"yes","departures_board":"realtime","highway":"bus_stop","lit":"yes","name":"Dělnický dům","network":"IDS JMK","network:wikidata":"Q12020731","network:wikipedia":"cs:Integrovaný dopravní systém Jihomoravského kraje","public_transport":"platform","shelter":"yes","tactile_paving":"yes","tram":"yes","zone":"100"}},{"type":"node","id":3362029149,"lat":49.1952313,"lon":16.6458674,"tags":{"bench":"yes","bin":"yes","highway":"bus_stop","lit":"yes","name":"Otakara Ševčíka","network":"IDS JMK","network:wikidata":"Q12020731","network:wikipedia":"cs:Integrovaný dopravní systém Jihomoravského kraje","public_transport":"platform","shelter":"no","tactile_paving":"no"}},{"type":"node","id":3362029150,"lat":49.1952618,"lon":16.6458667,"tags":{"name":"Otakara Ševčíka","public_transport":"stop_position","railway":"tram_stop","tram":"yes"}},{"type":"node","id":3362029151,"lat":49.19527,"lon":16.645349,"tags":{"name":"Otakara Ševčíka","public_transport":"stop_position","railway":"tram_stop","tram":"yes"}},{"type":"node","id":3362029153,"lat":49.1952917,"lon":16.6453412,"tags":{"bench":"no","bin":"yes","highway":"bus_stop","lit":"yes","name":"Otakara Ševčíka","network":"IDS JMK","network:wikidata":"Q12020731","network:wikipedia":"cs:Integrovaný dopravní systém Jihomoravského kraje","public_transport":"platform","shelter":"yes","tactile_paving":"yes"}},{"type":"node","id":3362987000,"lat":49.1904896,"lon":16.6499228,"tags":{"name":"Krásného","public_transport":"stop_position","railway":"tram_stop","tram":"yes"}},{"type":"node","id":3362987002,"lat":49.1906618,"lon":16.6493876,"tags":{"name":"Krásného","public_transport":"stop_position","railway":"tram_stop","tram":"yes"}},{"type":"node","id":3362987004,"lat":49.1878525,"lon":16.6664828,"tags":{"name":"Podstránská","network":"Integrovaný dopravní systém Jihomoravského kraje","network:short":"IDS JMK","network:wikidata":"Q12020731","operator":"Dopravní podnik města Brna","operator:short":"DPMB","operator:wikidata":"Q3700534","public_transport":"stop_position","railway":"tram_stop","tram":"yes"}},{"type":"node","id":3362987006,"lat":49.1919505,"lon":16.6742904,"tags":{"name":"Stránská skála","network":"Integrovaný dopravní systém Jihomoravského kraje","network:short":"IDS JMK","network:wikidata":"Q12020731","operator":"Dopravní podnik města Brna","operator:short":"DPMB","operator:wikidata":"Q3700534","public_transport":"stop_position","railway":"tram_stop","tram":"yes"}},{"type":"node","id":3362987603,"lat":49.1913623,"lon":16.6416181,"tags":{"name":"Židovský hřbitov","public_transport":"stop_position","railway":"tram_stop","tram":"yes"}},{"type":"node","id":3363338923,"lat":49.1942916,"lon":16.6674097,"tags":{"name":"Bílá hora","network":"Integrovaný dopravní systém Jihomoravského kraje","network:short":"IDS JMK","network:wikidata":"Q12020731","operator":"Dopravní podnik města Brna","operator:short":"DPMB","operator:wikidata":"Q3700534","public_transport":"stop_position","railway":"tram_stop","tram":"yes"}},{"type":"node","id":3363338925,"lat":49.1948478,"lon":16.6673952,"tags":{"name":"Bílá hora","network":"Integrovaný dopravní systém Jihomoravského kraje","network:short":"IDS JMK","network:wikidata":"Q12020731","operator":"Dopravní podnik města Brna","operator:short":"DPMB","operator:wikidata":"Q3700534","public_transport":"stop_position","railway":"tram_stop","tram":"yes"}},{"type":"node","id":3363338926,"lat":49.1899141,"lon":16.6632478,"tags":{"name":"Bělohorská","public_transport":"stop_position","railway":"tram_stop","tram":"yes"}},{"type":"node","id":3363338928,"lat":49.1903065,"lon":16.6638289,"tags":{"name":"Bělohorská","public_transport":"stop_position","railway":"tram_stop","tram":"yes"}},{"type":"node","id":3363338930,"lat":49.2099244,"lon":16.68157,"tags":{"name":"Kotlanova","public_transport":"stop_position","railway":"tram_stop","tram":"yes"}},{"type":"node","id":3363338931,"lat":49.2085403,"lon":16.6866929,"tags":{"local_ref":"1","name":"Jírova","public_transport":"stop_position","railway":"tram_stop","tram":"yes"}},{"type":"node","id":3363338934,"lat":49.2090767,"lon":16.6864093,"tags":{"local_ref":"2","name":"Jírova","public_transport":"stop_position","railway":"tram_stop","tram":"yes"}},{"type":"node","id":3363338937,"lat":49.207344,"lon":16.6924957,"tags":{"name":"Mifkova","public_transport":"stop_position","railway":"tram_stop","tram":"yes"}},{"type":"node","id":3363338938,"lat":49.1972422,"lon":16.665627,"tags":{"name":"Líšeňská","public_transport":"stop_position","railway":"tram_stop","tram":"yes"}},{"type":"node","id":3363338940,"lat":49.1978583,"lon":16.6648876,"tags":{"name":"Líšeňská","public_transport":"stop_position","railway":"tram_stop","tram":"yes"}},{"type":"node","id":3363338945,"lat":49.2019815,"lon":16.6704038,"tags":{"name":"Novolíšeňská","public_transport":"stop_position","railway":"tram_stop","tram":"yes"}},{"type":"node","id":3363341313,"lat":49.2074133,"lon":16.6778032,"tags":{"name":"Masarova","public_transport":"stop_position","railway":"tram_stop","tram":"yes"}},{"type":"node","id":3372281821,"lat":49.1954905,"lon":16.6139092,"tags":{"name":"Malinovského náměstí","public_transport":"stop_position","railway":"tram_stop","tram":"yes"}},{"type":"node","id":3372281822,"lat":49.195539,"lon":16.613389,"tags":{"bus":"yes","name":"Malinovského náměstí","public_transport":"stop_position","railway":"tram_stop","tram":"yes"}},{"type":"node","id":3374741503,"lat":49.1991923,"lon":16.6087734,"tags":{"bus":"yes","name":"Moravské náměstí","public_transport":"stop_position","railway":"tram_stop","tram":"yes"}},{"type":"node","id":3374741504,"lat":49.1992308,"lon":16.6080558,"tags":{"name":"Moravské náměstí","public_transport":"stop_position","railway":"tram_stop","tram":"yes"}},{"type":"node","id":3374741505,"lat":49.1993956,"lon":16.6093099,"tags":{"bus":"yes","name":"Moravské náměstí","public_transport":"stop_position","railway":"tram_stop","tram":"yes"}},{"type":"node","id":3374741507,"lat":49.19996,"lon":16.6079241,"tags":{"name":"Moravské náměstí","public_transport":"stop_position","railway":"tram_stop","tram":"yes"}},{"type":"node","id":3377755025,"lat":49.2011366,"lon":16.5997513,"tags":{"name":"Grohova","public_transport":"stop_position","railway":"tram_stop","tram":"yes"}},{"type":"node","id":3377755027,"lat":49.201388,"lon":16.5993532,"tags":{"name":"Grohova","public_transport":"stop_position","railway":"tram_stop","tram":"yes"}},{"type":"node","id":3377755029,"lat":49.2039701,"lon":16.5960766,"tags":{"name":"Konečného náměstí","public_transport":"stop_position","railway":"tram_stop","tram":"yes"}},{"type":"node","id":3377755033,"lat":49.2045064,"lon":16.5953937,"tags":{"name":"Konečného náměstí","public_transport":"stop_position","railway":"tram_stop","tram":"yes"}},{"type":"node","id":3377755037,"lat":49.206001,"lon":16.5951599,"tags":{"name":"Nerudova","public_transport":"stop_position","railway":"tram_stop","tram":"yes"}},{"type":"node","id":3377755038,"lat":49.2057817,"lon":16.5948754,"tags":{"bench":"no","bin":"yes","bus":"yes","highway":"bus_stop","lit":"yes","name":"Nerudova","network":"Integrovaný dopravní systém Jihomoravského kraje","network:short":"IDS JMK","network:wikidata":"Q12020731","network:wikipedia":"cs:Integrovaný dopravní systém Jihomoravského kraje","public_transport":"platform","shelter":"no","tactile_paving":"no"}},{"type":"node","id":3377755040,"lat":49.2065398,"lon":16.5957539,"tags":{"bench":"no","bin":"yes","bus":"yes","highway":"bus_stop","lit":"yes","name":"Nerudova","network":"Integrovaný dopravní systém Jihomoravského kraje","network:short":"IDS JMK","network:wikidata":"Q12020731","network:wikipedia":"cs:Integrovaný dopravní systém Jihomoravského kraje","public_transport":"platform","shelter":"no","tactile_paving":"no"}},{"type":"node","id":3377755041,"lat":49.206464,"lon":16.5955987,"tags":{"name":"Nerudova","public_transport":"stop_position","railway":"tram_stop","tram":"yes"}},{"type":"node","id":3377755042,"lat":49.2058884,"lon":16.5936214,"tags":{"name":"Rybkova","public_transport":"stop_position","railway":"tram_stop","tram":"yes"}},{"type":"node","id":3377755044,"lat":49.2062958,"lon":16.5930992,"tags":{"name":"Rybkova","public_transport":"stop_position","railway":"tram_stop","tram":"yes"}},{"type":"node","id":3381801043,"lat":49.212451,"lon":16.5783861,"tags":{"bus":"yes","name":"Burianovo náměstí","public_transport":"stop_position","railway":"tram_stop","tram":"yes"}},{"type":"node","id":3381801044,"lat":49.2124785,"lon":16.5783732,"tags":{"bench":"yes","bin":"yes","bus":"yes","highway":"bus_stop","lit":"yes","name":"Burianovo náměstí","network":"Integrovaný dopravní systém Jihomoravského kraje","network:short":"IDS JMK","network:wikidata":"Q12020731","network:wikipedia":"cs:Integrovaný dopravní systém Jihomoravského kraje","public_transport":"platform","shelter":"yes","tactile_paving":"yes"}},{"type":"node","id":3381801046,"lat":49.2122729,"lon":16.5787778,"tags":{"bench":"yes","bin":"yes","bus":"yes","highway":"bus_stop","lit":"yes","name":"Burianovo náměstí","network":"Integrovaný dopravní systém Jihomoravského kraje","network:short":"IDS JMK","network:wikidata":"Q12020731","network:wikipedia":"cs:Integrovaný dopravní systém Jihomoravského kraje","public_transport":"platform","shelter":"yes","tactile_paving":"yes"}},{"type":"node","id":3381801052,"lat":49.2136546,"lon":16.5747271,"tags":{"name":"Mozolky","network":"Integrovaný dopravní systém Jihomoravského kraje","network:short":"IDS JMK","network:wikidata":"Q12020731","operator":"Dopravní podnik města Brna","operator:short":"DPMB","operator:wikidata":"Q3700534","public_transport":"stop_position","railway":"tram_stop","tram":"yes"}},{"type":"node","id":3381801053,"lat":49.2136777,"lon":16.5747139,"tags":{"bench":"yes","bin":"no","bus":"yes","highway":"bus_stop","lit":"yes","name":"Mozolky","network":"Integrovaný dopravní systém Jihomoravského kraje","network:short":"IDS JMK","network:wikidata":"Q12020731","network:wikipedia":"cs:Integrovaný dopravní systém Jihomoravského kraje","operator":"Dopravní podnik města Brna","operator:short":"DPMB","operator:wikidata":"Q3700534","public_transport":"platform","shelter":"yes","tactile_paving":"yes","wheelchair":"yes"}},{"type":"node","id":3381801055,"lat":49.2134474,"lon":16.575258,"tags":{"bench":"yes","bin":"no","bus":"yes","check_date":"2026-03-12","departures_board":"realtime","highway":"bus_stop","lit":"yes","name":"Mozolky","network":"Integrovaný dopravní systém Jihomoravského kraje","network:short":"IDS JMK","network:wikidata":"Q12020731","network:wikipedia":"cs:Integrovaný dopravní systém Jihomoravského kraje","operator":"Dopravní podnik města Brna","operator:short":"DPMB","operator:wikidata":"Q3700534","public_transport":"platform","shelter":"yes","tactile_paving":"yes","tram":"yes"}},{"type":"node","id":3381801057,"lat":49.2144331,"lon":16.5680065,"tags":{"name":"Rosického náměstí","public_transport":"stop_position","railway":"tram_stop","tram":"yes"}},{"type":"node","id":3381801058,"lat":49.2144364,"lon":16.5678937,"tags":{"bench":"no","bin":"yes","lit":"yes","name":"Rosického náměstí","network":"IDS JMK","network:wikidata":"Q12020731","network:wikipedia":"cs:Integrovaný dopravní systém Jihomoravského kraje","public_transport":"platform","railway":"platform","shelter":"no","tactile_paving":"no"}},{"type":"node","id":3381801060,"lat":49.2147239,"lon":16.5687645,"tags":{"name":"Rosického náměstí","public_transport":"stop_position","railway":"tram_stop","tram":"yes"}},{"type":"node","id":3381801063,"lat":49.2102695,"lon":16.5872076,"tags":{"name":"Tábor","public_transport":"stop_position","railway":"tram_stop","tram":"yes"}},{"type":"node","id":3381801065,"lat":49.2105605,"lon":16.5858038,"tags":{"name":"Tábor","public_transport":"stop_position","railway":"tram_stop","tram":"yes"}},{"type":"node","id":3381801881,"lat":49.2112466,"lon":16.5835156,"tags":{"name":"Králova","public_transport":"stop_position","railway":"tram_stop","tram":"yes"}},{"type":"node","id":3381801940,"lat":49.2122857,"lon":16.5788257,"tags":{"name":"Burianovo náměstí","public_transport":"stop_position","railway":"tram_stop","tram":"yes"}},{"type":"node","id":3384571563,"lat":49.2177997,"lon":16.5878319,"tags":{"name":"Dobrovského","public_transport":"stop_position","railway":"tram_stop","tram":"yes"}},{"type":"node","id":3384571564,"lat":49.2177859,"lon":16.5879799,"tags":{"bench":"yes","bin":"yes","bus":"yes","highway":"bus_stop","lit":"yes","name":"Dobrovského","network":"Integrovaný dopravní systém Jihomoravského kraje","network:short":"IDS JMK","network:wikidata":"Q12020731","network:wikipedia":"cs:Integrovaný dopravní systém Jihomoravského kraje","public_transport":"platform","shelter":"yes","tactile_paving":"no"}},{"type":"node","id":3384571566,"lat":49.2183031,"lon":16.5874475,"tags":{"name":"Dobrovského","public_transport":"stop_position","railway":"tram_stop","tram":"yes"}},{"type":"node","id":3384571567,"lat":49.218312,"lon":16.5873545,"tags":{"bench":"yes","bin":"yes","bus":"yes","highway":"bus_stop","lit":"no","name":"Dobrovského","network":"Integrovaný dopravní systém Jihomoravského kraje","network:short":"IDS JMK","network:wikidata":"Q12020731","network:wikipedia":"cs:Integrovaný dopravní systém Jihomoravského kraje","public_transport":"platform","shelter":"yes","tactile_paving":"yes"}},{"type":"node","id":3384571568,"lat":49.2119068,"lon":16.5928722,"tags":{"name":"Klusáčkova","public_transport":"stop_position","railway":"tram_stop","tram":"yes"}},{"type":"node","id":3384571570,"lat":49.2123568,"lon":16.5926845,"tags":{"name":"Klusáčkova","public_transport":"stop_position","railway":"tram_stop","tram":"yes"}},{"type":"node","id":3384571573,"lat":49.2206094,"lon":16.5857679,"tags":{"bench":"no","bin":"yes","bus":"yes","highway":"bus_stop","lit":"no","name":"Skácelova","network":"Integrovaný dopravní systém Jihomoravského kraje","network:short":"IDS JMK","network:wikidata":"Q12020731","network:wikipedia":"cs:Integrovaný dopravní systém Jihomoravského kraje","public_transport":"platform","shelter":"no","tactile_paving":"yes"}},{"type":"node","id":3384571580,"lat":49.2210746,"lon":16.5856831,"tags":{"bench":"no","bin":"yes","bus":"yes","highway":"bus_stop","lit":"no","name":"Skácelova","network":"Integrovaný dopravní systém Jihomoravského kraje","network:short":"IDS JMK","network:wikidata":"Q12020731","network:wikipedia":"cs:Integrovaný dopravní systém Jihomoravského kraje","public_transport":"platform","shelter":"no","tactile_paving":"no"}},{"type":"node","id":3384571581,"lat":49.2279978,"lon":16.5822796,"tags":{"bus":"yes","name":"Technické muzeum","public_transport":"stop_position","railway":"tram_stop","tram":"yes"}},{"type":"node","id":3384571582,"lat":49.2285936,"lon":16.5820582,"tags":{"bus":"yes","name":"Technické muzeum","public_transport":"stop_position","railway":"tram_stop","tram":"yes"}},{"type":"node","id":3384571585,"lat":49.2314326,"lon":16.5769425,"tags":{"name":"Technologický park","public_transport":"stop_position","railway":"tram_stop","tram":"yes"}},{"type":"node","id":3384571588,"lat":49.2156611,"lon":16.5892666,"tags":{"name":"Tererova","public_transport":"stop_position","railway":"tram_stop","tram":"yes"}},{"type":"node","id":3384571592,"lat":49.2159028,"lon":16.5891451,"tags":{"name":"Tererova","public_transport":"stop_position","railway":"tram_stop","tram":"yes"}},{"type":"node","id":3384576715,"lat":49.2245629,"lon":16.5830581,"tags":{"bench":"no","bin":"yes","bus":"yes","highway":"bus_stop","lit":"no","name":"Červinkova","network":"Integrovaný dopravní systém Jihomoravského kraje","network:short":"IDS JMK","network:wikidata":"Q12020731","network:wikipedia":"cs:Integrovaný dopravní systém Jihomoravského kraje","public_transport":"platform","shelter":"no","tactile_paving":"yes"}},{"type":"node","id":3384576716,"lat":49.2245821,"lon":16.5831359,"tags":{"name":"Červinkova","public_transport":"stop_position","railway":"tram_stop","tram":"yes"}},{"type":"node","id":3384576718,"lat":49.2254721,"lon":16.5826045,"tags":{"name":"Červinkova","public_transport":"stop_position","railway":"tram_stop","tram":"yes"}},{"type":"node","id":3384576719,"lat":49.2254801,"lon":16.582688,"tags":{"bench":"yes","bin":"yes","bus":"yes","highway":"bus_stop","lit":"yes","name":"Červinkova","network":"Integrovaný dopravní systém Jihomoravského kraje","network:short":"IDS JMK","network:wikidata":"Q12020731","network:wikipedia":"cs:Integrovaný dopravní systém Jihomoravského kraje","public_transport":"platform","shelter":"yes","tactile_paving":"no"}},{"type":"node","id":3387476101,"lat":49.2032489,"lon":16.6068775,"tags":{"name":"Antonínská","public_transport":"stop_position","railway":"tram_stop","tram":"yes"}},{"type":"node","id":3387476106,"lat":49.2102414,"lon":16.602876,"tags":{"name":"Hrnčířská","public_transport":"stop_position","railway":"tram_stop","tram":"yes"}},{"type":"node","id":3387476108,"lat":49.2106288,"lon":16.6025995,"tags":{"name":"Hrnčířská","public_transport":"stop_position","railway":"tram_stop","tram":"yes"}},{"type":"node","id":3387476110,"lat":49.2074751,"lon":16.6044885,"tags":{"name":"Pionýrská","public_transport":"stop_position","railway":"tram_stop","tram":"yes"}},{"type":"node","id":3387476113,"lat":49.2079348,"lon":16.6041674,"tags":{"name":"Pionýrská","public_transport":"stop_position","railway":"tram_stop","tram":"yes"}},{"type":"node","id":3387478073,"lat":49.2139619,"lon":16.6006873,"tags":{"name":"Šumavská","public_transport":"stop_position","railway":"tram_stop","tram":"yes"}},{"type":"node","id":3387478076,"lat":49.214033,"lon":16.6006003,"tags":{"name":"Šumavská","public_transport":"stop_position","railway":"tram_stop","tram":"yes"}},{"type":"node","id":3388971681,"lat":49.2231104,"lon":16.5952391,"tags":{"name":"Husitská","public_transport":"stop_position","railway":"tram_stop","tram":"yes"}},{"type":"node","id":3388971683,"lat":49.2234247,"lon":16.5950142,"tags":{"name":"Husitská","public_transport":"stop_position","railway":"tram_stop","tram":"yes"}},{"type":"node","id":3388971684,"lat":49.2208353,"lon":16.5965901,"tags":{"name":"Jungmannova","public_transport":"stop_position","railway":"tram_stop","tram":"yes"}},{"type":"node","id":3388971686,"lat":49.2210888,"lon":16.5964001,"tags":{"name":"Jungmannova","public_transport":"stop_position","railway":"tram_stop","tram":"yes"}},{"type":"node","id":3388971687,"lat":49.2166717,"lon":16.5990466,"tags":{"bus":"yes","name":"Kartouzská","public_transport":"stop_position","railway":"tram_stop","tram":"yes"}},{"type":"node","id":3388971690,"lat":49.2301031,"lon":16.5953425,"tags":{"name":"Královo Pole, nádraží","passenger_information_display":"yes","public_transport":"stop_position","railway":"tram_stop","tram":"yes"}},{"type":"node","id":3388971691,"lat":49.2273322,"lon":16.592737,"tags":{"name":"Semilasso","public_transport":"stop_position","railway":"tram_stop","tram":"yes"}},{"type":"node","id":3388972693,"lat":49.2282729,"lon":16.592053,"tags":{"bus":"yes","name":"Semilasso","public_transport":"stop_position","railway":"tram_stop","tram":"yes"}},{"type":"node","id":3388972694,"lat":49.2284465,"lon":16.5939853,"tags":{"name":"Semilasso","public_transport":"stop_position","railway":"tram_stop","tram":"yes"}},{"type":"node","id":3390714478,"lat":49.2435637,"lon":16.58183,"tags":{"name":"Filkukova","public_transport":"stop_position","railway":"tram_stop","tram":"yes"}},{"type":"node","id":3390714483,"lat":49.2357895,"lon":16.5870253,"tags":{"bus":"yes","name":"Hudcova","public_transport":"stop_position","railway":"tram_stop","tram":"yes"}},{"type":"node","id":3390714485,"lat":49.2389028,"lon":16.5849471,"tags":{"name":"Kořískova","public_transport":"stop_position","railway":"tram_stop","tram":"yes"}},{"type":"node","id":3390714486,"lat":49.2404976,"lon":16.5839289,"tags":{"name":"Kořískova","public_transport":"stop_position","railway":"tram_stop","tram":"yes"}},{"type":"node","id":3390714490,"lat":49.2320995,"lon":16.5894795,"tags":{"name":"Tylova","public_transport":"stop_position","railway":"tram_stop","tram":"yes"}},{"type":"node","id":3394572123,"lat":49.1981591,"lon":16.6195418,"tags":{"name":"Körnerova","public_transport":"stop_position","railway":"tram_stop","tram":"yes"}},{"type":"node","id":3394572125,"lat":49.198244,"lon":16.6199129,"tags":{"name":"Körnerova","public_transport":"stop_position","railway":"tram_stop","tram":"yes"}},{"type":"node","id":3394572126,"lat":49.19983,"lon":16.6259037,"tags":{"name":"Tkalcovská","public_transport":"stop_position","railway":"tram_stop","tram":"yes"}},{"type":"node","id":3394572128,"lat":49.2001713,"lon":16.6260764,"tags":{"name":"Tkalcovská","public_transport":"stop_position","railway":"tram_stop","tram":"yes"}},{"type":"node","id":3394572129,"lat":49.2044671,"lon":16.6257768,"tags":{"bench":"no","bin":"yes","bus":"yes","highway":"bus_stop","lit":"yes","name":"Trávníčkova","network":"Integrovaný dopravní systém Jihomoravského kraje","network:short":"IDS JMK","network:wikidata":"Q12020731","network:wikipedia":"cs:Integrovaný dopravní systém Jihomoravského kraje","public_transport":"platform","shelter":"no","tactile_paving":"no"}},{"type":"node","id":3394572130,"lat":49.2044833,"lon":16.6257187,"tags":{"name":"Trávníčkova","public_transport":"stop_position","railway":"tram_stop","tram":"yes"}},{"type":"node","id":3394572132,"lat":49.2044217,"lon":16.6256383,"tags":{"name":"Trávníčkova","public_transport":"stop_position","railway":"tram_stop","tram":"yes"}},{"type":"node","id":3394572133,"lat":49.2044333,"lon":16.6255693,"tags":{"bench":"yes","bin":"yes","bus":"yes","highway":"bus_stop","lit":"yes","name":"Trávníčkova","network":"Integrovaný dopravní systém Jihomoravského kraje","network:short":"IDS JMK","network:wikidata":"Q12020731","network:wikipedia":"cs:Integrovaný dopravní systém Jihomoravského kraje","public_transport":"platform","shelter":"no","tactile_paving":"no"}},{"type":"node","id":3412671576,"lat":49.2030306,"lon":16.6190551,"tags":{"name":"Dětská nemocnice","public_transport":"stop_position","railway":"tram_stop","tram":"yes"}},{"type":"node","id":3412671577,"lat":49.2038502,"lon":16.624371,"tags":{"name":"Jugoslávská","public_transport":"stop_position","railway":"tram_stop","tram":"yes"}},{"type":"node","id":3412671580,"lat":49.2042036,"lon":16.6240694,"tags":{"name":"Jugoslávská","public_transport":"stop_position","railway":"tram_stop","tram":"yes"}},{"type":"node","id":3412671583,"lat":49.2047358,"lon":16.6240715,"tags":{"name":"Jugoslávská","public_transport":"stop_position","railway":"tram_stop","tram":"yes"}},{"type":"node","id":3412671584,"lat":49.2047428,"lon":16.6234175,"tags":{"bench":"yes","bin":"yes","bus":"yes","highway":"bus_stop","lit":"yes","name":"Jugoslávská","network":"Integrovaný dopravní systém Jihomoravského kraje","network:short":"IDS JMK","network:wikidata":"Q12020731","network:wikipedia":"cs:Integrovaný dopravní systém Jihomoravského kraje","public_transport":"platform","shelter":"yes","tactile_paving":"no"}},{"type":"node","id":3412671585,"lat":49.2047575,"lon":16.6234736,"tags":{"name":"Jugoslávská","public_transport":"stop_position","railway":"tram_stop","tram":"yes"}},{"type":"node","id":3412671587,"lat":49.2050418,"lon":16.6244101,"tags":{"name":"Jugoslávská","public_transport":"stop_position","railway":"tram_stop","tram":"yes"}},{"type":"node","id":3412671590,"lat":49.2054192,"lon":16.6228659,"tags":{"bus":"yes","name":"Jugoslávská","public_transport":"stop_position","railway":"tram_stop","tram":"yes"}},{"type":"node","id":3412671591,"lat":49.2054375,"lon":16.6229159,"tags":{"bench":"yes","bin":"yes","bus":"yes","highway":"bus_stop","lit":"yes","name":"Jugoslávská","network":"Integrovaný dopravní systém Jihomoravského kraje","network:short":"IDS JMK","network:wikidata":"Q12020731","network:wikipedia":"cs:Integrovaný dopravní systém Jihomoravského kraje","public_transport":"platform","shelter":"yes","tactile_paving":"no"}},{"type":"node","id":3412671592,"lat":49.2008564,"lon":16.6133856,"tags":{"name":"Náměstí 28. října","public_transport":"stop_position","railway":"tram_stop","tram":"yes"}},{"type":"node","id":3412673294,"lat":49.200977,"lon":16.6138188,"tags":{"bus":"yes","name":"Náměstí 28. října","public_transport":"stop_position","railway":"tram_stop","tram":"yes"}},{"type":"node","id":3412707697,"lat":49.2028403,"lon":16.6186077,"tags":{"bus":"yes","name":"Dětská nemocnice","public_transport":"stop_position","railway":"tram_stop","tram":"yes"}},{"type":"node","id":3413973945,"lat":49.2012933,"lon":16.634354,"tags":{"name":"Kuldova","public_transport":"stop_position","railway":"tram_stop","tram":"yes"}},{"type":"node","id":3413973947,"lat":49.2013171,"lon":16.6345392,"tags":{"name":"Kuldova","public_transport":"stop_position","railway":"tram_stop","tram":"yes"}},{"type":"node","id":3413973948,"lat":49.202127,"lon":16.641408,"tags":{"departures_board":"realtime","local_ref":"2","name":"Stará osada","passenger_information_display":"yes","public_transport":"stop_position","railway":"tram_stop","tram":"yes"}},{"type":"node","id":3413973957,"lat":49.2025247,"lon":16.6419541,"tags":{"local_ref":"1","name":"Stará osada","public_transport":"stop_position","railway":"tram_stop","tram":"yes"}},{"type":"node","id":3413973959,"lat":49.2022614,"lon":16.6296651,"tags":{"name":"Vojenská nemocnice","public_transport":"stop_position","railway":"tram_stop","tram":"yes"}},{"type":"node","id":3413973961,"lat":49.2024886,"lon":16.6293012,"tags":{"name":"Vojenská nemocnice","public_transport":"stop_position","railway":"tram_stop","tram":"yes"}},{"type":"node","id":3421520982,"lat":49.2121503,"lon":16.625033,"tags":{"bench":"no","bin":"yes","bus":"yes","highway":"bus_stop","lit":"yes","name":"Venhudova","network":"IDS JMK","network:wikidata":"Q12020731","network:wikipedia":"cs:Integrovaný dopravní systém Jihomoravského kraje","public_transport":"platform","shelter":"no","tactile_paving":"yes"}},{"type":"node","id":3421520983,"lat":49.2121577,"lon":16.6249825,"tags":{"name":"Venhudova","public_transport":"stop_position","railway":"tram_stop","tram":"yes"}},{"type":"node","id":3421520985,"lat":49.2124346,"lon":16.6250762,"tags":{"name":"Venhudova","public_transport":"stop_position","railway":"tram_stop","tram":"yes"}},{"type":"node","id":3421520986,"lat":49.2124517,"lon":16.6250492,"tags":{"bench":"yes","bin":"yes","bus":"yes","highway":"bus_stop","lit":"yes","name":"Venhudova","network":"IDS JMK","network:wikidata":"Q12020731","network:wikipedia":"cs:Integrovaný dopravní systém Jihomoravského kraje","public_transport":"platform","shelter":"yes","tactile_paving":"yes"}},{"type":"node","id":3421520987,"lat":49.2092466,"lon":16.6237606,"tags":{"name":"Zdráhalova","public_transport":"stop_position","railway":"tram_stop","tram":"yes"}},{"type":"node","id":3421520988,"lat":49.2092351,"lon":16.6238196,"tags":{"bench":"no","bin":"no","bus":"yes","highway":"bus_stop","lit":"yes","name":"Zdráhalova","network":"IDS JMK","network:wikidata":"Q12020731","network:wikipedia":"cs:Integrovaný dopravní systém Jihomoravského kraje","public_transport":"platform","shelter":"no","tactile_paving":"yes"}},{"type":"node","id":3421520990,"lat":49.2097031,"lon":16.6237762,"tags":{"name":"Zdráhalova","public_transport":"stop_position","railway":"tram_stop","tram":"yes"}},{"type":"node","id":3421520991,"lat":49.2097035,"lon":16.623716,"tags":{"bench":"no","bin":"no","bus":"yes","highway":"bus_stop","lit":"yes","name":"Zdráhalova","network":"IDS JMK","network:wikidata":"Q12020731","network:wikipedia":"cs:Integrovaný dopravní systém Jihomoravského kraje","public_transport":"platform","shelter":"no","tactile_paving":"yes"}},{"type":"node","id":3423356900,"lat":49.2078848,"lon":16.6203803,"tags":{"name":"Tomanova","public_transport":"stop_position","railway":"tram_stop","tram":"yes"}},{"type":"node","id":3423356902,"lat":49.2081912,"lon":16.6201181,"tags":{"bus":"yes","name":"Tomanova","public_transport":"stop_position","railway":"tram_stop","tram":"yes"}},{"type":"node","id":3423356903,"lat":49.210309,"lon":16.6186747,"tags":{"bus":"yes","name":"Zemědělská","public_transport":"stop_position","railway":"tram_stop","tram":"yes"}},{"type":"node","id":3423356904,"lat":49.210296,"lon":16.6187442,"tags":{"bench":"no","bin":"yes","bus":"yes","highway":"bus_stop","lit":"yes","name":"Zemědělská","network":"IDS JMK","network:wikidata":"Q12020731","network:wikipedia":"cs:Integrovaný dopravní systém Jihomoravského kraje","public_transport":"platform","shelter":"no","tactile_paving":"yes"}},{"type":"node","id":3423356907,"lat":49.2106281,"lon":16.6184179,"tags":{"name":"Zemědělská","public_transport":"stop_position","railway":"tram_stop","tram":"yes"}},{"type":"node","id":3430431124,"lat":49.2158979,"lon":16.6154767,"tags":{"name":"Bieblova","public_transport":"stop_position","railway":"tram_stop","tram":"yes"}},{"type":"node","id":3430431126,"lat":49.2198677,"lon":16.6193209,"tags":{"name":"Fügnerova","public_transport":"stop_position","railway":"tram_stop","tram":"yes"}},{"type":"node","id":3430431130,"lat":49.2233726,"lon":16.6229479,"tags":{"name":"Halasovo náměstí","public_transport":"stop_position","railway":"tram_stop","tram":"yes"}},{"type":"node","id":3430431133,"lat":49.2124261,"lon":16.6175226,"tags":{"bench":"no","bin":"yes","bus":"yes","departures_board":"realtime","highway":"bus_stop","lit":"yes","name":"Lesnická","network":"IDS JMK","network:wikidata":"Q12020731","network:wikipedia":"cs:Integrovaný dopravní systém Jihomoravského kraje","public_transport":"platform","shelter":"no","tactile_paving":"no"}},{"type":"node","id":3430431135,"lat":49.2129563,"lon":16.6170735,"tags":{"name":"Lesnická","public_transport":"stop_position","railway":"tram_stop","tram":"yes"}},{"type":"node","id":3430431136,"lat":49.2263862,"lon":16.6229186,"tags":{"name":"Čertova rokle","public_transport":"stop_position","railway":"tram_stop","tram":"yes"}},{"type":"node","id":3436725335,"lat":49.2068442,"lon":16.6268857,"tags":{"name":"Mostecká","public_transport":"stop_position","railway":"tram_stop","tram":"yes"}},{"type":"node","id":3436725336,"lat":49.2068452,"lon":16.6268609,"tags":{"bench":"yes","bin":"yes","bus":"yes","highway":"bus_stop","lit":"yes","name":"Mostecká","network":"IDS JMK","network:wikidata":"Q12020731","network:wikipedia":"cs:Integrovaný dopravní systém Jihomoravského kraje","public_transport":"platform","shelter":"no","tactile_paving":"yes"}},{"type":"node","id":3436725337,"lat":49.2070248,"lon":16.6278295,"tags":{"bus":"yes","name":"Mostecká","public_transport":"stop_position","railway":"tram_stop","tram":"yes"}},{"type":"node","id":3436725340,"lat":49.2106093,"lon":16.633551,"tags":{"bench":"no","bin":"yes","bus":"yes","highway":"bus_stop","lit":"yes","name":"Náměstí Republiky","network":"IDS JMK","network:wikidata":"Q12020731","network:wikipedia":"cs:Integrovaný dopravní systém Jihomoravského kraje","public_transport":"platform","shelter":"no","tactile_paving":"no"}},{"type":"node","id":3436725341,"lat":49.2105942,"lon":16.6334727,"tags":{"name":"Náměstí Republiky","public_transport":"stop_position","railway":"tram_stop","tram":"yes"}},{"type":"node","id":3436725343,"lat":49.2113518,"lon":16.6340349,"tags":{"name":"Náměstí Republiky","public_transport":"stop_position","railway":"tram_stop","tram":"yes"}},{"type":"node","id":3436725344,"lat":49.211366,"lon":16.6339866,"tags":{"bench":"no","bin":"yes","bus":"yes","highway":"bus_stop","lit":"yes","name":"Náměstí Republiky","network":"IDS JMK","network:wikidata":"Q12020731","network:wikipedia":"cs:Integrovaný dopravní systém Jihomoravského kraje","public_transport":"platform","shelter":"no","tactile_paving":"yes"}},{"type":"node","id":3436725345,"lat":49.2080952,"lon":16.6297358,"tags":{"bench":"no","bin":"yes","bus":"yes","highway":"bus_stop","lit":"yes","name":"Vozovna Husovice","network":"IDS JMK","network:wikidata":"Q12020731","network:wikipedia":"cs:Integrovaný dopravní systém Jihomoravského kraje","public_transport":"platform","shelter":"no","tactile_paving":"no"}},{"type":"node","id":3436725346,"lat":49.2081116,"lon":16.6296504,"tags":{"name":"Vozovna Husovice","public_transport":"stop_position","railway":"tram_stop","tram":"yes"}},{"type":"node","id":3436725349,"lat":49.2084913,"lon":16.6298161,"tags":{"name":"Vozovna Husovice","public_transport":"stop_position","railway":"tram_stop","tram":"yes"}},{"type":"node","id":3436725350,"lat":49.208501,"lon":16.6297715,"tags":{"bench":"no","bin":"yes","bus":"yes","highway":"bus_stop","lit":"yes","name":"Vozovna Husovice","network":"IDS JMK","network:wikidata":"Q12020731","network:wikipedia":"cs:Integrovaný dopravní systém Jihomoravského kraje","public_transport":"platform","shelter":"no","tactile_paving":"no"}},{"type":"node","id":3441072947,"lat":49.2155063,"lon":16.642982,"tags":{"name":"Maloměřický most","public_transport":"stop_position","railway":"tram_stop","tram":"yes"}},{"type":"node","id":3441074838,"lat":49.2156141,"lon":16.6424753,"tags":{"name":"Maloměřický most","public_transport":"stop_position","railway":"tram_stop","tram":"yes"}},{"type":"node","id":3502619682,"lat":49.2225484,"lon":16.6447339,"tags":{"name":"Obřanská - u školy","public_transport":"stop_position","railway":"tram_stop","tram":"yes"}},{"type":"node","id":3502619685,"lat":49.2229766,"lon":16.6447997,"tags":{"name":"Obřanská - u školy","public_transport":"stop_position","railway":"tram_stop","tram":"yes"}},{"type":"node","id":3502619686,"lat":49.2275164,"lon":16.6498975,"tags":{"name":"Obřanský most","public_transport":"stop_position","railway":"tram_stop","tram":"yes"}},{"type":"node","id":3502619689,"lat":49.2274405,"lon":16.6495098,"tags":{"name":"Obřanský most","public_transport":"stop_position","railway":"tram_stop","tram":"yes"}},{"type":"node","id":3502619690,"lat":49.2274923,"lon":16.6494921,"tags":{"bench":"yes","bin":"yes","bus":"yes","highway":"bus_stop","lit":"yes","name":"Obřanský most","network":"Integrovaný dopravní systém Jihomoravského kraje","network:short":"IDS JMK","network:wikidata":"Q12020731","network:wikipedia":"cs:Integrovaný dopravní systém Jihomoravského kraje","public_transport":"platform","shelter":"yes","tactile_paving":"no"}},{"type":"node","id":3502619692,"lat":49.2198233,"lon":16.643281,"tags":{"name":"Proškovo náměstí","public_transport":"stop_position","railway":"tram_stop","tram":"yes"}},{"type":"node","id":3502619694,"lat":49.2202041,"lon":16.6433864,"tags":{"name":"Proškovo náměstí","public_transport":"stop_position","railway":"tram_stop","tram":"yes"}},{"type":"node","id":3502619882,"lat":49.2262113,"lon":16.6455687,"tags":{"name":"Čtvery hony","public_transport":"stop_position","railway":"tram_stop","tram":"yes"}},{"type":"node","id":3502620056,"lat":49.2262107,"lon":16.6456608,"tags":{"bench":"no","bin":"yes","bus":"yes","highway":"bus_stop","lit":"yes","name":"Čtvery hony","network":"Integrovaný dopravní systém Jihomoravského kraje","network:short":"IDS JMK","network:wikidata":"Q12020731","network:wikipedia":"cs:Integrovaný dopravní systém Jihomoravského kraje","public_transport":"platform","shelter":"no","tactile_paving":"no"}},{"type":"node","id":3504791108,"lat":49.2070989,"lon":16.5705973,"tags":{"name":"Bráfova","public_transport":"stop_position","railway":"tram_stop","source":"uhul:ortofoto;survey","tram":"yes"}},{"type":"node","id":3504791109,"lat":49.2068988,"lon":16.5705073,"tags":{"name":"Bráfova","public_transport":"stop_position","railway":"tram_stop","tram":"yes"}},{"type":"node","id":3519407030,"lat":49.2162208,"lon":16.5561339,"tags":{"bench":"no","bin":"yes","lit":"yes","name":"Komín, smyčka","network":"IDS JMK","network:wikidata":"Q12020731","network:wikipedia":"cs:Integrovaný dopravní systém Jihomoravského kraje","public_transport":"platform","railway":"platform","shelter":"no","tactile_paving":"no"}},{"type":"node","id":3626567644,"lat":49.1975353,"lon":16.6071992,"tags":{"bench":"yes","bin":"no","bus":"yes","highway":"bus_stop","lit":"yes","local_ref":"5","name":"Česká","network":"Integrovaný dopravní systém Jihomoravského kraje","network:short":"IDS JMK","network:wikidata":"Q12020731","network:wikipedia":"cs:Integrovaný dopravní systém Jihomoravského kraje","public_transport":"platform","shelter":"no","tactile_paving":"yes;no","wheelchair":"yes"}},{"type":"node","id":3626567645,"lat":49.1978607,"lon":16.6072173,"tags":{"bench":"no","bin":"no","bus":"yes","highway":"bus_stop","lit":"yes","local_ref":"6","name":"Česká","network":"Integrovaný dopravní systém Jihomoravského kraje","network:short":"IDS JMK","network:wikidata":"Q12020731","network:wikipedia":"cs:Integrovaný dopravní systém Jihomoravského kraje","public_transport":"platform","shelter":"no","tactile_paving":"no","wheelchair":"yes"}},{"type":"node","id":3930925620,"lat":49.2172078,"lon":16.6278233,"tags":{"bench":"yes","bin":"yes","kerb":"lowered","lit":"yes","name":"Štefánikova čtvrť","network":"IDS JMK","network:wikidata":"Q12020731","network:wikipedia":"cs:Integrovaný dopravní systém Jihomoravského kraje","passenger_information_display":"no","public_transport":"platform","railway":"platform","shelter":"yes","tactile_paving":"yes"}},{"type":"node","id":4128144636,"lat":49.2255441,"lon":16.644974,"tags":{"name":"Čtvery hony","public_transport":"stop_position","railway":"tram_stop","tram":"yes"}},{"type":"node","id":4239293880,"lat":49.1960676,"lon":16.6542892,"tags":{"bench":"yes","bin":"yes","bus":"yes","departures_board":"realtime","highway":"bus_stop","lit":"yes","name":"Juliánov","network":"IDS JMK","network:wikidata":"Q12020731","network:wikipedia":"cs:Integrovaný dopravní systém Jihomoravského kraje","public_transport":"platform","shelter":"no","source":"gps","tactile_paving":"yes","tram":"yes","zone":"100"}},{"type":"node","id":4339698221,"lat":49.213472,"lon":16.5752506,"tags":{"name":"Mozolky","network":"Integrovaný dopravní systém Jihomoravského kraje","network:short":"IDS JMK","network:wikidata":"Q12020731","operator":"Dopravní podnik města Brna","operator:short":"DPMB","operator:wikidata":"Q3700534","public_transport":"stop_position","railway":"tram_stop","tram":"yes"}},{"type":"node","id":4381177916,"lat":49.2132206,"lon":16.5596086,"tags":{"name":"Vozovna Komín","public_transport":"stop_position","railway":"tram_stop","tram":"yes"}},{"type":"node","id":5590662090,"lat":49.1802657,"lon":16.6211298,"tags":{"name":"Konopná","public_transport":"stop_position","railway":"tram_stop","tram":"yes"}},{"type":"node","id":7236985480,"lat":49.2019136,"lon":16.6699236,"tags":{"name":"Novolíšeňská","public_transport":"stop_position","railway":"tram_stop","tram":"yes"}},{"type":"node","id":7260300660,"lat":49.2162005,"lon":16.5561517,"tags":{"name":"Komín, smyčka","public_transport":"stop_position","railway":"tram_stop","tram":"yes"}},{"type":"node","id":7898109735,"lat":49.17356,"lon":16.5671325,"tags":{"name":"Západní brána","public_transport":"stop_position","railway":"tram_stop","tram":"yes","type":"proposed"}},{"type":"node","id":8420916611,"lat":49.2138737,"lon":16.6361977,"tags":{"bus":"yes","name":"Tomkovo náměstí","public_transport":"stop_position","railway":"tram_stop","tram":"yes"}},{"type":"node","id":8882815353,"lat":49.1827223,"lon":16.619626,"tags":{"bus":"yes","name":"Železniční","public_transport":"stop_position","railway":"tram_stop","tram":"yes"}},{"type":"node","id":8916075512,"lat":49.1833229,"lon":16.6193474,"tags":{"bus":"yes","name":"Železniční","public_transport":"stop_position","railway":"tram_stop","tram":"yes"}},{"type":"node","id":8955294359,"lat":49.1801293,"lon":16.6212321,"tags":{"name":"Konopná","public_transport":"stop_position","railway":"tram_stop","tram":"yes"}},{"type":"node","id":8958344841,"lat":49.185904,"lon":16.617865,"tags":{"bus":"yes","name":"Autobusové nádraží","public_transport":"stop_position","railway":"tram_stop","tram":"yes"}},{"type":"node","id":8958344842,"lat":49.1864944,"lon":16.6175808,"tags":{"bus":"yes","name":"Autobusové nádraží","public_transport":"stop_position","railway":"tram_stop","tram":"yes"}},{"type":"node","id":9115261566,"lat":49.1961001,"lon":16.6542777,"tags":{"name":"Juliánov","public_transport":"stop_position","railway":"tram_stop","tram":"yes"}},{"type":"node","id":9343740064,"lat":49.196154,"lon":16.6128915,"tags":{"bus":"yes","name":"Malinovského náměstí","public_transport":"stop_position","railway":"tram_stop","tram":"yes"}},{"type":"node","id":10255458454,"lat":49.1681032,"lon":16.5620458,"tags":{"name":"Karpatská","public_transport":"stop_position","railway":"tram_stop","tram":"yes"}},{"type":"node","id":10255458455,"lat":49.1680599,"lon":16.5619856,"tags":{"name":"Karpatská","public_transport":"stop_position","railway":"tram_stop","tram":"yes"}},{"type":"node","id":10255490223,"lat":49.1690843,"lon":16.5565197,"tags":{"name":"Dunajská","public_transport":"stop_position","railway":"tram_stop","tram":"yes"}},{"type":"node","id":10255490224,"lat":49.1690893,"lon":16.5566131,"tags":{"name":"Dunajská","public_transport":"stop_position","railway":"tram_stop","tram":"yes"}},{"type":"node","id":10262164051,"lat":49.1730828,"lon":16.5669383,"tags":{"name":"Západní brána","public_transport":"stop_position","railway":"tram_stop","tram":"yes","type":"proposed"}},{"type":"node","id":10262164053,"lat":49.1760496,"lon":16.5674162,"tags":{"local_ref":"B","name":"Nemocnice Bohunice","public_transport":"stop_position","railway":"tram_stop","tram":"yes"}},{"type":"node","id":10262164054,"lat":49.1760563,"lon":16.5673067,"tags":{"local_ref":"A","name":"Nemocnice Bohunice","public_transport":"stop_position","railway":"tram_stop","tram":"yes"}},{"type":"node","id":10268099792,"lat":49.1692571,"lon":16.5732112,"tags":{"name":"Švermova","public_transport":"stop_position","railway":"tram_stop","tram":"yes"}},{"type":"node","id":10268099793,"lat":49.1691926,"lon":16.5731349,"tags":{"name":"Švermova","public_transport":"stop_position","railway":"tram_stop","tram":"yes"}},{"type":"node","id":10268099795,"lat":49.1707475,"lon":16.5808432,"tags":{"name":"Běloruská","public_transport":"stop_position","railway":"tram_stop","tram":"yes"}},{"type":"node","id":10624485781,"lat":49.2135541,"lon":16.5650636,"tags":{"name":"Sochorova","public_transport":"stop_position","railway":"tram_stop","tram":"yes"}},{"type":"node","id":10624485782,"lat":49.2134217,"lon":16.5644403,"tags":{"name":"Sochorova","public_transport":"stop_position","railway":"tram_stop","tram":"yes"}},{"type":"node","id":11882036076,"lat":49.2442592,"lon":16.5814119,"tags":{"name":"Filkukova","public_transport":"stop_position","railway":"tram_stop","tram":"yes"}},{"type":"node","id":12073210046,"lat":49.214035,"lon":16.63655,"tags":{"bus":"yes","name":"Tomkovo náměstí","public_transport":"stop_position","railway":"tram_stop","tram":"yes"}},{"type":"node","id":12285737514,"lat":49.2274874,"lon":16.6499229,"tags":{"bench":"no","bin":"no","bus":"yes","highway":"bus_stop","lit":"yes","name":"Obřanský most","network":"Integrovaný dopravní systém Jihomoravského kraje","network:short":"IDS JMK","network:wikidata":"Q12020731","network:wikipedia":"cs:Integrovaný dopravní systém Jihomoravského kraje","public_transport":"platform","shelter":"no","tactile_paving":"no"}},{"type":"node","id":12289765232,"lat":49.2301054,"lon":16.595391,"tags":{"bench":"no","bin":"yes","lit":"yes","local_ref":"2","name":"Královo Pole, nádraží","network":"Integrovaný dopravní systém Jihomoravského kraje","network:short":"IDS JMK","network:wikidata":"Q12020731","network:wikipedia":"cs:Integrovaný dopravní systém Jihomoravského kraje","public_transport":"platform","railway":"platform","shelter":"no","smoothness":"excellent","source":"cuzk:km","surface":"paving_stones","tactile_paving":"no","tram":"yes"}},{"type":"node","id":12289765235,"lat":49.1902161,"lon":16.5941226,"tags":{"bench":"yes","bin":"yes","highway":"bus_stop","lit":"yes","local_ref":"4","name":"Mendlovo náměstí","network":"IDS JMK","network:wikidata":"Q12020731","network:wikipedia":"cs:Integrovaný dopravní systém Jihomoravského kraje","public_transport":"platform","railway":"platform","shelter":"yes","smoothness":"excellent","source":"cuzk:km","surface":"paving_stones","tactile_paving":"no"}},{"type":"node","id":12715105495,"lat":49.2106246,"lon":16.6183731,"tags":{"bench":"yes","bin":"yes","bus":"yes","highway":"bus_stop","lit":"yes","name":"Zemědělská","network":"IDS JMK","network:wikidata":"Q12020731","network:wikipedia":"cs:Integrovaný dopravní systém Jihomoravského kraje","public_transport":"platform","shelter":"yes","smoothness":"excellent","source":"cuzk:km;bing","surface":"paving_stones","tactile_paving":"no","wheelchair":"yes"}},{"type":"node","id":12715196924,"lat":49.2296103,"lon":16.5955936,"tags":{"bench":"yes","bin":"yes","lit":"yes","local_ref":"1","name":"Královo Pole, nádraží","network":"IDS JMK","network:wikidata":"Q12020731","network:wikipedia":"cs:Integrovaný dopravní systém Jihomoravského kraje","public_transport":"platform","railway":"platform","shelter":"yes","smoothness":"intermediate","surface":"concrete","tactile_paving":"no"}},{"type":"node","id":12817729195,"lat":49.1912669,"lon":16.6126697,"tags":{"bench":"yes","bin":"yes","bus":"yes","foot":"yes","highway":"bus_stop","lit":"yes","local_ref":"4","name":"Hlavní nádraží","network":"Integrovaný dopravní systém Jihomoravského kraje","network:short":"IDS JMK","network:wikidata":"Q12020731","network:wikipedia":"cs:Integrovaný dopravní systém Jihomoravského kraje","public_transport":"platform","railway":"platform","shelter":"yes","source":"survey; cuzk:km; uhul:ortofoto","surface":"asphalt","tactile_paving":"yes","wheelchair":"no"}},{"type":"node","id":12817729196,"lat":49.191378,"lon":16.6125703,"tags":{"bench":"yes","bin":"yes","bus":"yes","foot":"yes","highway":"bus_stop","lit":"yes","local_ref":"2","name":"Hlavní nádraží","network":"Integrovaný dopravní systém Jihomoravského kraje","network:short":"IDS JMK","network:wikidata":"Q12020731","network:wikipedia":"cs:Integrovaný dopravní systém Jihomoravského kraje","public_transport":"platform","railway":"platform","shelter":"yes","source":"survey; cuzk:km; uhul:ortofoto","surface":"asphalt","tactile_paving":"yes","wheelchair":"no"}},{"type":"node","id":12817729197,"lat":49.1911942,"lon":16.6118261,"tags":{"bench":"yes","bin":"yes","bus":"yes","foot":"yes","highway":"bus_stop","lit":"yes","local_ref":"1","name":"Hlavní nádraží","network":"Integrovaný dopravní systém Jihomoravského kraje","network:short":"IDS JMK","network:wikidata":"Q12020731","network:wikipedia":"cs:Integrovaný dopravní systém Jihomoravského kraje","public_transport":"platform","railway":"platform","shelter":"yes","source":"survey; cuzk:km; uhul:ortofoto","surface":"asphalt","tactile_paving":"yes","wheelchair":"no"}},{"type":"node","id":12817729198,"lat":49.191082,"lon":16.6119274,"tags":{"bench":"yes","bin":"yes","bus":"yes","foot":"yes","highway":"bus_stop","lit":"yes","local_ref":"3","name":"Hlavní nádraží","network":"Integrovaný dopravní systém Jihomoravského kraje","network:short":"IDS JMK","network:wikidata":"Q12020731","network:wikipedia":"cs:Integrovaný dopravní systém Jihomoravského kraje","public_transport":"platform","railway":"platform","shelter":"yes","source":"survey; cuzk:km; uhul:ortofoto","surface":"asphalt","tactile_paving":"yes","wheelchair":"no"}},{"type":"node","id":13649379420,"lat":49.1901827,"lon":16.5941332,"tags":{"local_ref":"4","name":"Mendlovo náměstí","passenger_information_display":"yes","public_transport":"stop_position","railway":"tram_stop","tram":"yes"}},{"type":"node","id":13653230689,"lat":49.2210554,"lon":16.585621,"tags":{"name":"Skácelova","public_transport":"stop_position","railway":"tram_stop","tram":"yes"}},{"type":"node","id":13653230690,"lat":49.2206258,"lon":16.585867,"tags":{"name":"Skácelova","public_transport":"stop_position","railway":"tram_stop","tram":"yes"}},{"type":"node","id":14016920785,"lat":49.194071,"lon":16.5697987,"tags":{"name":"Pisárky","public_transport":"stop_position","railway":"tram_stop","tram":"yes"}},{"type":"node","id":21673321,"lat":49.2354023,"lon":16.5862721,"tags":{"name":"Vozovna Medlánky","public_transport":"stop_position","railway":"tram_stop","tram":"yes"}},{"type":"node","id":497497007,"lat":49.1697902,"lon":16.5756225,"tags":{"name":"Švermova","network":"IDS JMK","public_transport":"stop_position","railway":"tram_stop","tram":"yes"}},{"type":"node","id":529938575,"lat":49.2251911,"lon":16.5834321,"tags":{"name":"Červinkova","public_transport":"stop_position","railway":"tram_stop","tram":"yes"}},{"type":"node","id":2308915121,"lat":49.1694868,"lon":16.574914,"tags":{"name":"Švermova","network":"IDS JMK","public_transport":"stop_position","railway":"tram_stop","tram":"yes"}},{"type":"node","id":2557868723,"lat":49.2101228,"lon":16.6184771,"tags":{"name":"Zemědělská","public_transport":"stop_position","railway":"tram_stop","tram":"yes"}},{"type":"node","id":2558146996,"lat":49.2153138,"lon":16.6425921,"tags":{"name":"Maloměřický most","public_transport":"stop_position","railway":"tram_stop","tram":"yes"}},{"type":"node","id":3030732827,"lat":49.1931614,"lon":16.5702151,"tags":{"name":"Pisárky","public_transport":"stop_position","railway":"tram_stop","tram":"yes"}},{"type":"node","id":3329757234,"lat":49.1913052,"lon":16.6111024,"tags":{"local_ref":"7","name":"Hlavní nádraží","public_transport":"stop_position","railway":"tram_stop","tram":"yes"}},{"type":"node","id":3329758210,"lat":49.1975543,"lon":16.6072165,"tags":{"name":"Česká","public_transport":"stop_position","railway":"tram_stop","tram":"yes"}},{"type":"node","id":3339546853,"lat":49.1893306,"lon":16.5856862,"tags":{"name":"Výstaviště - hlavní vstup","network":"IDS JMK","network:wikidata":"Q12020731","operator":"DPMB","operator:wikidata":"Q3700534","public_transport":"stop_position","railway":"tram_stop","tram":"yes"}},{"type":"node","id":3343439853,"lat":49.2179252,"lon":16.5092963,"tags":{"name":"Ečerova","public_transport":"stop_position","railway":"tram_stop","tram":"yes"}},{"type":"node","id":3354663433,"lat":49.2021895,"lon":16.5819957,"tags":{"bus":"yes","name":"Náměstí Míru","public_transport":"stop_position","railway":"tram_stop","tram":"yes"}},{"type":"node","id":3390724661,"lat":49.235267,"lon":16.5865978,"tags":{"name":"Vozovna Medlánky","public_transport":"stop_position","railway":"tram_stop","tram":"yes"}},{"type":"node","id":5979861367,"lat":49.1913952,"lon":16.6110087,"tags":{"local_ref":"8","name":"Hlavní nádraží","public_transport":"stop_position","railway":"tram_stop","tram":"yes"}},{"type":"node","id":13649379276,"lat":49.1904205,"lon":16.5945518,"tags":{"fixme":"přidat relace na oblast zastávky a na linky H4 a 5","local_ref":"5","name":"Mendlovo náměstí","public_transport":"stop_position","railway":"tram_stop","tram":"yes"}}]}