{"elements":[{"type":"relation","id":6517631,"tags":{"colour":"#006DBB","from":"青岛站","from:en":"Qingdao Railway Station","from:ko":"칭다오","from:zh":"青岛站","name":"3号线：青岛站 → 青岛北站","name:en":"Line 3: Qingdao Railway Station → Qingdao North Railway Station","name:zh":"3号线：青岛站 → 青岛北站","public_transport:version":"2","ref":"3","route":"subway","to":"青岛北站","to:en":"Qingdao North Railway Station","to:ko":"칭다오베이","to:zh":"青岛北站","type":"route","wikidata":"Q15907883"},"members":[{"type":"node","ref":4571747267,"role":"stop"},{"type":"node","ref":2623155382,"role":"stop"},{"type":"node","ref":2623155388,"role":"stop"},{"type":"node","ref":2623155404,"role":"stop"},{"type":"node","ref":2623155391,"role":"stop"},{"type":"node","ref":2623155393,"role":"stop"},{"type":"node","ref":2623155389,"role":"stop"},{"type":"node","ref":2623155401,"role":"stop"},{"type":"node","ref":2623155405,"role":"stop"},{"type":"node","ref":4571750717,"role":"stop"},{"type":"node","ref":2623155384,"role":"stop"},{"type":"node","ref":2623155397,"role":"stop"},{"type":"node","ref":2623155392,"role":"stop"},{"type":"node","ref":4571750730,"role":"stop"},{"type":"node","ref":4571750732,"role":"stop"},{"type":"node","ref":2623155390,"role":"stop"},{"type":"node","ref":2623155398,"role":"stop"},{"type":"node","ref":4571750746,"role":"stop"},{"type":"node","ref":2623155386,"role":"stop"},{"type":"node","ref":2623155383,"role":"stop"},{"type":"node","ref":2623155402,"role":"stop"},{"type":"node","ref":9419914155,"role":"stop"}]},{"type":"relation","id":7839800,"tags":{"colour":"#C42C05","from":"四川路","from:en":"Sichuan Road","from:zh":"四川路","name":"2号线：四川路 → 李村公园","name:en":"Line 2: Sichuan Road → Licun Park","name:fr":"ligne 2: Rue Sichuan → Parc de Licun","name:zh":"2号线：四川路 → 李村公园","public_transport:version":"2","ref":"2","route":"subway","start_date":"2017-12-10","to":"李村公园","to:en":"Licun Park","to:zh":"李村公园","type":"route","wikidata":"Q15936318"},"members":[{"type":"node","ref":12438429907,"role":"stop"},{"type":"node","ref":12438001735,"role":"stop"},{"type":"node","ref":12438001739,"role":"stop"},{"type":"node","ref":6343069783,"role":"stop"},{"type":"node","ref":6343069780,"role":"stop"},{"type":"node","ref":7060206637,"role":"stop"},{"type":"node","ref":7060206638,"role":"stop"},{"type":"node","ref":5280430711,"role":"stop"},{"type":"node","ref":5280430929,"role":"stop"},{"type":"node","ref":5280430936,"role":"stop"},{"type":"node","ref":5280430943,"role":"stop"},{"type":"node","ref":5280430949,"role":"stop"},{"type":"node","ref":5280430957,"role":"stop"},{"type":"node","ref":5280430962,"role":"stop"},{"type":"node","ref":5280430966,"role":"stop"},{"type":"node","ref":5280430973,"role":"stop"},{"type":"node","ref":5280430987,"role":"stop"},{"type":"node","ref":5280431000,"role":"stop"},{"type":"node","ref":5280431004,"role":"stop"},{"type":"node","ref":5280431005,"role":"stop"},{"type":"node","ref":5280431012,"role":"stop"},{"type":"node","ref":5280431126,"role":"stop"},{"type":"node","ref":5280431135,"role":"stop"},{"type":"node","ref":5280431148,"role":"stop"},{"type":"node","ref":5280431156,"role":"stop"}]},{"type":"relation","id":7844334,"tags":{"colour":"#C42C05","from":"李村公园","from:en":"Licun Park","from:zh":"李村公园","name":"2号线：李村公园 → 四川路","name:en":"Line 2: Licun Park → Sichuan Road","name:fr":"ligne 2: Parc de Licun → Rue Sichuan","public_transport:version":"2","ref":"2","route":"subway","start_date":"2017-12-10","to":"四川路","to:en":"Sichuan Road","to:zh":"四川路","type":"route","wikidata":"Q15936318"},"members":[{"type":"node","ref":12437997973,"role":"stop"},{"type":"node","ref":12437997964,"role":"stop"},{"type":"node","ref":12437997951,"role":"stop"},{"type":"node","ref":12437997942,"role":"stop"},{"type":"node","ref":12437997932,"role":"stop"},{"type":"node","ref":12437997925,"role":"stop"},{"type":"node","ref":12437997924,"role":"stop"},{"type":"node","ref":12437997919,"role":"stop"},{"type":"node","ref":12437997907,"role":"stop"},{"type":"node","ref":12437979492,"role":"stop"},{"type":"node","ref":12437979484,"role":"stop"},{"type":"node","ref":12437979481,"role":"stop"},{"type":"node","ref":12437979476,"role":"stop"},{"type":"node","ref":12437979469,"role":"stop"},{"type":"node","ref":12438377689,"role":"stop"},{"type":"node","ref":12438377690,"role":"stop"},{"type":"node","ref":12438377692,"role":"stop"},{"type":"node","ref":12437979443,"role":"stop"},{"type":"node","ref":12437979446,"role":"stop"},{"type":"node","ref":12438377693,"role":"stop"},{"type":"node","ref":12437979456,"role":"stop"},{"type":"node","ref":12437979461,"role":"stop"},{"type":"node","ref":12438429906,"role":"stop"},{"type":"node","ref":12438001758,"role":"stop"},{"type":"node","ref":12438429908,"role":"stop"}]},{"type":"relation","id":7883241,"tags":{"colour":"#006DBB","from":"青岛北站","from:en":"Qingdao North Railway Station","from:ko":"칭다오베이","from:zh":"青岛北站","name":"3号线：青岛北站 → 青岛站","name:en":"Line 3: Qingdao North Railway Station → Qingdao Railway Station","name:zh":"3号线：青岛北站 → 青岛站","public_transport:version":"2","ref":"3","route":"subway","to":"青岛站","to:en":"Qingdao Railway Station","to:ko":"칭다오","to:zh":"青岛站","type":"route","wikidata":"Q15907883"},"members":[{"type":"node","ref":4571750747,"role":"stop"},{"type":"node","ref":12438317720,"role":"stop"},{"type":"node","ref":12438317715,"role":"stop"},{"type":"node","ref":12438317712,"role":"stop"},{"type":"node","ref":12438317709,"role":"stop"},{"type":"node","ref":12438289398,"role":"stop"},{"type":"node","ref":12438289391,"role":"stop"},{"type":"node","ref":12438289387,"role":"stop"},{"type":"node","ref":12438289382,"role":"stop"},{"type":"node","ref":12438289380,"role":"stop"},{"type":"node","ref":12438289374,"role":"stop"},{"type":"node","ref":12438289365,"role":"stop"},{"type":"node","ref":12438289364,"role":"stop"},{"type":"node","ref":12438289361,"role":"stop"},{"type":"node","ref":12437979425,"role":"stop"},{"type":"node","ref":12438377691,"role":"stop"},{"type":"node","ref":12437979434,"role":"stop"},{"type":"node","ref":12438289353,"role":"stop"},{"type":"node","ref":12438289343,"role":"stop"},{"type":"node","ref":12438289335,"role":"stop"},{"type":"node","ref":12438289325,"role":"stop"},{"type":"node","ref":12438289316,"role":"stop"}]},{"type":"relation","id":9287539,"tags":{"colour":"#00AB84","from":"嘉陵江西路","name":"西海岸快线","name:en":"West Coast Line: Jialingjiang West Road → Dongjiakou Railway Station","name:fr":"ligne 13 : Rue Jialingjiang Ouest → Gare de Dongjiakou","network":"青岛地铁","network:en":"Qingdao Metro","network:wikidata":"Q2620251","network:zh":"青岛地铁","old_name":"青岛地铁13号线","old_name:en":"Qingdao Metro Line 13 : Jialingjiang West Road → Dongjiakou Railway Station","public_transport:version":"2","ref":"13","route":"subway","to":"董家口火车站","type":"route","wikidata":"Q15937512","wikipedia":"zh:青岛地铁13号线"},"members":[{"type":"node","ref":11289499267,"role":"stop"},{"type":"node","ref":8962752815,"role":"stop"},{"type":"node","ref":5898642027,"role":"stop"},{"type":"node","ref":9404015667,"role":"stop"},{"type":"node","ref":9404015665,"role":"stop"},{"type":"node","ref":9404015663,"role":"stop"},{"type":"node","ref":9404015661,"role":"stop"},{"type":"node","ref":9404015670,"role":"stop"},{"type":"node","ref":5898642010,"role":"stop"},{"type":"node","ref":9404015659,"role":"stop"},{"type":"node","ref":9404015657,"role":"stop"},{"type":"node","ref":9404015655,"role":"stop"},{"type":"node","ref":9404015676,"role":"stop"},{"type":"node","ref":9404015652,"role":"stop"},{"type":"node","ref":9404015679,"role":"stop"},{"type":"node","ref":9404015674,"role":"stop"},{"type":"node","ref":9404015650,"role":"stop"},{"type":"node","ref":9404015673,"role":"stop"},{"type":"node","ref":9404015669,"role":"stop"},{"type":"node","ref":8962754794,"role":"stop"},{"type":"node","ref":9404015648,"role":"stop"},{"type":"node","ref":6092369555,"role":"stop"},{"type":"node","ref":5898642138,"role":"stop"}]},{"type":"relation","id":10467351,"tags":{"colour":"#3850a2","from":"鳌山湾","name":"蓝谷快线：钱谷山 → 苗岭路","name:en":"Oceantec Valley Line: Qiangu Mountain → Miaoling Road","name:fr":"ligne 11: Montagne de Qiangu → Rue Miaoling","old_name":"青岛地铁11号线","old_name:en":"Qingdao Metro Line 11: Qiangu Mountain → Miaoling Road","public_transport:version":"2","ref":"11","route":"subway","to":"苗岭路","type":"route","wikidata":"Q15944362"},"members":[{"type":"node","ref":9450007164,"role":"stop"},{"type":"node","ref":9450007159,"role":"stop"},{"type":"node","ref":13628994906,"role":"stop"},{"type":"node","ref":13628962589,"role":"stop"},{"type":"node","ref":13627019966,"role":"stop"},{"type":"node","ref":13627019908,"role":"stop"},{"type":"node","ref":13627019899,"role":"stop"},{"type":"node","ref":13627019893,"role":"stop"},{"type":"node","ref":13627019882,"role":"stop"},{"type":"node","ref":13627019975,"role":"stop"},{"type":"node","ref":13627019855,"role":"stop"},{"type":"node","ref":13627019828,"role":"stop"},{"type":"node","ref":13627019811,"role":"stop"},{"type":"node","ref":13627017786,"role":"stop"},{"type":"node","ref":13026234174,"role":"stop"},{"type":"node","ref":13026234197,"role":"stop"},{"type":"node","ref":13026237612,"role":"stop"},{"type":"node","ref":13481472695,"role":"stop"},{"type":"node","ref":13481472679,"role":"stop"},{"type":"node","ref":13481472686,"role":"stop"},{"type":"node","ref":13481472685,"role":"stop"}]},{"type":"relation","id":10467352,"tags":{"colour":"#3850a2","from":"苗岭路","name":"蓝谷快线：苗岭路 → 钱谷山","name:en":"Oceantec Valley Line: Miaoling Road → Qiangu Mountain","name:fr":"ligne 11: Rue Miaoling → Montagne de Qiangu","old_name":"青岛地铁11号线","old_name:en":"Qingdao Metro Line 11: Miaoling Road → Qiangu Mountain","public_transport:version":"2","ref":"11","route":"subway","to":"钱谷山","type":"route","wikidata":"Q15944362"},"members":[{"type":"node","ref":5307131565,"role":"stop"},{"type":"node","ref":5573094631,"role":"stop"},{"type":"node","ref":5525227721,"role":"stop"},{"type":"node","ref":5525227117,"role":"stop"},{"type":"node","ref":5525192343,"role":"stop"},{"type":"node","ref":5579085297,"role":"stop"},{"type":"node","ref":5579085298,"role":"stop"},{"type":"node","ref":5579085299,"role":"stop"},{"type":"node","ref":5579085300,"role":"stop"},{"type":"node","ref":5525191902,"role":"stop"},{"type":"node","ref":5525182860,"role":"stop"},{"type":"node","ref":5579085311,"role":"stop"},{"type":"node","ref":5579086021,"role":"stop"},{"type":"node","ref":5579086022,"role":"stop"},{"type":"node","ref":5579086023,"role":"stop"},{"type":"node","ref":5579086024,"role":"stop"},{"type":"node","ref":5108871666,"role":"stop"},{"type":"node","ref":5108871680,"role":"stop"},{"type":"node","ref":5579086028,"role":"stop"},{"type":"node","ref":5579086033,"role":"stop"},{"type":"node","ref":5579086030,"role":"stop"}]},{"type":"relation","id":10467727,"tags":{"colour":"#00AB84","from":"董家口火车站","name":"西海岸快线","name:en":"West Coast Line: Dongjiakou → Jialingjiang West Road","name:fr":"ligne 13 : Gare de Dongjiakou → Rue Jialingjiang Ouest","network":"青岛地铁","network:en":"Qingdao Metro","network:wikidata":"Q2620251","network:zh":"青岛地铁","old_name":"青岛地铁13号线","old_name:en":"Qingdao Metro Line 13 : Dongjiakou → Jialingjiang West Road","public_transport:version":"2","ref":"13","route":"subway","to":"嘉陵江西路","type":"route","wikidata":"Q15937512"},"members":[{"type":"node","ref":5898642248,"role":"stop"},{"type":"node","ref":6092369558,"role":"stop"},{"type":"node","ref":6092369551,"role":"stop"},{"type":"node","ref":9404015649,"role":"stop"},{"type":"node","ref":9404015668,"role":"stop"},{"type":"node","ref":9404015672,"role":"stop"},{"type":"node","ref":9404015651,"role":"stop"},{"type":"node","ref":9404015675,"role":"stop"},{"type":"node","ref":9404015678,"role":"stop"},{"type":"node","ref":9404015653,"role":"stop"},{"type":"node","ref":9404015677,"role":"stop"},{"type":"node","ref":9404015654,"role":"stop"},{"type":"node","ref":9404015656,"role":"stop"},{"type":"node","ref":9404015658,"role":"stop"},{"type":"node","ref":5898642167,"role":"stop"},{"type":"node","ref":9404015671,"role":"stop"},{"type":"node","ref":9404015660,"role":"stop"},{"type":"node","ref":9404015662,"role":"stop"},{"type":"node","ref":9404015664,"role":"stop"},{"type":"node","ref":9404015666,"role":"stop"},{"type":"node","ref":5898642142,"role":"stop"},{"type":"node","ref":11841581896,"role":"stop"},{"type":"node","ref":11289499266,"role":"stop"}]},{"type":"relation","id":13067813,"tags":{"colour":"#F7B000","from":"王家港","name":"1号线：王家港 → 东郭庄","name:en":"Line 1: Wangjiagang → Dongguozhuang","name:fr":"Ligne 1: Wangjiagang → Dongguozhuang","name:zh":"1号线：王家港 → 东郭庄","network":"青岛地铁","network:en":"Qingdao Metro","network:wikidata":"Q2620251","network:wikipedia":"zh:青岛地铁","network:zh":"青岛地铁","public_transport:version":"2","ref":"1","route":"subway","to":"东郭庄","type":"route","wikidata":"Q15935678","wikipedia":"zh:青岛地铁1号线"},"members":[{"type":"node","ref":9381412719,"role":"stop"},{"type":"node","ref":9381412721,"role":"stop"},{"type":"node","ref":9381412728,"role":"stop"},{"type":"node","ref":9381412731,"role":"stop"},{"type":"node","ref":9381412736,"role":"stop"},{"type":"node","ref":9381412740,"role":"stop"},{"type":"node","ref":9381412743,"role":"stop"},{"type":"node","ref":9381412747,"role":"stop"},{"type":"node","ref":9381412753,"role":"stop"},{"type":"node","ref":9381412765,"role":"stop"},{"type":"node","ref":9381412784,"role":"stop"},{"type":"node","ref":9381412790,"role":"stop"},{"type":"node","ref":9381333300,"role":"stop"},{"type":"node","ref":9381333290,"role":"stop"},{"type":"node","ref":9381333283,"role":"stop"},{"type":"node","ref":9381333275,"role":"stop"},{"type":"node","ref":9381333267,"role":"stop"},{"type":"node","ref":9381333261,"role":"stop"},{"type":"node","ref":9381333248,"role":"stop"},{"type":"node","ref":9381333243,"role":"stop"},{"type":"node","ref":9381333238,"role":"stop"},{"type":"node","ref":9381333232,"role":"stop"},{"type":"node","ref":9381333223,"role":"stop"},{"type":"node","ref":9381275916,"role":"stop"},{"type":"node","ref":9381275910,"role":"stop"},{"type":"node","ref":9381275896,"role":"stop"},{"type":"node","ref":8989474527,"role":"stop"},{"type":"node","ref":8989474517,"role":"stop"},{"type":"node","ref":8989474510,"role":"stop"},{"type":"node","ref":8989474506,"role":"stop"},{"type":"node","ref":8989474503,"role":"stop"},{"type":"node","ref":8989474500,"role":"stop"},{"type":"node","ref":8989474496,"role":"stop"},{"type":"node","ref":8989474492,"role":"stop"},{"type":"node","ref":8989474474,"role":"stop"},{"type":"node","ref":8989474462,"role":"stop"},{"type":"node","ref":8989474447,"role":"stop"},{"type":"node","ref":8989474442,"role":"stop"},{"type":"node","ref":8989474435,"role":"stop"},{"type":"node","ref":8989474426,"role":"stop"},{"type":"node","ref":8989474425,"role":"stop"}]},{"type":"relation","id":13067814,"tags":{"colour":"#F7B000","from":"东郭庄","name":"1号线：东郭庄 → 王家港","name:en":"Line 1: Dongguozhuang → Wangjiagang","name:fr":"Ligne 1: Dongguozhuang → Wangjiagang","name:zh":"1号线：东郭庄 → 王家港","network":"青岛地铁","network:en":"Qingdao Metro","network:wikidata":"Q2620251","network:wikipedia":"zh:青岛地铁","network:zh":"青岛地铁","public_transport:version":"2","ref":"1","route":"subway","to":"王家港","type":"route","wikidata":"Q15935678","wikipedia":"zh:青岛地铁1号线"},"members":[{"type":"node","ref":6129825523,"role":"stop"},{"type":"node","ref":8232789835,"role":"stop"},{"type":"node","ref":8989474436,"role":"stop"},{"type":"node","ref":6129825532,"role":"stop"},{"type":"node","ref":6129825535,"role":"stop"},{"type":"node","ref":6129825546,"role":"stop"},{"type":"node","ref":8232772979,"role":"stop"},{"type":"node","ref":8232772971,"role":"stop"},{"type":"node","ref":8989474497,"role":"stop"},{"type":"node","ref":8221018113,"role":"stop"},{"type":"node","ref":8220998455,"role":"stop"},{"type":"node","ref":8220998457,"role":"stop"},{"type":"node","ref":6343079344,"role":"stop"},{"type":"node","ref":8989474519,"role":"stop"},{"type":"node","ref":8989474528,"role":"stop"},{"type":"node","ref":9381275897,"role":"stop"},{"type":"node","ref":9381275911,"role":"stop"},{"type":"node","ref":9381333218,"role":"stop"},{"type":"node","ref":8959591215,"role":"stop"},{"type":"node","ref":6343079372,"role":"stop"},{"type":"node","ref":9381333239,"role":"stop"},{"type":"node","ref":8959525650,"role":"stop"},{"type":"node","ref":6343079380,"role":"stop"},{"type":"node","ref":9381333262,"role":"stop"},{"type":"node","ref":8959525644,"role":"stop"},{"type":"node","ref":6130144385,"role":"stop"},{"type":"node","ref":7678779964,"role":"stop"},{"type":"node","ref":6129703915,"role":"stop"},{"type":"node","ref":9404255209,"role":"stop"},{"type":"node","ref":6129703903,"role":"stop"},{"type":"node","ref":6129703897,"role":"stop"},{"type":"node","ref":6129721435,"role":"stop"},{"type":"node","ref":6130144279,"role":"stop"},{"type":"node","ref":6130144278,"role":"stop"},{"type":"node","ref":6129721458,"role":"stop"},{"type":"node","ref":6129721461,"role":"stop"},{"type":"node","ref":6130144277,"role":"stop"},{"type":"node","ref":6130144276,"role":"stop"},{"type":"node","ref":6129721474,"role":"stop"},{"type":"node","ref":6129721478,"role":"stop"},{"type":"node","ref":6129721482,"role":"stop"}]},{"type":"relation","id":13068448,"tags":{"colour":"#DF1995","fee":"yes","from":"胶州北站","name":"8号线：胶州北站 → 青岛北站","name:en":"line 8: Jiaozhou North Railway Station -> Qingdao North Railway Station","name:ko":"8호선: 칭다오베이 → 교주베이","name:zh":"8号线：胶州北站 → 青岛北站","network":"青岛地铁","network:en":"Qingdao Metro","network:wikidata":"Q2620251","network:wikipedia":"zh:青岛地铁","network:zh":"青岛地铁","public_transport:version":"2","ref":"8","route":"subway","start_date":"2020-12-24","to":"青岛北站","type":"route","wikidata":"Q22100048"},"members":[{"type":"node","ref":8989665671,"role":"stop"},{"type":"node","ref":8989665687,"role":"stop"},{"type":"node","ref":8989665705,"role":"stop"},{"type":"node","ref":8989886029,"role":"stop"},{"type":"node","ref":8989886051,"role":"stop"},{"type":"node","ref":8989886056,"role":"stop"},{"type":"node","ref":8989886061,"role":"stop"},{"type":"node","ref":8989886087,"role":"stop"},{"type":"node","ref":8989886099,"role":"stop"},{"type":"node","ref":8989886110,"role":"stop"},{"type":"node","ref":8989886120,"role":"stop"}]},{"type":"relation","id":13068449,"tags":{"colour":"#DF1995","fee":"yes","from":"青岛北站","name":"8号线：青岛北站 → 胶州北站","name:en":"line 8: Qingdao North Railway Station -> Jiaozhou North Railway Station","name:ko":"8호선: 칭다오베이 → 교주베이","name:zh":"8号线：青岛北站 → 胶州北站","network":"青岛地铁","network:en":"Qingdao Metro","network:wikidata":"Q2620251","network:wikipedia":"zh:青岛地铁","network:zh":"青岛地铁","public_transport:version":"2","ref":"8","route":"subway","start_date":"2020-12-24","to":"胶州北站","type":"route","wikidata":"Q22100048"},"members":[{"type":"node","ref":8989886119,"role":"stop"},{"type":"node","ref":8989886109,"role":"stop"},{"type":"node","ref":5525041822,"role":"stop"},{"type":"node","ref":8989886088,"role":"stop"},{"type":"node","ref":8989886063,"role":"stop"},{"type":"node","ref":5525041509,"role":"stop"},{"type":"node","ref":8989886052,"role":"stop"},{"type":"node","ref":6235819124,"role":"stop"},{"type":"node","ref":8989665706,"role":"stop"},{"type":"node","ref":8989665690,"role":"stop"},{"type":"node","ref":8989665670,"role":"stop"}]},{"type":"relation","id":15051204,"tags":{"colour":"#007A33","from":"大河东","name":"4号线：大河东 → 人民会堂","name:en":"Line 4: Dahedong → People's Hall","name:fr":"Ligne 4: Dahedong → Maison du Peuple","public_transport:version":"2","ref":"4","route":"subway","to":"人民会堂","type":"route","wikidata":"Q15947246"},"members":[{"type":"node","ref":8959528157,"role":"stop"},{"type":"node","ref":6898636023,"role":"stop"},{"type":"node","ref":6898635808,"role":"stop"},{"type":"node","ref":10288287933,"role":"stop"},{"type":"node","ref":10288287931,"role":"stop"},{"type":"node","ref":10288287925,"role":"stop"},{"type":"node","ref":8853299949,"role":"stop"},{"type":"node","ref":10288287929,"role":"stop"},{"type":"node","ref":10288256401,"role":"stop"},{"type":"node","ref":10288256403,"role":"stop"},{"type":"node","ref":10288256404,"role":"stop"},{"type":"node","ref":10288256406,"role":"stop"},{"type":"node","ref":8961094242,"role":"stop"},{"type":"node","ref":10288287909,"role":"stop"},{"type":"node","ref":10288287911,"role":"stop"},{"type":"node","ref":10288287913,"role":"stop"},{"type":"node","ref":10288287923,"role":"stop"},{"type":"node","ref":10288287921,"role":"stop"},{"type":"node","ref":10288287922,"role":"stop"},{"type":"node","ref":10288287917,"role":"stop"},{"type":"node","ref":10288287919,"role":"stop"},{"type":"node","ref":10287159310,"role":"stop"},{"type":"node","ref":13022483737,"role":"stop"},{"type":"node","ref":10288287915,"role":"stop"},{"type":"node","ref":10288287924,"role":"stop"}]},{"type":"relation","id":15051219,"tags":{"colour":"#007A33","from":"人民会堂","name":"4号线：人民会堂 → 大河东","name:en":"Line 4: People's Hall → Dahedong","name:fr":"Ligne 4: Maison du Peuple → Dahedong","public_transport:version":"2","ref":"4","route":"subway","to":"大河东","type":"route","wikidata":"Q15947246"},"members":[{"type":"node","ref":10288287924,"role":"stop"},{"type":"node","ref":10288287915,"role":"stop"},{"type":"node","ref":13022483737,"role":"stop"},{"type":"node","ref":10287159310,"role":"stop"},{"type":"node","ref":10288287919,"role":"stop"},{"type":"node","ref":10288287917,"role":"stop"},{"type":"node","ref":10288287922,"role":"stop"},{"type":"node","ref":10288287921,"role":"stop"},{"type":"node","ref":10288287923,"role":"stop"},{"type":"node","ref":10288287913,"role":"stop"},{"type":"node","ref":10288287911,"role":"stop"},{"type":"node","ref":10288287909,"role":"stop"},{"type":"node","ref":8961094242,"role":"stop"},{"type":"node","ref":10288256406,"role":"stop"},{"type":"node","ref":10288256404,"role":"stop"},{"type":"node","ref":10288256403,"role":"stop"},{"type":"node","ref":10288256401,"role":"stop"},{"type":"node","ref":10288287929,"role":"stop"},{"type":"node","ref":8853299949,"role":"stop"},{"type":"node","ref":10288287925,"role":"stop"},{"type":"node","ref":10288287931,"role":"stop"},{"type":"node","ref":10288287933,"role":"stop"},{"type":"node","ref":6898635808,"role":"stop"},{"type":"node","ref":6898636023,"role":"stop"},{"type":"node","ref":8959528157,"role":"stop"}]},{"type":"relation","id":17518144,"tags":{"colour":"#6CACE4","from":"横云山路站","from:en":"Hengyunshan Road","from:zh":"横云山路站","name":"6号线：横云山路 → 灵山湾","name:en":"Line 6: Hengyunshan Road → Lingshan Bay","name:fr":"Ligne 6: Rue Hengyunshan → Lingshan Bay","name:zh":"6号线：横云山路 → 灵山湾","network":"青岛地铁","network:en":"Qingdao Metro","network:wikidata":"Q2620251","network:wikipedia":"zh:青岛地铁","network:zh":"青岛地铁","operator":"青岛地铁运营有限公司","public_transport:version":"2","ref":"6","route":"subway","start_date":"2024-04-26","to":"灵山湾","to:en":"Lingshan Bay","to:zh":"灵山湾","type":"route","wikidata":"Q15951864","wikipedia":"zh:青岛地铁6号线"},"members":[{"type":"node","ref":11909775337,"role":"stop"},{"type":"node","ref":11909775339,"role":"stop"},{"type":"node","ref":11909775341,"role":"stop"},{"type":"node","ref":11849627979,"role":"stop"},{"type":"node","ref":11849627974,"role":"stop"},{"type":"node","ref":11849627970,"role":"stop"},{"type":"node","ref":9177336684,"role":"stop"},{"type":"node","ref":11289499268,"role":"stop"},{"type":"node","ref":11841536314,"role":"stop"},{"type":"node","ref":11841536315,"role":"stop"},{"type":"node","ref":11841536316,"role":"stop"},{"type":"node","ref":11849627998,"role":"stop"},{"type":"node","ref":9417790941,"role":"stop"},{"type":"node","ref":11849627981,"role":"stop"},{"type":"node","ref":11849627984,"role":"stop"},{"type":"node","ref":11849627985,"role":"stop"},{"type":"node","ref":11849627988,"role":"stop"},{"type":"node","ref":11849627995,"role":"stop"},{"type":"node","ref":11849627990,"role":"stop"},{"type":"node","ref":11849627991,"role":"stop"},{"type":"node","ref":11849627994,"role":"stop"}]},{"type":"relation","id":17518159,"tags":{"colour":"#6CACE4","from":"灵山湾","from:en":"Lingshan Bay","from:zh":"灵山湾","name":"6号线：灵山湾 → 横云山路","name:en":"Line 6: Lingshan Bay → Hengyunshan Road","name:fr":"Ligne 6: Lingshan Bay → Rue Hengyunshan","name:zh":"6号线：灵山湾 → 横云山路","network":"青岛地铁","network:en":"Qingdao Metro","network:wikidata":"Q2620251","network:wikipedia":"zh:青岛地铁","network:zh":"青岛地铁","operator":"青岛地铁运营有限公司","public_transport:version":"2","ref":"6","route":"subway","start_date":"2024-04-26","to":"横云山路","to:en":"Hengyunshan Road","to:zh":"横云山路","type":"route","wikidata":"Q15951864","wikipedia":"zh:青岛地铁6号线"},"members":[{"type":"node","ref":11849627993,"role":"stop"},{"type":"node","ref":11849627992,"role":"stop"},{"type":"node","ref":11849627989,"role":"stop"},{"type":"node","ref":11849627996,"role":"stop"},{"type":"node","ref":11849627987,"role":"stop"},{"type":"node","ref":11849627986,"role":"stop"},{"type":"node","ref":11849627983,"role":"stop"},{"type":"node","ref":11849627982,"role":"stop"},{"type":"node","ref":9417790969,"role":"stop"},{"type":"node","ref":11849627997,"role":"stop"},{"type":"node","ref":11841536311,"role":"stop"},{"type":"node","ref":11841536312,"role":"stop"},{"type":"node","ref":11841536313,"role":"stop"},{"type":"node","ref":11289543769,"role":"stop"},{"type":"node","ref":9177336681,"role":"stop"},{"type":"node","ref":11849627969,"role":"stop"},{"type":"node","ref":11849627973,"role":"stop"},{"type":"node","ref":11849627978,"role":"stop"},{"type":"node","ref":11909775340,"role":"stop"},{"type":"node","ref":11909775338,"role":"stop"},{"type":"node","ref":11909775336,"role":"stop"}]},{"type":"node","id":2623155382,"lat":36.060067,"lon":120.3244006},{"type":"node","id":2623155383,"lat":36.1687974,"lon":120.4007284},{"type":"node","id":2623155384,"lat":36.0954767,"lon":120.3802877},{"type":"node","id":2623155386,"lat":36.164093,"lon":120.4098342},{"type":"node","id":2623155388,"lat":36.05959,"lon":120.3386055},{"type":"node","id":2623155389,"lat":36.0644962,"lon":120.3753796},{"type":"node","id":2623155390,"lat":36.1367518,"lon":120.41819},{"type":"node","id":2623155391,"lat":36.0534685,"lon":120.3546252},{"type":"node","id":2623155392,"lat":36.1137935,"lon":120.3918968},{"type":"node","id":2623155393,"lat":36.0605941,"lon":120.3687808},{"type":"node","id":2623155397,"lat":36.1064612,"lon":120.3821604},{"type":"node","id":2623155398,"lat":36.1480321,"lon":120.4226318},{"type":"node","id":2623155401,"lat":36.073536,"lon":120.3831386},{"type":"node","id":2623155402,"lat":36.1717444,"lon":120.3884111},{"type":"node","id":2623155404,"lat":36.0589698,"lon":120.3463303},{"type":"node","id":2623155405,"lat":36.0814003,"lon":120.3805723},{"type":"node","id":4571747267,"lat":36.0636437,"lon":120.3098037},{"type":"node","id":4571750717,"lat":36.0887904,"lon":120.3802795},{"type":"node","id":4571750730,"lat":36.1199628,"lon":120.3973539},{"type":"node","id":4571750732,"lat":36.1306712,"lon":120.4094209},{"type":"node","id":4571750746,"lat":36.1589404,"lon":120.4195046},{"type":"node","id":4571750747,"lat":36.1694228,"lon":120.3715726},{"type":"node","id":5108871666,"lat":36.4208711,"lon":120.6997665},{"type":"node","id":5108871680,"lat":36.4441412,"lon":120.6981364},{"type":"node","id":5280430711,"lat":36.0700945,"lon":120.363015},{"type":"node","id":5280430929,"lat":36.0644243,"lon":120.3754398},{"type":"node","id":5280430936,"lat":36.0654584,"lon":120.3855624},{"type":"node","id":5280430943,"lat":36.0647628,"lon":120.3973573},{"type":"node","id":5280430949,"lat":36.0658332,"lon":120.4062477},{"type":"node","id":5280430957,"lat":36.0660914,"lon":120.4186513},{"type":"node","id":5280430962,"lat":36.0715477,"lon":120.4298248},{"type":"node","id":5280430966,"lat":36.0762383,"lon":120.4385087},{"type":"node","id":5280430973,"lat":36.0854464,"lon":120.4458291},{"type":"node","id":5280430987,"lat":36.093175,"lon":120.4597817},{"type":"node","id":5280431000,"lat":36.1001911,"lon":120.4597736},{"type":"node","id":5280431004,"lat":36.1112547,"lon":120.4500935},{"type":"node","id":5280431005,"lat":36.1171039,"lon":120.4448751},{"type":"node","id":5280431012,"lat":36.1277635,"lon":120.4367962},{"type":"node","id":5280431126,"lat":36.1490781,"lon":120.4343701},{"type":"node","id":5280431135,"lat":36.1536049,"lon":120.4283262},{"type":"node","id":5280431148,"lat":36.1592331,"lon":120.4204236},{"type":"node","id":5280431156,"lat":36.1675073,"lon":120.4209773},{"type":"node","id":5307131565,"lat":36.1003209,"lon":120.4601586},{"type":"node","id":5525041509,"lat":36.2307082,"lon":120.194885},{"type":"node","id":5525041822,"lat":36.200306,"lon":120.2680443},{"type":"node","id":5525182860,"lat":36.2843703,"lon":120.6018051},{"type":"node","id":5525191902,"lat":36.2383861,"lon":120.5541509},{"type":"node","id":5525192343,"lat":36.1409972,"lon":120.4806359},{"type":"node","id":5525227117,"lat":36.124179,"lon":120.4804127},{"type":"node","id":5525227721,"lat":36.1102571,"lon":120.4757783},{"type":"node","id":5573094631,"lat":36.102776,"lon":120.4693273},{"type":"node","id":5579085297,"lat":36.1478806,"lon":120.4823501},{"type":"node","id":5579085298,"lat":36.1649041,"lon":120.4899762},{"type":"node","id":5579085299,"lat":36.1853823,"lon":120.506687},{"type":"node","id":5579085300,"lat":36.2137891,"lon":120.5301689},{"type":"node","id":5579085311,"lat":36.3063181,"lon":120.6235292},{"type":"node","id":5579086021,"lat":36.3488863,"lon":120.6560901},{"type":"node","id":5579086022,"lat":36.3688529,"lon":120.6737987},{"type":"node","id":5579086023,"lat":36.3850231,"lon":120.6745645},{"type":"node","id":5579086024,"lat":36.4051254,"lon":120.6750429},{"type":"node","id":5579086028,"lat":36.4638357,"lon":120.7060373},{"type":"node","id":5579086030,"lat":36.4788325,"lon":120.7556098},{"type":"node","id":5579086033,"lat":36.4676957,"lon":120.7278596},{"type":"node","id":5898642010,"lat":35.8942592,"lon":120.0616384},{"type":"node","id":5898642027,"lat":35.9535637,"lon":120.1823665},{"type":"node","id":5898642138,"lat":35.675653,"lon":119.7105011},{"type":"node","id":5898642142,"lat":35.9535729,"lon":120.1823915},{"type":"node","id":5898642167,"lat":35.894176,"lon":120.0616446},{"type":"node","id":5898642248,"lat":35.6756299,"lon":119.7105352},{"type":"node","id":6092369551,"lat":35.6851553,"lon":119.7921803},{"type":"node","id":6092369555,"lat":35.6872112,"lon":119.7617701},{"type":"node","id":6092369558,"lat":35.6871302,"lon":119.7617781},{"type":"node","id":6129703897,"lat":35.9855658,"lon":120.2823174},{"type":"node","id":6129703903,"lat":35.9990595,"lon":120.2880165},{"type":"node","id":6129703915,"lat":36.0611251,"lon":120.3015362},{"type":"node","id":6129721435,"lat":35.9771073,"lon":120.2586523},{"type":"node","id":6129721458,"lat":35.9648238,"lon":120.2229015},{"type":"node","id":6129721461,"lat":35.9615535,"lon":120.2139252},{"type":"node","id":6129721474,"lat":35.9501075,"lon":120.1746307},{"type":"node","id":6129721478,"lat":35.9454096,"lon":120.1669999},{"type":"node","id":6129721482,"lat":35.9422808,"lon":120.1573134},{"type":"node","id":6129825523,"lat":36.3345479,"lon":120.4067229},{"type":"node","id":6129825532,"lat":36.3057145,"lon":120.3855193},{"type":"node","id":6129825535,"lat":36.2966889,"lon":120.3851326},{"type":"node","id":6129825546,"lat":36.2855587,"lon":120.3810071},{"type":"node","id":6130144276,"lat":35.953952,"lon":120.1821267},{"type":"node","id":6130144277,"lat":35.9582613,"lon":120.1959644},{"type":"node","id":6130144278,"lat":35.9716417,"lon":120.228555},{"type":"node","id":6130144279,"lat":35.9731681,"lon":120.2388612},{"type":"node","id":6130144385,"lat":36.0720937,"lon":120.3164604},{"type":"node","id":6235819124,"lat":36.2588295,"lon":120.1558703},{"type":"node","id":6343069780,"lat":36.0820061,"lon":120.3415028},{"type":"node","id":6343069783,"lat":36.0840955,"lon":120.3282413},{"type":"node","id":6343079344,"lat":36.181984,"lon":120.3907475},{"type":"node","id":6343079372,"lat":36.1162076,"lon":120.3562685},{"type":"node","id":6343079380,"lat":36.0820294,"lon":120.3489643},{"type":"node","id":6898635808,"lat":36.1244173,"lon":120.5519451},{"type":"node","id":6898636023,"lat":36.1331414,"lon":120.5691177},{"type":"node","id":7060206637,"lat":36.0820798,"lon":120.348761},{"type":"node","id":7060206638,"lat":36.0753009,"lon":120.3582125},{"type":"node","id":7678779964,"lat":36.0641012,"lon":120.3093425},{"type":"node","id":8220998455,"lat":36.2011575,"lon":120.3943897},{"type":"node","id":8220998457,"lat":36.1904348,"lon":120.3966023},{"type":"node","id":8221018113,"lat":36.2141547,"lon":120.3919714},{"type":"node","id":8232772971,"lat":36.2396949,"lon":120.3874063},{"type":"node","id":8232772979,"lat":36.267545,"lon":120.3842117},{"type":"node","id":8232789835,"lat":36.3263308,"lon":120.3941772},{"type":"node","id":8853299949,"lat":36.1364082,"lon":120.4970922},{"type":"node","id":8959525644,"lat":36.0729351,"lon":120.3248463},{"type":"node","id":8959525650,"lat":36.094219,"lon":120.356105},{"type":"node","id":8959528157,"lat":36.1311884,"lon":120.5813218},{"type":"node","id":8959591215,"lat":36.1276631,"lon":120.365509},{"type":"node","id":8961094242,"lat":36.1060767,"lon":120.4193005},{"type":"node","id":8962752815,"lat":35.9662238,"lon":120.1811129},{"type":"node","id":8962754794,"lat":35.676856,"lon":119.8322826},{"type":"node","id":8989474425,"lat":36.3344997,"lon":120.4067774},{"type":"node","id":8989474426,"lat":36.3262457,"lon":120.3942377},{"type":"node","id":8989474435,"lat":36.3155461,"lon":120.3858337},{"type":"node","id":8989474436,"lat":36.3155442,"lon":120.3857846},{"type":"node","id":8989474442,"lat":36.3057109,"lon":120.3856344},{"type":"node","id":8989474447,"lat":36.2966752,"lon":120.3852482},{"type":"node","id":8989474462,"lat":36.285554,"lon":120.3811271},{"type":"node","id":8989474474,"lat":36.2675499,"lon":120.3843432},{"type":"node","id":8989474492,"lat":36.2397014,"lon":120.3875797},{"type":"node","id":8989474496,"lat":36.2268591,"lon":120.3897845},{"type":"node","id":8989474497,"lat":36.2268356,"lon":120.3896155},{"type":"node","id":8989474500,"lat":36.2141686,"lon":120.3921458},{"type":"node","id":8989474503,"lat":36.2011589,"lon":120.3945478},{"type":"node","id":8989474506,"lat":36.1904318,"lon":120.3967673},{"type":"node","id":8989474510,"lat":36.181875,"lon":120.3907679},{"type":"node","id":8989474517,"lat":36.1796711,"lon":120.3767669},{"type":"node","id":8989474519,"lat":36.179808,"lon":120.3767324},{"type":"node","id":8989474527,"lat":36.1693607,"lon":120.3722274},{"type":"node","id":8989474528,"lat":36.1693577,"lon":120.3720801},{"type":"node","id":8989665670,"lat":36.3948208,"lon":120.0498646},{"type":"node","id":8989665671,"lat":36.3947447,"lon":120.0498546},{"type":"node","id":8989665687,"lat":36.3587749,"lon":120.0893218},{"type":"node","id":8989665690,"lat":36.3588173,"lon":120.0895172},{"type":"node","id":8989665705,"lat":36.3133424,"lon":120.1120434},{"type":"node","id":8989665706,"lat":36.313353,"lon":120.1121144},{"type":"node","id":8989886029,"lat":36.2587793,"lon":120.1558849},{"type":"node","id":8989886051,"lat":36.2480344,"lon":120.1860982},{"type":"node","id":8989886052,"lat":36.2480386,"lon":120.1862143},{"type":"node","id":8989886056,"lat":36.2305704,"lon":120.1949026},{"type":"node","id":8989886061,"lat":36.2338551,"lon":120.2109557},{"type":"node","id":8989886063,"lat":36.2339525,"lon":120.210903},{"type":"node","id":8989886087,"lat":36.2080413,"lon":120.2385491},{"type":"node","id":8989886088,"lat":36.2081724,"lon":120.238546},{"type":"node","id":8989886099,"lat":36.2002441,"lon":120.2679044},{"type":"node","id":8989886109,"lat":36.1930725,"lon":120.2845656},{"type":"node","id":8989886110,"lat":36.193001,"lon":120.2845667},{"type":"node","id":8989886119,"lat":36.1696254,"lon":120.371553},{"type":"node","id":8989886120,"lat":36.1692694,"lon":120.3715781},{"type":"node","id":9177336681,"lat":36.0213847,"lon":120.1567093},{"type":"node","id":9177336684,"lat":36.0213797,"lon":120.1565846},{"type":"node","id":9381275896,"lat":36.1589277,"lon":120.3710003},{"type":"node","id":9381275897,"lat":36.1589271,"lon":120.3708225},{"type":"node","id":9381275910,"lat":36.1480722,"lon":120.3770565},{"type":"node","id":9381275911,"lat":36.1481058,"lon":120.3769506},{"type":"node","id":9381275916,"lat":36.1410711,"lon":120.3695858},{"type":"node","id":9381333218,"lat":36.1411385,"lon":120.3694628},{"type":"node","id":9381333223,"lat":36.1275902,"lon":120.3656445},{"type":"node","id":9381333232,"lat":36.1161456,"lon":120.3563946},{"type":"node","id":9381333238,"lat":36.1052824,"lon":120.355977},{"type":"node","id":9381333239,"lat":36.1052799,"lon":120.3558349},{"type":"node","id":9381333243,"lat":36.0941975,"lon":120.3562748},{"type":"node","id":9381333248,"lat":36.0819563,"lon":120.3490822},{"type":"node","id":9381333261,"lat":36.0750755,"lon":120.3369676},{"type":"node","id":9381333262,"lat":36.0751911,"lon":120.3369412},{"type":"node","id":9381333267,"lat":36.0728204,"lon":120.3248627},{"type":"node","id":9381333275,"lat":36.0719842,"lon":120.3164901},{"type":"node","id":9381333283,"lat":36.0640777,"lon":120.3094747},{"type":"node","id":9381333290,"lat":36.0610158,"lon":120.3015927},{"type":"node","id":9381333300,"lat":36.0571162,"lon":120.2945731},{"type":"node","id":9381412719,"lat":35.9422457,"lon":120.1573223},{"type":"node","id":9381412721,"lat":35.9453325,"lon":120.1670428},{"type":"node","id":9381412728,"lat":35.9500503,"lon":120.1747208},{"type":"node","id":9381412731,"lat":35.9538508,"lon":120.1821849},{"type":"node","id":9381412736,"lat":35.958176,"lon":120.1959863},{"type":"node","id":9381412740,"lat":35.9614576,"lon":120.213938},{"type":"node","id":9381412743,"lat":35.9647332,"lon":120.2229302},{"type":"node","id":9381412747,"lat":35.9715754,"lon":120.2286536},{"type":"node","id":9381412753,"lat":35.9730514,"lon":120.2388172},{"type":"node","id":9381412765,"lat":35.9770284,"lon":120.2587041},{"type":"node","id":9381412784,"lat":35.9854927,"lon":120.2824324},{"type":"node","id":9381412790,"lat":35.9990598,"lon":120.2880663},{"type":"node","id":9404015648,"lat":35.6852792,"lon":119.7922256},{"type":"node","id":9404015649,"lat":35.6767477,"lon":119.8323074},{"type":"node","id":9404015650,"lat":35.7509488,"lon":119.8885548},{"type":"node","id":9404015651,"lat":35.7509247,"lon":119.8887975},{"type":"node","id":9404015652,"lat":35.8275009,"lon":119.9976943},{"type":"node","id":9404015653,"lat":35.8275106,"lon":119.9978296},{"type":"node","id":9404015654,"lat":35.8712681,"lon":120.0112627},{"type":"node","id":9404015655,"lat":35.8712744,"lon":120.0112014},{"type":"node","id":9404015656,"lat":35.8899562,"lon":120.0174954},{"type":"node","id":9404015657,"lat":35.8900008,"lon":120.0174866},{"type":"node","id":9404015658,"lat":35.8920004,"lon":120.0296287},{"type":"node","id":9404015659,"lat":35.8921174,"lon":120.0296019},{"type":"node","id":9404015660,"lat":35.9084741,"lon":120.0968803},{"type":"node","id":9404015661,"lat":35.9085308,"lon":120.0968013},{"type":"node","id":9404015662,"lat":35.919044,"lon":120.1125547},{"type":"node","id":9404015663,"lat":35.9191136,"lon":120.1124939},{"type":"node","id":9404015664,"lat":35.9259212,"lon":120.1346166},{"type":"node","id":9404015665,"lat":35.926002,"lon":120.1345847},{"type":"node","id":9404015666,"lat":35.9305872,"lon":120.1599711},{"type":"node","id":9404015667,"lat":35.9306689,"lon":120.1599428},{"type":"node","id":9404015668,"lat":35.6708691,"lon":119.8699991},{"type":"node","id":9404015669,"lat":35.6709511,"lon":119.8700275},{"type":"node","id":9404015670,"lat":35.8999289,"lon":120.0822184},{"type":"node","id":9404015671,"lat":35.899853,"lon":120.0822652},{"type":"node","id":9404015672,"lat":35.6901943,"lon":119.8971205},{"type":"node","id":9404015673,"lat":35.6902349,"lon":119.8970425},{"type":"node","id":9404015674,"lat":35.7941677,"lon":119.9212339},{"type":"node","id":9404015675,"lat":35.7940591,"lon":119.921242},{"type":"node","id":9404015676,"lat":35.8495525,"lon":119.9971365},{"type":"node","id":9404015677,"lat":35.8495299,"lon":119.9971725},{"type":"node","id":9404015678,"lat":35.8157128,"lon":119.9839915},{"type":"node","id":9404015679,"lat":35.8158469,"lon":119.9839628},{"type":"node","id":9404255209,"lat":36.0572068,"lon":120.29456},{"type":"node","id":9417790941,"lat":35.9423688,"lon":120.1572927},{"type":"node","id":9417790969,"lat":35.9421591,"lon":120.1573447},{"type":"node","id":9419914155,"lat":36.1694808,"lon":120.3715686},{"type":"node","id":9450007159,"lat":36.4677476,"lon":120.727829},{"type":"node","id":9450007164,"lat":36.4788813,"lon":120.7555604},{"type":"node","id":10287159310,"lat":36.0829097,"lon":120.3287363},{"type":"node","id":10288256401,"lat":36.1350709,"lon":120.4618701},{"type":"node","id":10288256403,"lat":36.1255589,"lon":120.4566881},{"type":"node","id":10288256404,"lat":36.1172181,"lon":120.4452018},{"type":"node","id":10288256406,"lat":36.1116879,"lon":120.4320006},{"type":"node","id":10288287909,"lat":36.1047787,"lon":120.4103569},{"type":"node","id":10288287911,"lat":36.0988233,"lon":120.398102},{"type":"node","id":10288287913,"lat":36.0960571,"lon":120.3906457},{"type":"node","id":10288287915,"lat":36.0652107,"lon":120.3225829},{"type":"node","id":10288287917,"lat":36.0962997,"lon":120.3463335},{"type":"node","id":10288287919,"lat":36.0863854,"lon":120.3385667},{"type":"node","id":10288287921,"lat":36.0949582,"lon":120.366975},{"type":"node","id":10288287922,"lat":36.094574,"lon":120.3580323},{"type":"node","id":10288287923,"lat":36.0956001,"lon":120.3812246},{"type":"node","id":10288287924,"lat":36.0599129,"lon":120.3239631},{"type":"node","id":10288287925,"lat":36.1307415,"lon":120.5170486},{"type":"node","id":10288287929,"lat":36.1399435,"lon":120.4811402},{"type":"node","id":10288287931,"lat":36.1228009,"lon":120.5276895},{"type":"node","id":10288287933,"lat":36.1185075,"lon":120.5397304},{"type":"node","id":11289499266,"lat":35.9751164,"lon":120.1736415},{"type":"node","id":11289499267,"lat":35.9750266,"lon":120.1735972},{"type":"node","id":11289499268,"lat":36.005656,"lon":120.1598743},{"type":"node","id":11289543769,"lat":36.0056853,"lon":120.1600472},{"type":"node","id":11841536311,"lat":35.9680356,"lon":120.1582341},{"type":"node","id":11841536312,"lat":35.9803294,"lon":120.1547717},{"type":"node","id":11841536313,"lat":35.9881438,"lon":120.1529146},{"type":"node","id":11841536314,"lat":35.9881187,"lon":120.152749},{"type":"node","id":11841536315,"lat":35.9803014,"lon":120.1546362},{"type":"node","id":11841536316,"lat":35.9680061,"lon":120.1580355},{"type":"node","id":11841581896,"lat":35.9662295,"lon":120.1813493},{"type":"node","id":11849627969,"lat":36.0361215,"lon":120.1573347},{"type":"node","id":11849627970,"lat":36.0361157,"lon":120.1571641},{"type":"node","id":11849627973,"lat":36.0476405,"lon":120.1476029},{"type":"node","id":11849627974,"lat":36.0475625,"lon":120.1475006},{"type":"node","id":11849627978,"lat":36.0574326,"lon":120.1392096},{"type":"node","id":11849627979,"lat":36.0573703,"lon":120.1391205},{"type":"node","id":11849627981,"lat":35.9373087,"lon":120.1311364},{"type":"node","id":11849627982,"lat":35.9372085,"lon":120.1311703},{"type":"node","id":11849627983,"lat":35.934255,"lon":120.1194672},{"type":"node","id":11849627984,"lat":35.9343329,"lon":120.1194199},{"type":"node","id":11849627985,"lat":35.9280461,"lon":120.1087962},{"type":"node","id":11849627986,"lat":35.9279549,"lon":120.1088596},{"type":"node","id":11849627987,"lat":35.9246278,"lon":120.0970301},{"type":"node","id":11849627988,"lat":35.9247073,"lon":120.0970061},{"type":"node","id":11849627989,"lat":35.908395,"lon":120.0755482},{"type":"node","id":11849627990,"lat":35.9082816,"lon":120.0753547},{"type":"node","id":11849627991,"lat":35.8995029,"lon":120.0815602},{"type":"node","id":11849627992,"lat":35.8995638,"lon":120.0817145},{"type":"node","id":11849627993,"lat":35.8914945,"lon":120.0769784},{"type":"node","id":11849627994,"lat":35.8916466,"lon":120.0768931},{"type":"node","id":11849627995,"lat":35.9166209,"lon":120.0780806},{"type":"node","id":11849627996,"lat":35.9165476,"lon":120.0782569},{"type":"node","id":11849627997,"lat":35.9542677,"lon":120.1608156},{"type":"node","id":11849627998,"lat":35.9542502,"lon":120.1606632},{"type":"node","id":11909775336,"lat":36.0660265,"lon":120.0925592},{"type":"node","id":11909775337,"lat":36.0659296,"lon":120.0924936},{"type":"node","id":11909775338,"lat":36.062947,"lon":120.1077683},{"type":"node","id":11909775339,"lat":36.0627936,"lon":120.1077972},{"type":"node","id":11909775340,"lat":36.0614594,"lon":120.1194598},{"type":"node","id":11909775341,"lat":36.0613558,"lon":120.1194369},{"type":"node","id":12437979425,"lat":36.073517,"lon":120.3830155},{"type":"node","id":12437979434,"lat":36.0606773,"lon":120.3686816},{"type":"node","id":12437979443,"lat":36.0701108,"lon":120.3631015},{"type":"node","id":12437979446,"lat":36.0753567,"lon":120.3582895},{"type":"node","id":12437979456,"lat":36.082095,"lon":120.3414844},{"type":"node","id":12437979461,"lat":36.0841613,"lon":120.3282794},{"type":"node","id":12437979469,"lat":36.0658995,"lon":120.4062578},{"type":"node","id":12437979476,"lat":36.0661255,"lon":120.41861},{"type":"node","id":12437979481,"lat":36.0715957,"lon":120.4297864},{"type":"node","id":12437979484,"lat":36.0762809,"lon":120.4384647},{"type":"node","id":12437979492,"lat":36.0854734,"lon":120.4457687},{"type":"node","id":12437997907,"lat":36.0932216,"lon":120.4597381},{"type":"node","id":12437997919,"lat":36.1001621,"lon":120.4597295},{"type":"node","id":12437997924,"lat":36.1112357,"lon":120.4500346},{"type":"node","id":12437997925,"lat":36.1170874,"lon":120.4448046},{"type":"node","id":12437997932,"lat":36.1277616,"lon":120.4367433},{"type":"node","id":12437997942,"lat":36.1490545,"lon":120.4342011},{"type":"node","id":12437997951,"lat":36.1534668,"lon":120.4283312},{"type":"node","id":12437997964,"lat":36.1592293,"lon":120.4202469},{"type":"node","id":12437997973,"lat":36.1674839,"lon":120.4208109},{"type":"node","id":12438001735,"lat":36.0775731,"lon":120.3140074},{"type":"node","id":12438001739,"lat":36.0847536,"lon":120.317694},{"type":"node","id":12438001758,"lat":36.07761,"lon":120.3138198},{"type":"node","id":12438289316,"lat":36.0637561,"lon":120.3097916},{"type":"node","id":12438289325,"lat":36.060105,"lon":120.3244371},{"type":"node","id":12438289335,"lat":36.059634,"lon":120.3385853},{"type":"node","id":12438289343,"lat":36.0589978,"lon":120.3463848},{"type":"node","id":12438289353,"lat":36.0535698,"lon":120.3545957},{"type":"node","id":12438289361,"lat":36.0813773,"lon":120.3804603},{"type":"node","id":12438289364,"lat":36.0887923,"lon":120.3801363},{"type":"node","id":12438289365,"lat":36.0954769,"lon":120.3801624},{"type":"node","id":12438289374,"lat":36.1065653,"lon":120.3821014},{"type":"node","id":12438289380,"lat":36.1138529,"lon":120.3917873},{"type":"node","id":12438289382,"lat":36.1200292,"lon":120.3972411},{"type":"node","id":12438289387,"lat":36.1307577,"lon":120.4093308},{"type":"node","id":12438289391,"lat":36.1368466,"lon":120.4180851},{"type":"node","id":12438289398,"lat":36.1480369,"lon":120.4224699},{"type":"node","id":12438317709,"lat":36.1588184,"lon":120.4194035},{"type":"node","id":12438317712,"lat":36.1640196,"lon":120.4098093},{"type":"node","id":12438317715,"lat":36.1687373,"lon":120.4006856},{"type":"node","id":12438317720,"lat":36.1716644,"lon":120.3884036},{"type":"node","id":12438377689,"lat":36.0648096,"lon":120.3973512},{"type":"node","id":12438377690,"lat":36.0655418,"lon":120.3855695},{"type":"node","id":12438377691,"lat":36.0645433,"lon":120.3753577},{"type":"node","id":12438377692,"lat":36.0646098,"lon":120.3753084},{"type":"node","id":12438377693,"lat":36.0821716,"lon":120.3488228},{"type":"node","id":12438429906,"lat":36.084849,"lon":120.3176408},{"type":"node","id":12438429907,"lat":36.0672193,"lon":120.2987113},{"type":"node","id":12438429908,"lat":36.0673058,"lon":120.2985846},{"type":"node","id":13022483737,"lat":36.0718769,"lon":120.3238483},{"type":"node","id":13026234174,"lat":36.1649394,"lon":120.4899386},{"type":"node","id":13026234197,"lat":36.1478893,"lon":120.4822808},{"type":"node","id":13026237612,"lat":36.1409987,"lon":120.4805455},{"type":"node","id":13481472679,"lat":36.1102891,"lon":120.4756854},{"type":"node","id":13481472685,"lat":36.1003897,"lon":120.4601252},{"type":"node","id":13481472686,"lat":36.1028569,"lon":120.4693138},{"type":"node","id":13481472695,"lat":36.1241811,"lon":120.4803015},{"type":"node","id":13627017786,"lat":36.1854214,"lon":120.5066204},{"type":"node","id":13627019811,"lat":36.2138291,"lon":120.5301198},{"type":"node","id":13627019828,"lat":36.2384356,"lon":120.5541052},{"type":"node","id":13627019855,"lat":36.284415,"lon":120.6017651},{"type":"node","id":13627019882,"lat":36.3489417,"lon":120.6560403},{"type":"node","id":13627019893,"lat":36.3688587,"lon":120.6737153},{"type":"node","id":13627019899,"lat":36.3850261,"lon":120.6744938},{"type":"node","id":13627019908,"lat":36.4051305,"lon":120.6749814},{"type":"node","id":13627019966,"lat":36.4209432,"lon":120.6996262},{"type":"node","id":13627019975,"lat":36.3063365,"lon":120.6234729},{"type":"node","id":13628962589,"lat":36.4441319,"lon":120.6980852},{"type":"node","id":13628994906,"lat":36.4638867,"lon":120.7060331}]}