{"elements":[{"type":"node","id":1046132301,"lat":47.4668377,"lon":-0.5525812,"tags":{"gtfs:stop_id:FR-PDL-Irigo":"1HARA","gtfs:stop_name:FR-PDL-Irigo":"Foch-Haras","name":"Foch-Haras","public_transport":"stop_position","public_transport:version":"2","railway":"tram_stop","ref:Irigo":"1HARA","route_ref":"A → ANGERS ROSERAIE;C → ROSERAIE","tram":"yes"}},{"type":"node","id":1338591032,"lat":47.4449674,"lon":-0.5623376,"tags":{"gtfs:stop_id:FR-PDL-Irigo":"1JVIL","gtfs:stop_name:FR-PDL-Irigo":"Jean Vilar","name":"Jean Vilar","public_transport":"stop_position","public_transport:version":"2","railway":"tram_stop","ref:Irigo":"1JVIL","route_ref":"A → ANGERS ROSERAIE;C → ROSERAIE","tram":"yes"}},{"type":"node","id":1338604104,"lat":47.4486532,"lon":-0.5628461,"tags":{"gtfs:stop_id:FR-PDL-Irigo":"1JE23","gtfs:stop_name:FR-PDL-Irigo":"Jean XXIII","name":"Jean XXIII","public_transport":"stop_position","public_transport:version":"2","railway":"tram_stop","ref:Irigo":"1JE23","route_ref":"A → ANGERS ROSERAIE;C → ROSERAIE","tram":"yes"}},{"type":"node","id":1338641237,"lat":47.4522149,"lon":-0.5563736,"tags":{"gtfs:stop_id:FR-PDL-Irigo":"1BAMA","gtfs:stop_name:FR-PDL-Irigo":"Bamako","name":"Bamako","public_transport":"stop_position","railway":"tram_stop","ref:Irigo":"1BAMA","route_ref":"A → ANGERS ROSERAIE;C → ROSERAIE","tram":"yes"}},{"type":"node","id":1338772005,"lat":47.4645269,"lon":-0.5554334,"tags":{"gtfs:stop_id:FR-PDL-Irigo":"1LGAR","gtfs:stop_name:FR-PDL-Irigo":"Les Gares","name":"Les Gares","public_transport":"stop_position","public_transport:version":"2","railway":"tram_stop","ref:Irigo":"1LGAR","route_ref":"A → ANGERS ROSERAIE;C → ROSERAIE","tram":"yes"}},{"type":"node","id":1339093701,"lat":47.471154,"lon":-0.5516232,"tags":{"gtfs:stop_id:FR-PDL-Irigo":"1RALL","gtfs:stop_name:FR-PDL-Irigo":"Ralliement","name":"Ralliement","public_transport":"stop_position","railway":"tram_stop","ref:Irigo":"1RALL","route_ref":"C → ROSERAIE","tram":"yes"}},{"type":"node","id":1339093709,"lat":47.4690032,"lon":-0.5496713,"tags":{"gtfs:stop_id:FR-PDL-Irigo":"1FMBL","gtfs:stop_name:FR-PDL-Irigo":"Foch-Maison Bleue","name":"Foch-Maison Bleue","public_transport":"stop_position","public_transport:version":"2","railway":"tram_stop","ref:Irigo":"1FMBL","route_ref":"A → ANGERS ROSERAIE;C → ROSERAIE","tram":"yes"}},{"type":"node","id":1339106918,"lat":47.4794654,"lon":-0.5495913,"tags":{"gtfs:stop_id:FR-PDL-Irigo":"1BMAI","gtfs:stop_name:FR-PDL-Irigo":"Berges de Maine","name":"Berges de Maine","public_transport":"stop_position","railway":"tram_stop","ref:Irigo":"1BMAI","route_ref":"A → ANGERS ROSERAIE","tram":"yes"}},{"type":"node","id":1339501613,"lat":47.4814902,"lon":-0.5540275,"tags":{"gtfs:stop_id:FR-PDL-Irigo":"1HOPA","gtfs:stop_name:FR-PDL-Irigo":"CHU-Hôpital","name":"CHU-Hôpital","public_transport":"stop_position","railway":"tram_stop","ref:Irigo":"1HOPA","route_ref":"A → ANGERS ROSERAIE","tram":"yes"}},{"type":"node","id":1340320007,"lat":47.4869647,"lon":-0.5551133,"tags":{"gtfs:stop_id:FR-PDL-Irigo":"1CAPU","gtfs:stop_name:FR-PDL-Irigo":"Capucins","name":"Capucins","public_transport":"stop_position","railway":"tram_stop","ref:Irigo":"1CAPU","route_ref":"A → ANGERS ROSERAIE","tram":"yes"}},{"type":"node","id":1562198796,"lat":47.4921939,"lon":-0.5605904,"tags":{"gtfs:stop_id:FR-PDL-Irigo":"1HSAU","gtfs:stop_name:FR-PDL-Irigo":"Hauts de St-Aubin","name":"Hauts de Saint-Aubin","public_transport":"stop_position","railway":"tram_stop","ref:Irigo":"1HSAU","route_ref":"A → ANGERS ROSERAIE","tram":"yes"}},{"type":"node","id":1562198946,"lat":47.4905569,"lon":-0.5521082,"tags":{"gtfs:stop_id:FR-PDL-Irigo":"1JMOU","gtfs:stop_name:FR-PDL-Irigo":"Jean Moulin","name":"Jean Moulin","public_transport":"stop_position","railway":"tram_stop","ref:Irigo":"1JMOU","route_ref":"A → ANGERS ROSERAIE","tram":"yes","wheelchair":"yes"}},{"type":"node","id":1562199229,"lat":47.4924718,"lon":-0.5672678,"tags":{"gtfs:stop_id:FR-PDL-Irigo":"1VERN","gtfs:stop_name:FR-PDL-Irigo":"Verneau","name":"Verneau","public_transport":"stop_position","railway":"tram_stop","ref:Irigo":"1VERN","route_ref":"A → ANGERS ROSERAIE","tram":"yes"}},{"type":"node","id":1562208729,"lat":47.4438723,"lon":-0.5539646,"tags":{"gtfs:stop_id:FR-PDL-Irigo":"1ANRO","gtfs:stop_name:FR-PDL-Irigo":"Roseraie","name":"Roseraie","public_transport":"stop_position","public_transport:version":"2","railway":"tram_stop","ref:Irigo":"1ANRO","route_ref":"A → ANGERS ROSERAIE;C → BELLE BEILLE CAMPUS;C → ROSERAIE","tram":"yes"}},{"type":"node","id":1562228402,"lat":47.5115686,"lon":-0.5960638,"tags":{"gtfs:stop_id:FR-PDL-Irigo":"1AARD","gtfs:stop_name:FR-PDL-Irigo":"Avrillé - Ardenne","name":"Avrillé - Ardenne","public_transport":"stop_position","railway":"tram_stop","ref:Irigo":"1AARD","route_ref":"A → ANGERS ROSERAIE;A → AVRILLE ARDENNE","tram":"yes"}},{"type":"node","id":2506514306,"lat":47.4814782,"lon":-0.5539886,"tags":{"gtfs:stop_id:FR-PDL-Irigo":"2HOPA","gtfs:stop_name:FR-PDL-Irigo":"CHU-Hôpital","name":"CHU-Hôpital","public_transport":"stop_position","railway":"tram_stop","ref:Irigo":"2HOPA","route_ref":"A → AVRILLE ARDENNE;A → VERNEAU","tram":"yes"}},{"type":"node","id":2508482758,"lat":47.4794821,"lon":-0.5494929,"tags":{"gtfs:stop_id:FR-PDL-Irigo":"2BMAI","gtfs:stop_name:FR-PDL-Irigo":"Berges de Maine","name":"Berges de Maine","public_transport":"stop_position","railway":"tram_stop","ref:Irigo":"2BMAI","route_ref":"A → AVRILLE ARDENNE;A → VERNEAU","tram":"yes"}},{"type":"node","id":2512598657,"lat":47.4711688,"lon":-0.5515883,"tags":{"gtfs:stop_id:FR-PDL-Irigo":"2RALL","gtfs:stop_name:FR-PDL-Irigo":"Ralliement","name":"Ralliement","public_transport":"stop_position","railway":"tram_stop","ref:Irigo":"2RALL","route_ref":"C → BELLE BEILLE CAMPUS","tram":"yes"}},{"type":"node","id":2512598673,"lat":47.4668159,"lon":-0.5525478,"tags":{"gtfs:stop_id:FR-PDL-Irigo":"2HARA","gtfs:stop_name:FR-PDL-Irigo":"Foch-Haras","name":"Foch-Haras","public_transport":"stop_position","public_transport:version":"2","railway":"tram_stop","ref:Irigo":"2HARA","route_ref":"A → AVRILLE ARDENNE;A → VERNEAU;C → BELLE BEILLE CAMPUS","tram":"yes"}},{"type":"node","id":2512598676,"lat":47.4689822,"lon":-0.5496364,"tags":{"gtfs:stop_id:FR-PDL-Irigo":"2FMBL","gtfs:stop_name:FR-PDL-Irigo":"Foch-Maison Bleue","name":"Foch-Maison Bleue","public_transport":"stop_position","public_transport:version":"2","railway":"tram_stop","ref:Irigo":"2FMBL","route_ref":"A → AVRILLE ARDENNE;A → VERNEAU;C → BELLE BEILLE CAMPUS","tram":"yes"}},{"type":"node","id":2512664010,"lat":47.4645301,"lon":-0.555394,"tags":{"gtfs:stop_id:FR-PDL-Irigo":"2LGAR","gtfs:stop_name:FR-PDL-Irigo":"Les Gares","name":"Les Gares","public_transport":"stop_position","public_transport:version":"2","railway":"tram_stop","ref:Irigo":"2LGAR","route_ref":"A → AVRILLE ARDENNE;A → VERNEAU;C → BELLE BEILLE CAMPUS","tram":"yes"}},{"type":"node","id":2520775290,"lat":47.5115922,"lon":-0.5960321,"tags":{"gtfs:stop_id:FR-PDL-Irigo":"2AARD","gtfs:stop_name:FR-PDL-Irigo":"Avrillé - Ardenne","name":"Avrillé - Ardenne","public_transport":"stop_position","railway":"tram_stop","ref:Irigo":"2AARD","route_ref":"A → ANGERS ROSERAIE","tram":"yes"}},{"type":"node","id":2521101826,"lat":47.5037248,"lon":-0.5863729,"tags":{"gtfs:stop_id:FR-PDL-Irigo":"1ACAS","gtfs:stop_name:FR-PDL-Irigo":"Acacias","name":"Acacias","public_transport":"stop_position","railway":"tram_stop","ref:Irigo":"1ACAS","route_ref":"A → ANGERS ROSERAIE","tram":"yes"}},{"type":"node","id":2521101839,"lat":47.5037394,"lon":-0.5863326,"tags":{"gtfs:stop_id:FR-PDL-Irigo":"2ACAS","gtfs:stop_name:FR-PDL-Irigo":"Acacias","name":"Acacias","public_transport":"stop_position","railway":"tram_stop","ref:Irigo":"2ACAS","route_ref":"A → AVRILLE ARDENNE","tram":"yes"}},{"type":"node","id":2522255060,"lat":47.4996976,"lon":-0.5831662,"tags":{"gtfs:stop_id:FR-PDL-Irigo":"1BROY","gtfs:stop_name:FR-PDL-Irigo":"Bois du Roy","name":"Bois du Roy","public_transport":"stop_position","railway":"tram_stop","ref:Irigo":"1BROY","route_ref":"A → ANGERS ROSERAIE","tram":"yes"}},{"type":"node","id":2522255065,"lat":47.4997121,"lon":-0.5831253,"tags":{"gtfs:stop_id:FR-PDL-Irigo":"2BROY","gtfs:stop_name:FR-PDL-Irigo":"Bois du Roy","name":"Bois du Roy","public_transport":"stop_position","railway":"tram_stop","ref:Irigo":"2BROY","route_ref":"A → AVRILLE ARDENNE","tram":"yes"}},{"type":"node","id":2522270129,"lat":47.4958167,"lon":-0.5800233,"tags":{"gtfs:stop_id:FR-PDL-Irigo":"2PMAY","gtfs:stop_name:FR-PDL-Irigo":"Plateau Mayenne","name":"Plateau Mayenne","public_transport":"stop_position","railway":"tram_stop","ref:Irigo":"2PMAY","route_ref":"A → AVRILLE ARDENNE","tram":"yes"}},{"type":"node","id":2522270130,"lat":47.4958025,"lon":-0.5800631,"tags":{"gtfs:stop_id:FR-PDL-Irigo":"1PMAY","gtfs:stop_name:FR-PDL-Irigo":"Plateau Mayenne","name":"Plateau Mayenne","public_transport":"stop_position","railway":"tram_stop","ref:Irigo":"1PMAY","route_ref":"A → ANGERS ROSERAIE","tram":"yes"}},{"type":"node","id":2524277659,"lat":47.4941878,"lon":-0.5747703,"tags":{"gtfs:stop_id:FR-PDL-Irigo":"1BOTA","gtfs:stop_name:FR-PDL-Irigo":"Terra Botanica","name":"Terra Botanica","public_transport":"stop_position","railway":"tram_stop","ref:Irigo":"1BOTA","route_ref":"A → ANGERS ROSERAIE","tram":"yes"}},{"type":"node","id":2524277675,"lat":47.4942127,"lon":-0.5747952,"tags":{"gtfs:stop_id:FR-PDL-Irigo":"2BOTA","gtfs:stop_name:FR-PDL-Irigo":"Terra Botanica","name":"Terra Botanica","public_transport":"stop_position","railway":"tram_stop","ref:Irigo":"2BOTA","route_ref":"A → AVRILLE ARDENNE","tram":"yes"}},{"type":"node","id":2525417584,"lat":47.4925026,"lon":-0.5672636,"tags":{"gtfs:stop_id:FR-PDL-Irigo":"2VERN","gtfs:stop_name:FR-PDL-Irigo":"Verneau","name":"Verneau","public_transport":"stop_position","railway":"tram_stop","ref:Irigo":"2VERN","route_ref":"A → AVRILLE ARDENNE;A → VERNEAU","tram":"yes"}},{"type":"node","id":2525417602,"lat":47.4922247,"lon":-0.5605882,"tags":{"gtfs:stop_id:FR-PDL-Irigo":"2HSAU","gtfs:stop_name:FR-PDL-Irigo":"Hauts de St-Aubin","name":"Hauts de Saint-Aubin","public_transport":"stop_position","railway":"tram_stop","ref:Irigo":"2HSAU","route_ref":"A → AVRILLE ARDENNE;A → VERNEAU","tram":"yes"}},{"type":"node","id":2526247127,"lat":47.4905487,"lon":-0.5520649,"tags":{"gtfs:stop_id:FR-PDL-Irigo":"2JMOU","gtfs:stop_name:FR-PDL-Irigo":"Jean Moulin","name":"Jean Moulin","public_transport":"stop_position","railway":"tram_stop","ref:Irigo":"2JMOU","route_ref":"A → AVRILLE ARDENNE;A → VERNEAU","tram":"yes","wheelchair":"yes"}},{"type":"node","id":2526247182,"lat":47.4869489,"lon":-0.5550746,"tags":{"gtfs:stop_id:FR-PDL-Irigo":"2CAPU","gtfs:stop_name:FR-PDL-Irigo":"Capucins","name":"Capucins","public_transport":"stop_position","railway":"tram_stop","ref:Irigo":"2CAPU","route_ref":"A → AVRILLE ARDENNE;A → VERNEAU","tram":"yes"}},{"type":"node","id":2526415860,"lat":47.4608809,"lon":-0.5546465,"tags":{"gtfs:stop_id:FR-PDL-Irigo":"2LAFA","gtfs:stop_name:FR-PDL-Irigo":"La Fayette","name":"La Fayette","public_transport":"stop_position","railway":"tram_stop","ref:Irigo":"2LAFA","route_ref":"A → AVRILLE ARDENNE;A → VERNEAU;C → BELLE BEILLE CAMPUS","tram":"yes"}},{"type":"node","id":2526425876,"lat":47.4608733,"lon":-0.554731,"tags":{"gtfs:stop_id:FR-PDL-Irigo":"1LAFA","gtfs:stop_name:FR-PDL-Irigo":"La Fayette","name":"La Fayette","public_transport":"stop_position","railway":"tram_stop","ref:Irigo":"1LAFA","route_ref":"A → ANGERS ROSERAIE;C → ROSERAIE","tram":"yes"}},{"type":"node","id":2526425895,"lat":47.4575997,"lon":-0.5540954,"tags":{"gtfs:stop_id:FR-PDL-Irigo":"2STRA","gtfs:stop_name:FR-PDL-Irigo":"Strasbourg","name":"Strasbourg","public_transport":"stop_position","railway":"tram_stop","ref:Irigo":"2STRA","route_ref":"A → AVRILLE ARDENNE;A → VERNEAU;C → BELLE BEILLE CAMPUS","tram":"yes"}},{"type":"node","id":2526443121,"lat":47.4521974,"lon":-0.5563368,"tags":{"gtfs:stop_id:FR-PDL-Irigo":"2BAMA","gtfs:stop_name:FR-PDL-Irigo":"Bamako","name":"Bamako","public_transport":"stop_position","railway":"tram_stop","ref:Irigo":"2BAMA","route_ref":"A → AVRILLE ARDENNE;A → VERNEAU;C → BELLE BEILLE CAMPUS","tram":"yes"}},{"type":"node","id":2533764060,"lat":47.4486369,"lon":-0.562811,"tags":{"gtfs:stop_id:FR-PDL-Irigo":"2JE23","gtfs:stop_name:FR-PDL-Irigo":"Jean XXIII","name":"Jean XXIII","public_transport":"stop_position","public_transport:version":"2","railway":"tram_stop","ref:Irigo":"2JE23","route_ref":"A → AVRILLE ARDENNE;A → VERNEAU;C → BELLE BEILLE CAMPUS","tram":"yes"}},{"type":"node","id":2533765241,"lat":47.4449563,"lon":-0.5622525,"tags":{"gtfs:stop_id:FR-PDL-Irigo":"2JVIL","gtfs:stop_name:FR-PDL-Irigo":"Jean Vilar","name":"Jean Vilar","public_transport":"stop_position","public_transport:version":"2","railway":"tram_stop","ref:Irigo":"2JVIL","route_ref":"A → AVRILLE ARDENNE;A → VERNEAU;C → BELLE BEILLE CAMPUS","tram":"yes"}},{"type":"node","id":2533776424,"lat":47.4439031,"lon":-0.5539681,"tags":{"gtfs:stop_id:FR-PDL-Irigo":"2ANRO","gtfs:stop_name:FR-PDL-Irigo":"Roseraie","name":"Roseraie","public_transport":"stop_position","public_transport:version":"2","railway":"tram_stop","ref:Irigo":"2ANRO","route_ref":"A → ANGERS ROSERAIE;A → AVRILLE ARDENNE;A → VERNEAU;C → BELLE BEILLE CAMPUS;C → ROSERAIE","tram":"yes"}},{"type":"node","id":5341502743,"lat":47.4566489,"lon":-0.5539699,"tags":{"gtfs:stop_id:FR-PDL-Irigo":"1STRA","gtfs:stop_name:FR-PDL-Irigo":"Strasbourg","name":"Strasbourg","public_transport":"stop_position","railway":"tram_stop","ref:Irigo":"1STRA","route_ref":"A → ANGERS ROSERAIE;C → ROSERAIE","tram":"yes"}},{"type":"node","id":6730320186,"lat":47.4761807,"lon":-0.5507271,"tags":{"gtfs:stop_id:FR-PDL-Irigo":"1STSE","gtfs:stop_name:FR-PDL-Irigo":"St-Serge Université","name":"Saint-Serge - Université","public_transport":"stop_position","railway":"tram_stop","ref:Irigo":"1STSE","route_ref":"A → ANGERS ROSERAIE;B → MONPLAISIR","tram":"yes"}},{"type":"node","id":6730320187,"lat":47.4762063,"lon":-0.5507029,"tags":{"gtfs:stop_id:FR-PDL-Irigo":"2STSE","gtfs:stop_name:FR-PDL-Irigo":"St-Serge Université","name":"Saint-Serge - Université","public_transport":"stop_position","railway":"tram_stop","ref:Irigo":"2STSE","route_ref":"A → AVRILLE ARDENNE;A → VERNEAU;B → BELLE BEILLE CAMPUS;B → SAINT SERGE","tram":"yes"}},{"type":"node","id":6979400961,"lat":47.4717254,"lon":-0.5467215,"tags":{"gtfs:stop_id:FR-PDL-Irigo":"1HDVA","gtfs:stop_name:FR-PDL-Irigo":"Hôtel de Ville","name":"Hôtel de Ville","public_transport":"stop_position","railway":"tram_stop","ref:Irigo":"1HDVA","route_ref":"A → ANGERS ROSERAIE","tram":"yes"}},{"type":"node","id":6979400962,"lat":47.4717102,"lon":-0.5466803,"tags":{"gtfs:stop_id:FR-PDL-Irigo":"2HDVA","gtfs:stop_name:FR-PDL-Irigo":"Hôtel de Ville","name":"Hôtel de Ville","public_transport":"stop_position","railway":"tram_stop","ref:Irigo":"2HDVA","route_ref":"A → AVRILLE ARDENNE;A → VERNEAU","tram":"yes"}},{"type":"node","id":6979400963,"lat":47.4741877,"lon":-0.5461509,"tags":{"gtfs:stop_id:FR-PDL-Irigo":"1CECO","gtfs:stop_name:FR-PDL-Irigo":"Centre de Congrès","name":"Centre de Congrès","public_transport":"stop_position","railway":"tram_stop","ref:Irigo":"1CECO","route_ref":"A → ANGERS ROSERAIE;B → MONPLAISIR","tram":"yes"}},{"type":"node","id":6979400964,"lat":47.4742129,"lon":-0.5461261,"tags":{"gtfs:stop_id:FR-PDL-Irigo":"2CECO","gtfs:stop_name:FR-PDL-Irigo":"Centre de Congrès","name":"Centre de Congrès","public_transport":"stop_position","railway":"tram_stop","ref:Irigo":"2CECO","route_ref":"A → AVRILLE ARDENNE;A → VERNEAU;B → BELLE BEILLE CAMPUS;B → SAINT SERGE","tram":"yes"}},{"type":"node","id":7121829415,"lat":47.5065665,"lon":-0.5895033,"tags":{"gtfs:stop_id:FR-PDL-Irigo":"1STGI","gtfs:stop_name:FR-PDL-Irigo":"St-Gilles","name":"Saint-Gilles","public_transport":"stop_position","railway":"tram_stop","ref:Irigo":"1STGI","route_ref":"A → ANGERS ROSERAIE","tram":"yes"}},{"type":"node","id":7121835490,"lat":47.5087564,"lon":-0.5916553,"tags":{"gtfs:stop_id:FR-PDL-Irigo":"1BASC","gtfs:stop_name:FR-PDL-Irigo":"Bascule","name":"Bascule","public_transport":"stop_position","railway":"tram_stop","ref:Irigo":"1BASC","route_ref":"A → ANGERS ROSERAIE","tram":"yes"}},{"type":"node","id":7121835491,"lat":47.5087993,"lon":-0.5915993,"tags":{"gtfs:stop_id:FR-PDL-Irigo":"2BASC","gtfs:stop_name:FR-PDL-Irigo":"Bascule","name":"Bascule","public_transport":"stop_position","railway":"tram_stop","ref:Irigo":"2BASC","route_ref":"A → AVRILLE ARDENNE","tram":"yes"}},{"type":"node","id":7121835494,"lat":47.50625,"lon":-0.5890416,"tags":{"gtfs:stop_id:FR-PDL-Irigo":"2STGI","gtfs:stop_name:FR-PDL-Irigo":"St-Gilles","name":"Saint-Gilles","public_transport":"stop_position","railway":"tram_stop","ref:Irigo":"2STGI","route_ref":"A → AVRILLE ARDENNE","tram":"yes"}},{"type":"node","id":8274031625,"lat":47.4740643,"lon":-0.555605,"tags":{"gtfs:stop_id:FR-PDL-Irigo":"2MOLIE","gtfs:stop_name:FR-PDL-Irigo":"Molière","name":"Molière","public_transport":"stop_position","railway":"tram_stop","ref:Irigo":"2MOLIE","route_ref":"B → BELLE BEILLE CAMPUS;C → BELLE BEILLE CAMPUS","tram":"yes"}},{"type":"node","id":8274031626,"lat":47.4740476,"lon":-0.5555716,"tags":{"gtfs:stop_id:FR-PDL-Irigo":"1MOLIE","gtfs:stop_name:FR-PDL-Irigo":"Molière","name":"Molière","public_transport":"stop_position","railway":"tram_stop","ref:Irigo":"1MOLIE","route_ref":"B → MOLIERE;B → MONPLAISIR;C → ROSERAIE","tram":"yes"}},{"type":"node","id":8274118737,"lat":47.4741809,"lon":-0.5606715,"tags":{"gtfs:stop_id:FR-PDL-Irigo":"2DOUT","gtfs:stop_name:FR-PDL-Irigo":"Doutre-Maine","name":"Doutre-Maine","public_transport":"stop_position","railway":"tram_stop","ref:Irigo":"2DOUT","route_ref":"B → BELLE BEILLE CAMPUS;C → BELLE BEILLE CAMPUS","tram":"yes"}},{"type":"node","id":8274118743,"lat":47.4741398,"lon":-0.5606087,"tags":{"gtfs:stop_id:FR-PDL-Irigo":"1DOUT","gtfs:stop_name:FR-PDL-Irigo":"Doutre-Maine","name":"Doutre-Maine","public_transport":"stop_position","railway":"tram_stop","ref:Irigo":"1DOUT","route_ref":"B → MOLIERE;B → MONPLAISIR;C → ROSERAIE","tram":"yes"}},{"type":"node","id":8293402392,"lat":47.4722904,"lon":-0.5664734,"tags":{"gtfs:stop_id:FR-PDL-Irigo":"1QUAI","gtfs:stop_name:FR-PDL-Irigo":"Le Quai","name":"Le Quai","public_transport":"stop_position","railway":"tram_stop","ref:Irigo":"1QUAI","route_ref":"B → MOLIERE;B → MONPLAISIR;C → ROSERAIE","tram":"yes"}},{"type":"node","id":8293402393,"lat":47.4723134,"lon":-0.5665052,"tags":{"gtfs:stop_id:FR-PDL-Irigo":"2QUAI","gtfs:stop_name:FR-PDL-Irigo":"Le Quai","name":"Le Quai","public_transport":"stop_position","railway":"tram_stop","ref:Irigo":"2QUAI","route_ref":"B → BELLE BEILLE CAMPUS;C → BELLE BEILLE CAMPUS","tram":"yes"}},{"type":"node","id":8293402396,"lat":47.4733447,"lon":-0.5774033,"tags":{"gtfs:stop_id:FR-PDL-Irigo":"1FARC","gtfs:stop_name:FR-PDL-Irigo":"Farcy","name":"Farcy","public_transport":"stop_position","railway":"tram_stop","ref:Irigo":"1FARC","route_ref":"B → MOLIERE;B → MONPLAISIR;C → ROSERAIE","tram":"yes"}},{"type":"node","id":8293402397,"lat":47.4733626,"lon":-0.5773685,"tags":{"gtfs:stop_id:FR-PDL-Irigo":"2FARC","gtfs:stop_name:FR-PDL-Irigo":"Farcy","name":"Farcy","public_transport":"stop_position","railway":"tram_stop","ref:Irigo":"2FARC","route_ref":"B → BELLE BEILLE CAMPUS;C → BELLE BEILLE CAMPUS","tram":"yes"}},{"type":"node","id":8293402400,"lat":47.473568,"lon":-0.5854178,"tags":{"gtfs:stop_id:FR-PDL-Irigo":"1ELYS","gtfs:stop_name:FR-PDL-Irigo":"Élysée","name":"Élysée","public_transport":"stop_position","railway":"tram_stop","ref:Irigo":"1ELYS","route_ref":"B → MOLIERE;B → MONPLAISIR;C → ROSERAIE","tram":"yes"}},{"type":"node","id":8293402401,"lat":47.4736236,"lon":-0.5854145,"tags":{"gtfs:stop_id:FR-PDL-Irigo":"2ELYS","gtfs:stop_name:FR-PDL-Irigo":"Élysée","name":"Élysée","public_transport":"stop_position","railway":"tram_stop","ref:Irigo":"2ELYS","route_ref":"B → BELLE BEILLE CAMPUS;C → BELLE BEILLE CAMPUS","tram":"yes"}},{"type":"node","id":8293402404,"lat":47.4734075,"lon":-0.5925858,"tags":{"gtfs:stop_id:FR-PDL-Irigo":"2PATT","gtfs:stop_name:FR-PDL-Irigo":"Patton","name":"Patton","public_transport":"stop_position","railway":"tram_stop","ref:Irigo":"2PATT","route_ref":"B → BELLE BEILLE CAMPUS;C → BELLE BEILLE CAMPUS","tram":"yes"}},{"type":"node","id":8293402405,"lat":47.4733474,"lon":-0.5925836,"tags":{"gtfs:stop_id:FR-PDL-Irigo":"1PATT","gtfs:stop_name:FR-PDL-Irigo":"Patton","name":"Patton","public_transport":"stop_position","railway":"tram_stop","ref:Irigo":"1PATT","route_ref":"B → MOLIERE;B → MONPLAISIR;C → ROSERAIE","tram":"yes"}},{"type":"node","id":8293402408,"lat":47.4732142,"lon":-0.5988622,"tags":{"gtfs:stop_id:FR-PDL-Irigo":"2BARR","gtfs:stop_name:FR-PDL-Irigo":"La Barre","name":"La Barre","public_transport":"stop_position","railway":"tram_stop","ref:Irigo":"2BARR","route_ref":"B → BELLE BEILLE CAMPUS;C → BELLE BEILLE CAMPUS","tram":"yes"}},{"type":"node","id":8293402409,"lat":47.4731567,"lon":-0.5988622,"tags":{"gtfs:stop_id:FR-PDL-Irigo":"1BARR","gtfs:stop_name:FR-PDL-Irigo":"La Barre","name":"La Barre","public_transport":"stop_position","railway":"tram_stop","ref:Irigo":"1BARR","route_ref":"B → MOLIERE;B → MONPLAISIR;C → ROSERAIE","tram":"yes"}},{"type":"node","id":8293402410,"lat":47.476508,"lon":-0.5992376,"tags":{"gtfs:stop_id:FR-PDL-Irigo":"1BEAU","gtfs:stop_name:FR-PDL-Irigo":"Beaussier","name":"Beaussier","public_transport":"stop_position","railway":"tram_stop","ref:Irigo":"1BEAU","route_ref":"B → MOLIERE;B → MONPLAISIR;C → ROSERAIE","tram":"yes"}},{"type":"node","id":8293402413,"lat":47.4765018,"lon":-0.5991948,"tags":{"gtfs:stop_id:FR-PDL-Irigo":"2BEAU","gtfs:stop_name:FR-PDL-Irigo":"Beaussier","name":"Beaussier","public_transport":"stop_position","railway":"tram_stop","ref:Irigo":"2BEAU","route_ref":"B → BELLE BEILLE CAMPUS;C → BELLE BEILLE CAMPUS","tram":"yes"}},{"type":"node","id":8293419417,"lat":47.477985,"lon":-0.6032147,"tags":{"gtfs:stop_id:FR-PDL-Irigo":"2BBCA","gtfs:stop_name:FR-PDL-Irigo":"Belle-Beille Campus","name":"Belle-Beille Campus","public_transport":"stop_position","railway":"tram_stop","ref:Irigo":"2BBCA","route_ref":"B → BELLE BEILLE CAMPUS;C → ROSERAIE","tram":"yes"}},{"type":"node","id":8293434899,"lat":47.4692129,"lon":-0.5327905,"tags":{"gtfs:stop_id:FR-PDL-Irigo":"1MTAI","gtfs:stop_name:FR-PDL-Irigo":"Montaigne","name":"Montaigne","public_transport":"stop_position","railway":"tram_stop","ref:Irigo":"1MTAI","route_ref":"B → MONPLAISIR","tram":"yes"}},{"type":"node","id":8293434900,"lat":47.4692393,"lon":-0.5327649,"tags":{"gtfs:stop_id:FR-PDL-Irigo":"2MTAI","gtfs:stop_name:FR-PDL-Irigo":"Montaigne","name":"Montaigne","public_transport":"stop_position","railway":"tram_stop","ref:Irigo":"2MTAI","route_ref":"B → BELLE BEILLE CAMPUS;B → SAINT SERGE","tram":"yes"}},{"type":"node","id":8293434905,"lat":47.4713945,"lon":-0.5382278,"tags":{"gtfs:stop_id:FR-PDL-Irigo":"1CONS","gtfs:stop_name:FR-PDL-Irigo":"Conservatoire","name":"Conservatoire","public_transport":"stop_position","railway":"tram_stop","ref:Irigo":"1CONS","route_ref":"B → MONPLAISIR","tram":"yes"}},{"type":"node","id":8293434906,"lat":47.4714212,"lon":-0.5382012,"tags":{"gtfs:stop_id:FR-PDL-Irigo":"2CONS","gtfs:stop_name:FR-PDL-Irigo":"Conservatoire","name":"Conservatoire","public_transport":"stop_position","railway":"tram_stop","ref:Irigo":"2CONS","route_ref":"B → BELLE BEILLE CAMPUS;B → SAINT SERGE","tram":"yes"}},{"type":"node","id":8294642464,"lat":47.488959,"lon":-0.5269073,"tags":{"gtfs:stop_id:FR-PDL-Irigo":"2MONP","gtfs:stop_name:FR-PDL-Irigo":"Monplaisir","name":"Monplaisir","public_transport":"stop_position","railway":"tram_stop","ref:Irigo":"2MONP","route_ref":"B → BELLE BEILLE CAMPUS;B → MONPLAISIR;B → SAINT SERGE","tram":"yes"}},{"type":"node","id":8294642470,"lat":47.4866229,"lon":-0.5271196,"tags":{"gtfs:stop_id:FR-PDL-Irigo":"2EURO","gtfs:stop_name:FR-PDL-Irigo":"Europe","name":"Europe","public_transport":"stop_position","railway":"tram_stop","ref:Irigo":"2EURO","route_ref":"B → BELLE BEILLE CAMPUS;B → SAINT SERGE","tram":"yes"}},{"type":"node","id":8294642476,"lat":47.4838284,"lon":-0.5267875,"tags":{"gtfs:stop_id:FR-PDL-Irigo":"2DUNA","gtfs:stop_name:FR-PDL-Irigo":"Allonneau-Dunant","name":"Allonneau-Dunant","public_transport":"stop_position","railway":"tram_stop","ref:Irigo":"2DUNA","route_ref":"B → BELLE BEILLE CAMPUS;B → SAINT SERGE","tram":"yes"}},{"type":"node","id":8294642477,"lat":47.483831,"lon":-0.5267438,"tags":{"gtfs:stop_id:FR-PDL-Irigo":"1DUNA","gtfs:stop_name:FR-PDL-Irigo":"Allonneau-Dunant","name":"Allonneau-Dunant","public_transport":"stop_position","railway":"tram_stop","ref:Irigo":"1DUNA","route_ref":"B → MONPLAISIR","tram":"yes"}},{"type":"node","id":8294642486,"lat":47.478515,"lon":-0.5281757,"tags":{"gtfs:stop_id:FR-PDL-Irigo":"1BRIS","gtfs:stop_name:FR-PDL-Irigo":"Brisepotière","name":"Brisepotière","public_transport":"stop_position","railway":"tram_stop","ref:Irigo":"1BRIS","route_ref":"B → MONPLAISIR","tram":"yes"}},{"type":"node","id":8294642487,"lat":47.4785085,"lon":-0.5282535,"tags":{"gtfs:stop_id:FR-PDL-Irigo":"2BRIS","gtfs:stop_name:FR-PDL-Irigo":"Brisepotière","name":"Brisepotière","public_transport":"stop_position","railway":"tram_stop","ref:Irigo":"2BRIS","route_ref":"B → BELLE BEILLE CAMPUS;B → SAINT SERGE","tram":"yes"}},{"type":"node","id":8612809846,"lat":47.4889636,"lon":-0.5268236,"tags":{"gtfs:stop_id:FR-PDL-Irigo":"1MONP","gtfs:stop_name:FR-PDL-Irigo":"Monplaisir","name":"Monplaisir","public_transport":"stop_position","railway":"tram_stop","ref:Irigo":"1MONP","route_ref":"B → BELLE BEILLE CAMPUS;B → MONPLAISIR","tram":"yes"}},{"type":"node","id":8612892393,"lat":47.4751098,"lon":-0.528884,"tags":{"gtfs:stop_id:FR-PDL-Irigo":"1CROI","gtfs:stop_name:FR-PDL-Irigo":"Deux-Croix","name":"Deux-Croix","public_transport":"stop_position","railway":"tram_stop","ref:Irigo":"1CROI","route_ref":"B → MONPLAISIR","tram":"yes"}},{"type":"node","id":8612892394,"lat":47.4751245,"lon":-0.5289592,"tags":{"gtfs:stop_id:FR-PDL-Irigo":"2CROI","gtfs:stop_name:FR-PDL-Irigo":"Deux-Croix","name":"Deux-Croix","public_transport":"stop_position","railway":"tram_stop","ref:Irigo":"2CROI","route_ref":"B → BELLE BEILLE CAMPUS;B → SAINT SERGE","tram":"yes"}},{"type":"node","id":8635234620,"lat":47.4780382,"lon":-0.603188,"tags":{"gtfs:stop_id:FR-PDL-Irigo":"3BBCA","gtfs:stop_name:FR-PDL-Irigo":"Belle-Beille Campus","name":"Belle-Beille Campus","public_transport":"stop_position","railway":"tram_stop","ref:Irigo":"3BBCA","route_ref":"B → MONPLAISIR;C → BELLE BEILLE CAMPUS;C → ROSERAIE","tram":"yes"}},{"type":"node","id":8635234621,"lat":47.4779307,"lon":-0.6032419,"tags":{"gtfs:stop_id:FR-PDL-Irigo":"1BBCA","gtfs:stop_name:FR-PDL-Irigo":"Belle-Beille Campus","name":"Belle-Beille Campus","public_transport":"stop_position","railway":"tram_stop","ref:Irigo":"1BBCA","route_ref":"B → BELLE BEILLE CAMPUS;B → MOLIERE;B → MONPLAISIR;C → BELLE BEILLE CAMPUS;C → ROSERAIE","tram":"yes"}},{"type":"node","id":8635452969,"lat":47.486622,"lon":-0.5270751,"tags":{"gtfs:stop_id:FR-PDL-Irigo":"1EURO","gtfs:stop_name:FR-PDL-Irigo":"Europe","name":"Europe","public_transport":"stop_position","railway":"tram_stop","ref:Irigo":"1EURO","route_ref":"B → MONPLAISIR","tram":"yes"}}]}