{"elements":[{"type":"node","id":467155299,"lat":-35.1293057,"lon":138.4962767,"tags":{"addr:state":"SA","addr:suburb":"Christie Downs","internet_access":"no","name":"Christie Downs","network":"Adelaide Metro","network:wikidata":"Q4681753","operator":"Adelaide Metro","public_transport":"station","railway":"station","train":"yes","wikidata":"Q5110667"}},{"type":"node","id":675417016,"lat":-34.9440713,"lon":138.583295,"tags":{"check_date":"2026-02-18","name":"Adelaide Showground","network":"Adelaide Metro","network:wikidata":"Q4681753","operator":"Adelaide Metro","public_transport":"station","railway":"station","train":"yes","wheelchair":"yes","wikidata":"Q16207882","wikipedia":"en:Adelaide Showground railway station"}},{"type":"node","id":676640060,"lat":-35.0020461,"lon":138.566781,"tags":{"name":"Mitchell Park","network":"Adelaide Metro","network:wikidata":"Q4681753","operator":"Adelaide Metro","public_transport":"station","railway":"station","train":"yes","wikidata":"Q6881332"}},{"type":"node","id":679836169,"lat":-35.1892435,"lon":138.4834967,"tags":{"name":"Seaford","public_transport":"station","railway":"station","train":"yes","wikidata":"Q7440397","wikimedia_commons":"File:Seaford railway station, Adelaide, January 2023 03.jpg","wikipedia":"en:Seaford railway station, Adelaide"}},{"type":"node","id":679840319,"lat":-35.1787026,"lon":138.487658,"tags":{"name":"Seaford Meadows","public_transport":"station","railway":"station","wheelchair":"yes"}},{"type":"node","id":684815566,"lat":-34.8815596,"lon":138.5232402,"tags":{"name":"Albert Park","network":"Adelaide Metro","network:wikidata":"Q4681753","operator":"Adelaide Metro","public_transport":"station","railway":"station","stop_id":"6666","train":"yes","wikidata":"Q4710976"}},{"type":"node","id":684819832,"lat":-34.8903714,"lon":138.5150404,"tags":{"internet_access":"no","name":"Seaton Park","network":"Adelaide Metro","network:wikidata":"Q4681753","operator":"Adelaide Metro","public_transport":"station","railway":"station","train":"yes","wheelchair":"yes","wikidata":"Q7442022"}},{"type":"node","id":684825296,"lat":-34.8992535,"lon":138.5016621,"tags":{"addr:floor":"G","air_conditioning":"no","internet_access":"no","name":"East Grange","network":"Adelaide Metro","network:wikidata":"Q4681753","operator":"Adelaide Metro","public_transport":"station","railway":"station","train":"yes","wheelchair":"yes","wikidata":"Q5328483"}},{"type":"node","id":684827976,"lat":-34.9002917,"lon":138.490817,"tags":{"name":"Grange","network":"Adelaide Metro","network:wikidata":"Q4681753","operator":"Adelaide Metro","public_transport":"station","railway":"station","train":"yes","wheelchair":"yes","wikidata":"Q5595698"}},{"type":"node","id":696115948,"lat":-34.9588452,"lon":138.5905556,"tags":{"check_date":"2026-02-04","name":"Millswood","network":"Adelaide Metro","network:wikidata":"Q4681753","operator":"Adelaide Metro","platforms":"1","public_transport":"station","railway":"station","train":"yes","wheelchair":"limited","wikidata":"Q6860058","wikipedia":"en:Millswood railway station"}},{"type":"node","id":698638251,"lat":-35.0251942,"lon":138.6143361,"tags":{"name":"Coromandel","network":"Adelaide Metro","network:wikidata":"Q4681753","operator":"Adelaide Metro","public_transport":"stop_position","railway":"station","train":"yes","wheelchair":"yes","wikidata":"Q5172104"}},{"type":"node","id":699631084,"lat":-35.0113123,"lon":138.6232002,"tags":{"name":"Glenalta","network":"Adelaide Metro","network:wikidata":"Q4681753","operator":"Adelaide Metro","public_transport":"station","railway":"station","toilets:wheelchair":"no","train":"yes","wheelchair":"yes","wikidata":"Q5568135"}},{"type":"node","id":699651081,"lat":-35.000725,"lon":138.6243137,"tags":{"name":"Pinera","network":"Adelaide Metro","network:wikidata":"Q4681753","operator":"Adelaide Metro","public_transport":"station","railway":"station","source":"bing","train":"yes","wheelchair":"limited","wheelchair:description":"Long, reasonably steep wooden slat ramp to station platform.","wikidata":"Q7195546"}},{"type":"node","id":914401529,"lat":-35.137965,"lon":138.8750907,"tags":{"name":"Bugle Ranges","public_transport":"station","railway":"station"}},{"type":"node","id":1021829633,"lat":-34.612969,"lon":138.7387246,"tags":{"name":"Gawler Racecourse","network":"Adelaide Metro","network:wikidata":"Q4681753","operator":"Adelaide Metro","public_transport":"station","railway":"station","train":"yes","wikidata":"Q5528461"}},{"type":"node","id":1763919355,"lat":-34.9771959,"lon":138.6086658,"tags":{"check_date":"2026-02-01","name":"Mitcham","network":"Adelaide Metro","network:wikidata":"Q4681753","operator":"Adelaide Metro","public_transport":"station","railway":"station","train":"yes","wheelchair":"yes","wikidata":"Q6881047"}},{"type":"node","id":1764783034,"lat":-34.7173881,"lon":138.6646079,"tags":{"name":"Elizabeth Interchange","network":"Adelaide Metro","network:wikidata":"Q4681753","operator":"Adelaide Metro","public_transport":"station","railway":"station","train":"yes","wikidata":"Q5363827","wikipedia":"en:Elizabeth railway station, Adelaide"}},{"type":"node","id":1764783035,"lat":-34.7311441,"lon":138.6559308,"tags":{"name":"Elizabeth South","operator":"Adelaide Metro","public_transport":"station","railway":"station","wikidata":"Q5363531"}},{"type":"node","id":1764783036,"lat":-34.6205715,"lon":138.7326159,"tags":{"name":"Evanston","network":"Adelaide Metro","network:wikidata":"Q4681753","operator":"Adelaide Metro","public_transport":"station","railway":"station","train":"yes","wikidata":"Q14935708"}},{"type":"node","id":1764783039,"lat":-34.6518403,"lon":138.706644,"tags":{"name":"Kudla","network":"Adelaide Metro","network:wikidata":"Q4681753","operator":"Adelaide Metro","public_transport":"station","railway":"station","wikidata":"Q6441724"}},{"type":"node","id":1764783040,"lat":-34.6685052,"lon":138.6964763,"tags":{"name":"Munno Para","operator":"Adelaide Metro","public_transport":"station","railway":"station","wikidata":"Q14935749"}},{"type":"node","id":1764783041,"lat":-34.6820803,"lon":138.6867099,"tags":{"name":"Smithfield","network":"Adelaide Metro","network:wikidata":"Q4681753","operator":"Adelaide Metro","public_transport":"station","railway":"station","train":"yes","wheelchair":"yes","wikidata":"Q7545529"}},{"type":"node","id":1764783042,"lat":-34.6285261,"lon":138.7259108,"tags":{"name":"Tambelin","network":"Adelaide Metro","network:wikidata":"Q4681753","operator":"Adelaide Metro","public_transport":"station","railway":"station","train":"yes","wikidata":"Q7681023"}},{"type":"node","id":1764783044,"lat":-34.7043235,"lon":138.6700074,"tags":{"name":"Womma","network":"Adelaide Metro","network:wikidata":"Q4681753","operator":"Adelaide Metro","public_transport":"station","railway":"station","train":"yes","wikidata":"Q8031645"}},{"type":"node","id":1765069216,"lat":-34.8581266,"lon":138.5184342,"tags":{"name":"Alberton","network":"Adelaide Metro","network:wikidata":"Q4681753","operator":"Adelaide Metro","public_transport":"station","railway":"station","train":"yes","wheelchair":"yes","wikidata":"Q4712269"}},{"type":"node","id":1765069218,"lat":-35.0209553,"lon":138.619012,"tags":{"alt_name":"Blackwood Railway Station","name":"Blackwood","network":"Adelaide Metro","network:wikidata":"Q4681753","operator":"Adelaide Metro","public_transport":"station","railway":"station","train":"yes","wikidata":"Q4923643"}},{"type":"node","id":1765069219,"lat":-35.0215306,"lon":138.519189,"tags":{"name":"Brighton","operator":"Adelaide Metro","public_transport":"station","railway":"station","wheelchair":"yes","wikidata":"Q4967764"}},{"type":"node","id":1765069221,"lat":-34.8659954,"lon":138.5247636,"tags":{"name":"Cheltenham","network":"Adelaide Metro","network:wikidata":"Q4681753","operator":"Adelaide Metro","public_transport":"station","railway":"station","train":"yes","wheelchair":"yes","wikidata":"Q5090252"}},{"type":"node","id":1765069222,"lat":-34.9614472,"lon":138.5803984,"tags":{"check_date":"2026-01-30","name":"Clarence Park","network":"Adelaide Metro","network:wikidata":"Q4681753","operator":"Adelaide Metro","public_transport":"station","railway":"station","train":"yes","wikidata":"Q5126696","wikipedia":"en:Clarence Park railway station"}},{"type":"node","id":1765069224,"lat":-34.951625,"lon":138.5848925,"tags":{"check_date":"2026-02-01","name":"Goodwood","network":"Adelaide Metro","network:wikidata":"Q4681753","operator":"Adelaide Metro","public_transport":"station","railway":"station","train":"yes","wikidata":"Q5583727","wikipedia":"en:Goodwood railway station"}},{"type":"node","id":1765069225,"lat":-35.0794295,"lon":138.5019052,"tags":{"check_date":"2026-02-07","name":"Hallett Cove Beach","network":"Adelaide Metro","network:wikidata":"Q4681753","operator":"Adelaide Metro","public_transport":"station","railway":"station","train":"yes","wheelchair":"yes","wikidata":"Q5642915"}},{"type":"node","id":1765069226,"lat":-35.0662854,"lon":138.5056522,"tags":{"check_date":"2023-08-11","name":"Hallett Cove","network":"Adelaide Metro","network:wikidata":"Q4681753","operator":"Adelaide Metro","platforms":"2","public_transport":"station","railway":"station","train":"yes","wikidata":"Q5642919"}},{"type":"node","id":1765069228,"lat":-35.0122882,"lon":138.5237052,"tags":{"name":"Hove","network":"Adelaide Metro","network:wikidata":"Q4681753","operator":"Adelaide Metro","public_transport":"station","railway":"station","train":"yes","wheelchair":"yes","wikidata":"Q5917036"}},{"type":"node","id":1765069230,"lat":-35.1091741,"lon":138.4915699,"tags":{"name":"Lonsdale","network":"Adelaide Metro","network:wikidata":"Q4681753","operator":"Adelaide Metro","public_transport":"station","railway":"station","train":"yes","wikidata":"Q6674851"}},{"type":"node","id":1765069232,"lat":-35.0461456,"lon":138.5126857,"tags":{"name":"Marino Rocks","network":"Adelaide Metro","network:wikidata":"Q4681753","operator":"Adelaide Metro","public_transport":"station","railway":"station","train":"yes","wikidata":"Q6764447"}},{"type":"node","id":1765069234,"lat":-35.0423167,"lon":138.5172393,"tags":{"name":"Marino","network":"Adelaide Metro","network:wikidata":"Q4681753","operator":"Adelaide Metro","public_transport":"station","railway":"station","train":"yes","wikidata":"Q6764454"}},{"type":"node","id":1765069239,"lat":-34.9251159,"lon":138.5802822,"tags":{"name":"Mile End","network":"Adelaide Metro","network:wikidata":"Q4681753","operator":"Adelaide Metro","public_transport":"station","railway":"station","train":"yes","wikidata":"Q6851077"}},{"type":"node","id":1765069240,"lat":-35.0094418,"lon":138.5411164,"tags":{"alt_name":"Oaklands Railway Station","name":"Oaklands","network":"Adelaide Metro","network:wikidata":"Q4681753","operator":"Adelaide Metro","public_transport":"station","railway":"station","train":"yes","wheelchair":"yes","wikidata":"Q7074089"}},{"type":"node","id":1765069241,"lat":-34.834726,"lon":138.4919544,"tags":{"name":"Peterhead","network":"Adelaide Metro","network:wikidata":"Q4681753","operator":"Adelaide Metro","public_transport":"station","railway":"station","train":"yes","wheelchair":"yes","wikidata":"Q7178057"}},{"type":"node","id":1765069243,"lat":-35.032528,"lon":138.5214268,"tags":{"name":"Seacliff","network":"Adelaide Metro","network:wikidata":"Q4681753","operator":"Adelaide Metro","public_transport":"station","railway":"station","train":"yes","wikidata":"Q7440265"}},{"type":"node","id":1765069244,"lat":-35.0113593,"lon":138.533624,"tags":{"name":"Warradale","network":"Adelaide Metro","network:wikidata":"Q4681753","operator":"Adelaide Metro","public_transport":"station","railway":"station","train":"yes","wheelchair":"yes","wikidata":"Q7969915"}},{"type":"node","id":1765069247,"lat":-34.9829041,"lon":138.5671974,"tags":{"check_date":"2026-02-07","name":"Woodlands Park","network":"Adelaide Metro","network:wikidata":"Q4681753","operator":"Adelaide Metro","public_transport":"station","railway":"station","train":"yes","wikidata":"Q14935774"}},{"type":"node","id":1765087133,"lat":-34.9071821,"lon":138.5771429,"tags":{"addr:state":"SA","addr:suburb":"Bowden","name":"Bowden","network":"Adelaide Metro","network:wikidata":"Q4681753","operator":"Adelaide Metro","public_transport":"station","railway":"station","stop_id":"6671","train":"yes","wheelchair":"yes","wikidata":"Q4950741"}},{"type":"node","id":1765087134,"lat":-34.7746944,"lon":138.6381348,"tags":{"name":"Chidda","network":"Adelaide Metro","network:wikidata":"Q4681753","operator":"Adelaide Metro","public_transport":"station","railway":"station","train":"yes","wikidata":"Q5096593"}},{"type":"node","id":1765087135,"lat":-34.8970509,"lon":138.5638708,"tags":{"name":"Croydon","network":"Adelaide Metro","network:wikidata":"Q4681753","operator":"Adelaide Metro","public_transport":"station","railway":"station","stop_id":"6680","train":"yes","wikidata":"Q5189720"}},{"type":"node","id":1765087137,"lat":-34.8347912,"lon":138.5857694,"tags":{"name":"Dry Creek","network":"Adelaide Metro","network:wikidata":"Q4681753","operator":"Adelaide Metro","public_transport":"station","railway":"station","train":"yes","wikidata":"Q5309505"}},{"type":"node","id":1765087138,"lat":-34.884963,"lon":138.5832342,"tags":{"name":"Dudley Park","network":"Adelaide Metro","network:wikidata":"Q4681753","operator":"Adelaide Metro","public_transport":"station","railway":"station","train":"yes","wikidata":"Q5311940"}},{"type":"node","id":1765087150,"lat":-34.7990146,"lon":138.616537,"tags":{"name":"Greenfields","operator":"Adelaide Metro","public_transport":"station","railway":"station","wikidata":"Q5604030"}},{"type":"node","id":1765087153,"lat":-34.869476,"lon":138.5804811,"tags":{"historic":"yes","name":"Islington","public_transport":"station","railway":"station"}},{"type":"node","id":1765087156,"lat":-34.875576,"lon":138.5818839,"tags":{"name":"Islington","network":"Adelaide Metro","network:wikidata":"Q4681753","operator":"Adelaide Metro","public_transport":"station","railway":"station","train":"yes","wikidata":"Q14935728"}},{"type":"node","id":1765087160,"lat":-34.8595996,"lon":138.578362,"tags":{"name":"Kilburn","operator":"Adelaide Metro","public_transport":"station","railway":"station","wikidata":"Q6406620"}},{"type":"node","id":1765087163,"lat":-34.8861975,"lon":138.5496684,"tags":{"name":"Kilkenny","network":"Adelaide Metro","network:wikidata":"Q4681753","operator":"Adelaide Metro","public_transport":"station","railway":"station","stop_id":"6706","train":"yes","wikidata":"Q6407052"}},{"type":"node","id":1765087164,"lat":-34.803814,"lon":138.6122321,"tags":{"alt_name":"Mawson Lakes","alt_name:1":"Mawson Lakes Interchange","amenity":"bus_station","bus":"yes","name":"Mawson Interchange","network":"Adelaide Metro","network:wikidata":"Q4681753","note":"Station is sign posted \"Mawson Interchange\", also appears as this on the network map. Listed in the GTFS as \"Mawson Lakes\".","operator":"Adelaide Metro","platforms":"2","public_transport":"station","railway":"station","train":"yes","wheelchair":"yes","wikidata":"Q6794460"}},{"type":"node","id":1765087165,"lat":-34.90622,"lon":138.5816358,"tags":{"name":"North Adelaide","network":"Adelaide Metro","network:wikidata":"Q4681753","operator":"Adelaide Metro","public_transport":"station","railway":"station","source":"nearmap","train":"yes","wikidata":"Q7053666"}},{"type":"node","id":1765087166,"lat":-34.7507628,"lon":138.6440954,"tags":{"name":"Nurlutta","network":"Adelaide Metro","network:wikidata":"Q4681753","operator":"Adelaide Metro","public_transport":"station","railway":"station","train":"yes","wheelchair":"yes","wikidata":"Q7070154"}},{"type":"node","id":1765087168,"lat":-34.896132,"lon":138.5843381,"tags":{"name":"Ovingham","network":"Adelaide Metro","network:wikidata":"Q4681753","operator":"Adelaide Metro","public_transport":"station","railway":"station","train":"yes","wikidata":"Q7114172"}},{"type":"node","id":1765087179,"lat":-34.7912781,"lon":138.6233548,"tags":{"name":"Parafield Gardens","operator":"Adelaide Metro","public_transport":"station","railway":"station","wikidata":"Q7134530"}},{"type":"node","id":1765087181,"lat":-34.7829812,"lon":138.6307522,"tags":{"name":"Parafield","network":"Adelaide Metro","network:wikidata":"Q4681753","operator":"Adelaide Metro","public_transport":"station","railway":"station","train":"yes","wikidata":"Q7134529"}},{"type":"node","id":1765087182,"lat":-34.7631592,"lon":138.6424335,"tags":{"name":"Salisbury Interchange","network":"Adelaide Metro","network:wikidata":"Q4681753","operator":"Adelaide Metro","public_transport":"station","railway":"station","train":"yes","wikidata":"Q7404841"}},{"type":"node","id":1765087183,"lat":-34.891766,"lon":138.5569819,"tags":{"name":"West Croydon","network":"Adelaide Metro","network:wikidata":"Q4681753","operator":"Adelaide Metro","public_transport":"station","railway":"station","stop_id":"6743","train":"yes","wikidata":"Q7984916"}},{"type":"node","id":1765087185,"lat":-34.8814267,"lon":138.5434962,"tags":{"name":"Woodville Park","network":"Adelaide Metro","network:wikidata":"Q4681753","operator":"Adelaide Metro","public_transport":"station","railway":"station","source":"nearmap","stop_id":"6747","train":"yes","wikidata":"Q8033536","wikipedia":"en:Woodville Park railway station"}},{"type":"node","id":1765087186,"lat":-34.8771,"lon":138.5377298,"tags":{"name":"Woodville","network":"Adelaide Metro","network:wikidata":"Q4681753","operator":"Adelaide Metro","public_transport":"station","railway":"station","train":"yes","wheelchair":"limited","wikidata":"Q8033544"}},{"type":"node","id":1768318708,"lat":-34.9909208,"lon":138.5612243,"tags":{"name":"Ascot Park","network":"Adelaide Metro","network:wikidata":"Q4681753","operator":"Adelaide Metro","public_transport":"station","railway":"station","train":"yes","wikidata":"Q4804035"}},{"type":"node","id":1782356050,"lat":-34.6086466,"lon":138.7397302,"tags":{"name":"Gawler","network":"Adelaide Metro","network:wikidata":"Q4681753","operator":"Adelaide Metro","public_transport":"station","railway":"station","train":"yes","wikidata":"Q5528468"}},{"type":"node","id":1820958040,"lat":-34.8424595,"lon":138.4935064,"tags":{"name":"Glanville","network":"Adelaide Metro","network:wikidata":"Q4681753","operator":"Adelaide Metro","public_transport":"station","railway":"station","train":"yes","wikidata":"Q5566657"}},{"type":"node","id":1875312356,"lat":-34.9980109,"lon":138.6329154,"tags":{"check_date":"2026-02-14","name":"Belair","network":"Adelaide Metro","network:wikidata":"Q4681753","operator":"Adelaide Metro","public_transport":"stop_position","railway":"station","source":"bing","train":"yes","wikidata":"Q4881877"}},{"type":"node","id":1875312360,"lat":-34.6959022,"lon":138.6741062,"tags":{"name":"Broadmeadows","network":"Adelaide Metro","network:wikidata":"Q4681753","operator":"Adelaide Metro","public_transport":"station","railway":"station","source":"bing","train":"yes","wikidata":"Q4972243","wikipedia":"en:Broadmeadows railway station, Adelaide"}},{"type":"node","id":1875312387,"lat":-34.8143081,"lon":138.4989381,"tags":{"name":"Draper","network":"Adelaide Metro","network:wikidata":"Q4681753","operator":"Adelaide Metro","public_transport":"station","railway":"station","source":"bing","train":"yes","wikidata":"Q5305866"}},{"type":"node","id":1875312395,"lat":-35.0215958,"lon":138.5944007,"tags":{"name":"Eden Hills","operator":"Adelaide Metro","public_transport":"station","railway":"station","source":"bing","wheelchair":"yes","wikidata":"Q5336869"}},{"type":"node","id":1875312399,"lat":-34.9721908,"lon":138.5712085,"tags":{"name":"Edwardstown","network":"Adelaide Metro","network:wikidata":"Q4681753","operator":"Adelaide Metro","public_transport":"station","railway":"station","source":"bing","train":"yes","wikidata":"Q5346154"}},{"type":"node","id":1875312400,"lat":-34.9665632,"lon":138.5738531,"tags":{"check_date":"2026-02-28","name":"Emerson","network":"Adelaide Metro","network:wikidata":"Q4681753","operator":"Adelaide Metro","public_transport":"station","railway":"station","source":"bing","train":"yes","wikidata":"Q5370953","wikipedia":"en:Emerson railway station"}},{"type":"node","id":1875312403,"lat":-34.8487935,"lon":138.4949217,"tags":{"name":"Ethelton","network":"Adelaide Metro","network:wikidata":"Q4681753","operator":"Adelaide Metro","public_transport":"station","railway":"station","source":"bing","train":"yes","wheelchair":"yes","wikidata":"Q5403274"}},{"type":"node","id":1875312407,"lat":-34.5944565,"lon":138.7481957,"tags":{"name":"Gawler Central","network":"Adelaide Metro","network:wikidata":"Q4681753","operator":"Adelaide Metro","public_transport":"station","railway":"station","source":"bing","train":"yes","wikidata":"Q5528456"}},{"type":"node","id":1875312434,"lat":-34.5952143,"lon":138.7409489,"tags":{"name":"Gawler Oval","network":"Adelaide Metro","network:wikidata":"Q4681753","operator":"Adelaide Metro","public_transport":"station","railway":"station","source":"bing","train":"yes","wikidata":"Q5528460"}},{"type":"node","id":1875312444,"lat":-34.9951802,"lon":138.6058719,"tags":{"name":"Lynton","network":"Adelaide Metro","network:wikidata":"Q4681753","operator":"Adelaide Metro","public_transport":"stop_position","railway":"station","source":"bing","train":"yes","wikidata":"Q6709526"}},{"type":"node","id":1875312448,"lat":-34.7995318,"lon":138.4991055,"tags":{"name":"Midlunga","network":"Adelaide Metro","network:wikidata":"Q4681753","operator":"Adelaide Metro","public_transport":"station","railway":"station","source":"bing","train":"yes","wikidata":"Q14935738"}},{"type":"node","id":1875312468,"lat":-34.7862504,"lon":138.4947848,"tags":{"name":"North Haven","network":"Adelaide Metro","network:wikidata":"Q4681753","operator":"Adelaide Metro","public_transport":"station","railway":"station","source":"bing","train":"yes"}},{"type":"node","id":1875312477,"lat":-34.7930564,"lon":138.4991809,"tags":{"name":"Osborne","network":"Adelaide Metro","network:wikidata":"Q4681753","operator":"Adelaide Metro","public_transport":"station","railway":"station","source":"bing","train":"yes","wikidata":"Q13656491"}},{"type":"node","id":1875312486,"lat":-34.8491658,"lon":138.5078106,"tags":{"addr:street":"Baynes Place","addr:suburb":"Port Adelaide","internet_access":"no","name":"Port Adelaide","network":"Adelaide Metro","network:wikidata":"Q4681753","operator":"Adelaide Metro","public_transport":"station","railway":"station","source":"bing","toilets:wheelchair":"no","train":"yes","wheelchair":"limited","wikidata":"Q7230458"}},{"type":"node","id":1875312501,"lat":-34.8056096,"lon":138.4990522,"tags":{"name":"Taperoo","network":"Adelaide Metro","network:wikidata":"Q4681753","operator":"Adelaide Metro","public_transport":"station","railway":"station","source":"bing","train":"yes","wikidata":"Q7684546"}},{"type":"node","id":1875312509,"lat":-34.9839227,"lon":138.6110785,"tags":{"name":"Torrens Park","operator":"Adelaide Metro","public_transport":"station","railway":"station","source":"bing","wikidata":"Q7827031"}},{"type":"node","id":1875312529,"lat":-34.9665601,"lon":138.5978512,"tags":{"name":"Unley Park","network":"Adelaide Metro","network:wikidata":"Q4681753","operator":"Adelaide Metro","public_transport":"station","railway":"station","source":"bing","train":"yes","wikidata":"Q7897036","wikipedia":"en:Unley Park railway station"}},{"type":"node","id":2280652430,"lat":-34.8275032,"lon":138.4910972,"tags":{"name":"Largs","network":"Adelaide Metro","network:wikidata":"Q4681753","network:wikipedia":"en:Adelaide Metro","operator":"Adelaide Metro","public_transport":"station","railway":"station","source":"Adelaide Metro;bing","train":"yes","wikidata":"Q6489316"}},{"type":"node","id":2439007327,"lat":-35.2612408,"lon":138.8920365,"tags":{"name":"Strathalbyn","public_transport":"station","railway":"station"}},{"type":"node","id":2583356623,"lat":-34.8707609,"lon":138.5297768,"tags":{"name":"St Clair","public_transport":"station","railway":"station","source:name":"survey"}},{"type":"node","id":4639874258,"lat":-34.8199884,"lon":138.4947938,"tags":{"name":"Largs North","public_transport":"station","railway":"station","wheelchair":"yes","wikidata":"Q6489314"}},{"type":"node","id":4770537643,"lat":-35.0189494,"lon":138.5693022,"tags":{"name":"Flinders","network":"Adelaide Metro","network:wikidata":"Q4681753","operator":"Adelaide Metro","public_transport":"station","railway":"station","train":"yes","wikidata":"Q66614419"}},{"type":"node","id":5182375871,"lat":-34.7781969,"lon":138.4842255,"tags":{"name":"Outer Harbor","network":"Adelaide Metro","network:wikidata":"Q4681753","operator":"Adelaide Metro","public_transport":"station","railway":"station","train":"yes","wikidata":"Q7111977","wikipedia":"en:Outer Harbor railway station"}},{"type":"node","id":5234365897,"lat":-34.9210001,"lon":138.5967672,"tags":{"addr:postcode":"5000","addr:street":"North Terrace","addr:suburb":"Adelaide","name":"Adelaide","network":"Adelaide Metro","network:wikidata":"Q4681753","operator":"Torrens Transit","public_transport":"station","railway":"station","train":"yes","wheelchair":"yes","wikidata":"Q4681770","wikipedia":"en:Adelaide railway station"}},{"type":"node","id":8280175964,"lat":-35.0092044,"lon":138.5672917,"tags":{"name":"Tonsley","network":"Adelaide Metro","network:wikidata":"Q4681753","operator":"Adelaide Metro","public_transport":"station","railway":"station","train":"yes","wikidata":"Q7821677"}},{"type":"node","id":9554894021,"lat":-35.1403105,"lon":138.4922784,"tags":{"name":"Noarlunga Centre","network":"Adelaide Metro","network:wikidata":"Q4681753","operator":"Adelaide Metro","public_transport":"station","railway":"station","train":"yes","wheelchair":"yes","wikidata":"Q7045546"}},{"type":"node","id":12133562215,"lat":-34.8449718,"lon":138.5088995,"tags":{"name":"Port Dock","public_transport":"station","railway":"station","train":"yes"}},{"type":"node","id":53543374,"lat":-34.9380644,"lon":138.5811308,"tags":{"building":"yes","name":"Adelaide Parklands Terminal","operator":"Great Southern Rail","public_transport":"station","railway":"station","train":"yes"}},{"type":"node","id":77749621,"lat":-35.0641619,"lon":138.8638575,"tags":{"building":"train_station","name":"Mount Barker","public_transport":"station","railway":"station","wikidata":"Q6919619","wikipedia":"en:Mount Barker railway station"}},{"type":"node","id":103232737,"lat":-34.8383114,"lon":138.4793959,"tags":{"area":"yes","building":"roof","check_date":"2024-03-30","layer":"1","name":"Semaphore","public_transport":"station","railway":"station","shelter_type":"public_transport","wheelchair":"yes"}},{"type":"node","id":552944757,"lat":-34.9989983,"lon":138.5528297,"tags":{"area":"yes","building":"yes","name":"Marion","network":"Adelaide Metro","network:wikidata":"Q4681753","operator":"Adelaide Metro","public_transport":"station","railway":"station","train":"yes","wikidata":"Q6765465"}},{"type":"node","id":1320023342,"lat":-34.8527048,"lon":138.4768832,"tags":{"area":"yes","building":"roof","layer":"1","name":"Fort Glanville","public_transport":"station","railway":"station"}}]}