{"elements":[{"type":"relation","id":444878,"tags":{"colour":"#A9CC51","from":"大正","name":"Osaka Metro長堀鶴見緑地線","name:en":"Nagahori Tsurumi-Ryokuchi (Taisho --> Kadoma-Minami)","name:ja":"Osaka Metro長堀鶴見緑地線 (大正=>門真南)","network":"大阪市高速電気軌道","network:en":"Osaka Metro","network:ja":"大阪市高速電気軌道","network:wikidata":"Q51211653","operator":"大阪市高速電気軌道","operator:en":"Osaka Metro","public_transport:version":"2","ref":"N","route":"subway","to":"鶴見緑地","type":"route","wikidata":"Q284828","wikipedia":"en:Nagahori Tsurumi-ryokuchi Line"},"members":[{"type":"node","ref":7948033416,"role":"stop"},{"type":"node","ref":7948009754,"role":"stop"},{"type":"node","ref":7948009768,"role":"stop"},{"type":"node","ref":7948009772,"role":"stop"},{"type":"node","ref":7948009777,"role":"stop"},{"type":"node","ref":7948009781,"role":"stop"},{"type":"node","ref":7948033289,"role":"stop"},{"type":"node","ref":7948033299,"role":"stop"},{"type":"node","ref":7948033312,"role":"stop"},{"type":"node","ref":7948033332,"role":"stop"},{"type":"node","ref":7948033342,"role":"stop"},{"type":"node","ref":7948033352,"role":"stop"},{"type":"node","ref":7948033368,"role":"stop"},{"type":"node","ref":7948033374,"role":"stop"},{"type":"node","ref":7948033386,"role":"stop"},{"type":"node","ref":7948033401,"role":"stop"},{"type":"node","ref":7948033417,"role":"stop"}]},{"type":"relation","id":444881,"tags":{"colour":"#019A66","from":"夢洲","from:en":"Yumeshima","name":"Osaka Metro中央線 (夢洲 => 長田)","name:en":"Osaka Municipal Subway Chūō Line (Yumeshima => Nagata)","name:ja":"Osaka Metro中央線 (夢洲 => 長田)","network":"大阪市高速電気軌道","network:en":"Osaka Metro","network:ja":"大阪市高速電気軌道","network:wikidata":"Q51211653","operator":"大阪市高速電気軌道","operator:en":"Osaka Metro","operator:ja":"大阪市高速電気軌道","operator:wikidata":"Q51211653","public_transport:version":"2","ref":"C","route":"subway","to":"長田","to:en":"Nagata","type":"route","wikidata":"Q907700","wikipedia":"en:Osaka Metro Chūō Line"},"members":[{"type":"node","ref":12517912680,"role":"stop"},{"type":"node","ref":6621493574,"role":"stop"},{"type":"node","ref":5470490421,"role":"stop"},{"type":"node","ref":537520677,"role":"stop"},{"type":"node","ref":537520788,"role":"stop"},{"type":"node","ref":537520917,"role":"stop"},{"type":"node","ref":7944112747,"role":"stop"},{"type":"node","ref":7944112740,"role":"stop"},{"type":"node","ref":7944112736,"role":"stop"},{"type":"node","ref":7944112730,"role":"stop"},{"type":"node","ref":7944112719,"role":"stop"},{"type":"node","ref":7944112708,"role":"stop"},{"type":"node","ref":7944112703,"role":"stop"},{"type":"node","ref":7944112692,"role":"stop"},{"type":"node","ref":7944112751,"role":"stop"}]},{"type":"relation","id":444889,"tags":{"colour":"#EE7B1A","name":"Osaka Metro今里筋線","name:en":"Osaka Metro Imazatosuji Line","name:ja":"Osaka Metro今里筋線","network":"大阪市高速電気軌道","network:en":"Osaka Metro","network:ja":"大阪市高速電気軌道","network:wikidata":"Q51211653","operator":"大阪市高速電気軌道","operator:en":"Osaka Metro","public_transport:version":"2","ref":"I","route":"subway","type":"route","wikidata":"Q1066118","wikipedia":"ja:Osaka Metro今里筋線"},"members":[{"type":"node","ref":12508256193,"role":"stop"},{"type":"node","ref":12508256182,"role":"stop"},{"type":"node","ref":12508256192,"role":"stop"},{"type":"node","ref":12508256200,"role":"stop"},{"type":"node","ref":12508282308,"role":"stop"},{"type":"node","ref":12508256179,"role":"stop"},{"type":"node","ref":12508282332,"role":"stop"},{"type":"node","ref":12508282347,"role":"stop"},{"type":"node","ref":12508282371,"role":"stop"},{"type":"node","ref":12508282380,"role":"stop"},{"type":"node","ref":12508282358,"role":"stop"}]},{"type":"relation","id":444891,"tags":{"colour":"#E44D93","from":"野田阪神","from:en":"Nodahanshin","name":"Osaka Metro千日前線 (野田阪神 => 南巽)","name:en":"Osaka Metro Sennichimae Line (Nodahanshin => Minami-Tatsumi)","name:ja":"Osaka Metro千日前線 (野田阪神 => 南巽)","network":"大阪市高速電気軌道","network:en":"Osaka Metro","network:ja":"大阪市高速電気軌道","network:wikidata":"Q51211653","operator":"大阪市高速電気軌道","operator:en":"Osaka Metro","public_transport:version":"2","ref":"S","route":"subway","to":"南巽","to:en":"Minami-Tatsumi","type":"route","wikidata":"Q1073354","wikipedia":"ja:大阪市営地下鉄千日前線"},"members":[{"type":"node","ref":12731300570,"role":"stop"},{"type":"node","ref":12731300577,"role":"stop"},{"type":"node","ref":12731300594,"role":"stop"},{"type":"node","ref":12731312803,"role":"stop"},{"type":"node","ref":12731312819,"role":"stop"},{"type":"node","ref":12731312827,"role":"stop"},{"type":"node","ref":12731312831,"role":"stop"},{"type":"node","ref":12731312840,"role":"stop"},{"type":"node","ref":12731312851,"role":"stop"},{"type":"node","ref":12731312864,"role":"stop"},{"type":"node","ref":12731312877,"role":"stop"},{"type":"node","ref":12731312892,"role":"stop"},{"type":"node","ref":12731312897,"role":"stop"},{"type":"node","ref":12731312903,"role":"stop"}]},{"type":"relation","id":444899,"tags":{"colour":"#0078BE","from":"住之江公園","name":"Osaka Metro四つ橋線","name:en":"Osaka Municipal Subway Yotsubashi Line (Suminoekoen --> Nishi-Umeda)","name:ja":"Osaka Metro四つ橋線 (=>西梅田)","network":"大阪市高速電気軌道","network:en":"Osaka Metro","network:ja":"大阪市高速電気軌道","network:wikidata":"Q51211653","operator":"大阪市高速電気軌道","operator:en":"Osaka Metro","public_transport:version":"2","ref":"Y","route":"subway","to":"西梅田","type":"route","wikidata":"Q1067748","wikipedia":"en:Yotsubashi Line"},"members":[{"type":"node","ref":8005451543,"role":"stop"},{"type":"node","ref":8005451562,"role":"stop"},{"type":"node","ref":8005451576,"role":"stop"},{"type":"node","ref":8005455785,"role":"stop"},{"type":"node","ref":8005455792,"role":"stop"},{"type":"node","ref":8005455801,"role":"stop"},{"type":"node","ref":7893338379,"role":"stop"},{"type":"node","ref":7893381687,"role":"stop"},{"type":"node","ref":7893338347,"role":"stop"},{"type":"node","ref":7893338367,"role":"stop"},{"type":"node","ref":7893338376,"role":"stop"}]},{"type":"relation","id":444905,"tags":{"colour":"#814721","from":"天神橋筋六丁目","name":"Osaka Metro堺筋線","name:de":"U-Bahn Osaka Sakaisuji-Linie","name:en":"Osaka Municipal Subway Sakaisuji Line (Tenjinbashisuji 6-chome --> Tengachaya)","name:ja":"Osaka Metro堺筋線 (天神橋筋六丁目=>天下茶屋)","network":"大阪市高速電気軌道","network:en":"Osaka Metro","network:ja":"大阪市高速電気軌道","network:wikidata":"Q51211653","operator":"大阪市高速電気軌道","operator:en":"Osaka Metro","public_transport:version":"2","ref":"K","route":"subway","to":"天下茶屋","type":"route","wikidata":"Q1143250","wikipedia":"ja:大阪市営地下鉄堺筋線"},"members":[{"type":"node","ref":8260835845,"role":"stop"},{"type":"node","ref":8260835838,"role":"stop"},{"type":"node","ref":8260835833,"role":"stop"},{"type":"node","ref":8260808114,"role":"stop"},{"type":"node","ref":8260808109,"role":"stop"},{"type":"node","ref":8260808105,"role":"stop"},{"type":"node","ref":8260808100,"role":"stop"},{"type":"node","ref":8260808090,"role":"stop"},{"type":"node","ref":8260808084,"role":"stop"},{"type":"node","ref":8260835841,"role":"stop"}]},{"type":"relation","id":444907,"tags":{"colour":"#522886","from":"大日","name":"Osaka Metor谷町線","name:en":"Osaka Metro Tanimachi Line (Yao-Minami --> Dainichi)","name:es":"Línea Tanimachi de Osaka Metro (Yao-Minami --> Dainichi)","name:ja":"Osaka Metor谷町線 (大日=>八尾南)","network":"大阪市高速電気軌道","network:en":"Osaka Metro","network:ja":"大阪市高速電気軌道","network:wikidata":"Q51211653","operator":"大阪市高速電気軌道","public_transport:version":"2","ref":"T","route":"subway","to":"八尾南","type":"route","wikidata":"Q1142773","wikipedia":"ja:大阪市高速電気軌道谷町線"},"members":[{"type":"node","ref":536383273,"role":"stop"},{"type":"node","ref":536383193,"role":"stop"},{"type":"node","ref":549722947,"role":"stop"},{"type":"node","ref":536382857,"role":"stop"},{"type":"node","ref":536382688,"role":"stop"},{"type":"node","ref":536382450,"role":"stop"},{"type":"node","ref":536382242,"role":"stop"},{"type":"node","ref":536381799,"role":"stop"},{"type":"node","ref":536381961,"role":"stop"},{"type":"node","ref":536381581,"role":"stop"},{"type":"node","ref":1964006760,"role":"stop"},{"type":"node","ref":536381568,"role":"stop"},{"type":"node","ref":536381552,"role":"stop"},{"type":"node","ref":536381550,"role":"stop"},{"type":"node","ref":536381546,"role":"stop"},{"type":"node","ref":536381513,"role":"stop"},{"type":"node","ref":536381139,"role":"stop"},{"type":"node","ref":536381110,"role":"stop"},{"type":"node","ref":536381080,"role":"stop"},{"type":"node","ref":536380863,"role":"stop"},{"type":"node","ref":536380877,"role":"stop"},{"type":"node","ref":536380901,"role":"stop"},{"type":"node","ref":536380931,"role":"stop"},{"type":"node","ref":536380916,"role":"stop"},{"type":"node","ref":536380957,"role":"stop"},{"type":"node","ref":536381030,"role":"stop"}]},{"type":"relation","id":1864803,"tags":{"colour":"#65C03A","from":"長田","name":"近畿日本鉄道けいはんな線 普通 (長田 => 学研奈良登美ヶ丘)","name:en":"Kintetsu Keihanna Line Local (Nagata => Gakken-Nara-Tomigaoka)","name:ja":"近畿日本鉄道けいはんな線 普通 (長田 => 学研奈良登美ヶ丘)","name:zh":"近铁京阪奈线 普通车：长田 -> 学研奈良登美丘","network":"大阪市営地下鉄","note":"Extension section of Osaka Metro Chuo Line.","old_name":"東大阪線","old_name:en":"Higashi Osaka Line","operator":"近畿日本鉄道","operator:en":"Kintetsu Railway","operator:ja":"近畿日本鉄道","public_transport:version":"2","ref":"C","route":"subway","to":"学研奈良登美ヶ丘","type":"route","wikidata":"Q1057729","wikipedia":"ja:近鉄けいはんな線"},"members":[{"type":"node","ref":7944112751,"role":"stop"},{"type":"node","ref":7956414221,"role":"stop"},{"type":"node","ref":7956414219,"role":"stop"},{"type":"node","ref":7956414217,"role":"stop"},{"type":"node","ref":7956414214,"role":"stop"},{"type":"node","ref":538727444,"role":"stop"},{"type":"node","ref":7956414211,"role":"stop"},{"type":"node","ref":7956414210,"role":"stop"}]},{"type":"relation","id":2411153,"tags":{"colour":"#E5171F","from":"箕面萱野","from:en":"Minoh-kayano","name":"Osaka Metro御堂筋線 (箕面萱野 => 中百舌鳥)","name:en":"Osaka Metro Midosuji Line (Minoh-kayano → Nakamozu)","name:ja":"Osaka Metro御堂筋線 (箕面萱野 => 中百舌鳥)","name:ko":"오사카고속전기궤도 미도스지선","network":"大阪市高速電気軌道","network:en":"Osaka Metro","network:ja":"大阪市高速電気軌道","network:wikidata":"Q51211653","network:wikipedia":"ja:大阪市高速電気軌道","operator":"大阪市高速電気軌道","operator:en":"Osaka Metro","public_transport:version":"2","ref":"M","route":"subway","subway":"yes","to":"中百舌鳥","to:en":"Nakamozu","type":"route","via":"江坂","via:en":"Esaka","wikidata":"Q1192413","wikipedia":"ja:Osaka Metro御堂筋線"},"members":[{"type":"node","ref":11754833256,"role":"stop"},{"type":"node","ref":5599894640,"role":"stop"},{"type":"node","ref":6734976278,"role":"stop"},{"type":"node","ref":359799583,"role":"stop"},{"type":"node","ref":359799758,"role":"stop"},{"type":"node","ref":7397873166,"role":"stop"},{"type":"node","ref":534123237,"role":"stop"},{"type":"node","ref":4800705875,"role":"stop"},{"type":"node","ref":534123171,"role":"stop"},{"type":"node","ref":7811945033,"role":"stop"},{"type":"node","ref":7811945042,"role":"stop"},{"type":"node","ref":7811945063,"role":"stop"},{"type":"node","ref":7811945066,"role":"stop"},{"type":"node","ref":7811945072,"role":"stop"},{"type":"node","ref":7811945079,"role":"stop"},{"type":"node","ref":7811929023,"role":"stop"},{"type":"node","ref":7811945096,"role":"stop"},{"type":"node","ref":7811929027,"role":"stop"},{"type":"node","ref":7811929049,"role":"stop"},{"type":"node","ref":7811929062,"role":"stop"},{"type":"node","ref":7811929071,"role":"stop"},{"type":"node","ref":7811929079,"role":"stop"},{"type":"node","ref":7811944999,"role":"stop"},{"type":"node","ref":7811945009,"role":"stop"},{"type":"node","ref":7811945026,"role":"stop"}]},{"type":"relation","id":8028803,"tags":{"colour":"#E44D93","from":"南巽","from:en":"Minami-Tatsumi","name":"Osaka Metro千日前線 (南巽 => 野田阪神)","name:en":"Osaka Metro Sennichimae Line (Minami-Tatsumi => Nodahanshin)","name:ja":"Osaka Metro千日前線 (南巽 => 野田阪神)","network":"大阪市高速電気軌道","network:en":"Osaka Metro","network:ja":"大阪市高速電気軌道","network:wikidata":"Q51211653","operator":"大阪市高速電気軌道","operator:en":"Osaka Metro","public_transport:version":"2","ref":"S","route":"subway","to":"野田阪神","to:en":"Nodahanshin","type":"route","wikidata":"Q1073354","wikipedia":"ja:大阪市営地下鉄千日前線"},"members":[{"type":"node","ref":538715734,"role":"stop"},{"type":"node","ref":538715764,"role":"stop"},{"type":"node","ref":538715769,"role":"stop"},{"type":"node","ref":538715786,"role":"stop"},{"type":"node","ref":538715763,"role":"stop"},{"type":"node","ref":538715743,"role":"stop"},{"type":"node","ref":538714986,"role":"stop"},{"type":"node","ref":538715048,"role":"stop"},{"type":"node","ref":538714967,"role":"stop"},{"type":"node","ref":538714962,"role":"stop"},{"type":"node","ref":538715691,"role":"stop"},{"type":"node","ref":538715685,"role":"stop"},{"type":"node","ref":538715541,"role":"stop"},{"type":"node","ref":538715683,"role":"stop"}]},{"type":"relation","id":8028808,"tags":{"colour":"#E5171F","from":"中百舌鳥","from:en":"Nakamozu","name":"Osaka Metro御堂筋線 (中百舌鳥 => 箕面萱野)","name:en":"Osaka Metro Midosuji Line (Nakamozu => Minoh-kayano)","name:ja":"Osaka Metro御堂筋線 (中百舌鳥 => 箕面萱野)","name:ko":"오사카고속전기궤도 미도스지선","network":"大阪市高速電気軌道","network:en":"Osaka Metro","network:ja":"大阪市高速電気軌道","network:wikidata":"Q51211653","network:wikipedia":"ja:大阪市高速電気軌道","operator":"大阪市高速電気軌道","operator:en":"Osaka Metro","public_transport:version":"2","ref":"M","route":"subway","subway":"yes","to":"箕面萱野","to:en":"Minoh-kayano","type":"route","via":"江坂","wikidata":"Q1192413","wikipedia":"en:Midōsuji Line"},"members":[{"type":"node","ref":534121583,"role":"stop"},{"type":"node","ref":534130655,"role":"stop"},{"type":"node","ref":534130395,"role":"stop"},{"type":"node","ref":534122750,"role":"stop"},{"type":"node","ref":534131683,"role":"stop"},{"type":"node","ref":534131313,"role":"stop"},{"type":"node","ref":534132242,"role":"stop"},{"type":"node","ref":534132586,"role":"stop"},{"type":"node","ref":534132524,"role":"stop"},{"type":"node","ref":7811945103,"role":"stop"},{"type":"node","ref":534133830,"role":"stop"},{"type":"node","ref":534133907,"role":"stop"},{"type":"node","ref":5730565139,"role":"stop"},{"type":"node","ref":5732164218,"role":"stop"},{"type":"node","ref":534134923,"role":"stop"},{"type":"node","ref":534135526,"role":"stop"},{"type":"node","ref":7811929015,"role":"stop"},{"type":"node","ref":4800705876,"role":"stop"},{"type":"node","ref":7811945110,"role":"stop"},{"type":"node","ref":7397873167,"role":"stop"},{"type":"node","ref":7811945107,"role":"stop"},{"type":"node","ref":7811945105,"role":"stop"},{"type":"node","ref":7811945104,"role":"stop"},{"type":"node","ref":10819025488,"role":"stop"},{"type":"node","ref":11754833255,"role":"stop"}]},{"type":"relation","id":8028818,"tags":{"colour":"#019A66","from":"長田","from:en":"Nagata","name":"Osaka Metro中央線 (長田 => 夢洲)","name:en":"Osaka Municipal Subway Chūō Line (Nagata => Yumeshima)","name:ja":"Osaka Metro中央線 (長田 => 夢洲)","network":"大阪市高速電気軌道","network:en":"Osaka Metro","network:ja":"大阪市高速電気軌道","network:wikidata":"Q51211653","operator":"大阪市高速電気軌道","operator:en":"Osaka Metro","operator:ja":"大阪市高速電気軌道","operator:wikidata":"Q51211653","public_transport:version":"2","ref":"C","route":"subway","to":"夢洲","to:en":"Yumeshima","type":"route","wikidata":"Q907700","wikipedia":"en:Osaka Metro Chūō Line"},"members":[{"type":"node","ref":537521167,"role":"stop"},{"type":"node","ref":537521160,"role":"stop"},{"type":"node","ref":537521143,"role":"stop"},{"type":"node","ref":537521131,"role":"stop"},{"type":"node","ref":537521123,"role":"stop"},{"type":"node","ref":537521116,"role":"stop"},{"type":"node","ref":537521118,"role":"stop"},{"type":"node","ref":537520970,"role":"stop"},{"type":"node","ref":537520958,"role":"stop"},{"type":"node","ref":1457300465,"role":"stop"},{"type":"node","ref":7756610829,"role":"stop"},{"type":"node","ref":1455848417,"role":"stop"},{"type":"node","ref":5647131994,"role":"stop"},{"type":"node","ref":6621530410,"role":"stop"},{"type":"node","ref":12517912681,"role":"stop"}]},{"type":"relation","id":8028827,"tags":{"colour":"#EE7B1A","name":"Osaka Metro今里筋線","name:en":"Osaka Metro Imazatosuji Line (Imazato --> Itakano)","name:ja":"Osaka Metro今里筋線","network":"大阪市高速電気軌道","network:en":"Osaka Metro","network:ja":"大阪市高速電気軌道","network:wikidata":"Q51211653","operator":"大阪市高速電気軌道","operator:en":"Osaka Metro","public_transport:version":"2","ref":"I","route":"subway","type":"route","wikidata":"Q1066118","wikipedia":"ja:Osaka Metro今里筋線"},"members":[{"type":"node","ref":538724663,"role":"stop"},{"type":"node","ref":538724645,"role":"stop"},{"type":"node","ref":538724639,"role":"stop"},{"type":"node","ref":538724478,"role":"stop"},{"type":"node","ref":538724214,"role":"stop"},{"type":"node","ref":538724212,"role":"stop"},{"type":"node","ref":538724186,"role":"stop"},{"type":"node","ref":538724159,"role":"stop"},{"type":"node","ref":538724140,"role":"stop"},{"type":"node","ref":538724124,"role":"stop"},{"type":"node","ref":538724115,"role":"stop"}]},{"type":"relation","id":8028830,"tags":{"colour":"#814721","from":"天下茶屋","name":"Osaka Metro堺筋線","name:de":"U-Bahn Osaka Sakaisuji-Linie","name:en":"Osaka Municipal Subway Sakaisuji Line (Tengachaya --> Tenjinbashisuji 6-chome)","name:ja":"Osaka Metro堺筋線 (天下茶屋=>天神橋筋六丁目)","network":"大阪市高速電気軌道","network:en":"Osaka Metro","network:ja":"大阪市高速電気軌道","network:wikidata":"Q51211653","operator":"大阪市高速電気軌道","operator:en":"Osaka Metro","public_transport:version":"2","ref":"K","route":"subway","to":"天神橋筋六丁目","type":"route","wikidata":"Q1143250","wikipedia":"ja:大阪市営地下鉄堺筋線"},"members":[{"type":"node","ref":538718233,"role":"stop"},{"type":"node","ref":538718289,"role":"stop"},{"type":"node","ref":538718294,"role":"stop"},{"type":"node","ref":538718325,"role":"stop"},{"type":"node","ref":538718331,"role":"stop"},{"type":"node","ref":538718337,"role":"stop"},{"type":"node","ref":538718386,"role":"stop"},{"type":"node","ref":536381594,"role":"stop"},{"type":"node","ref":538718392,"role":"stop"},{"type":"node","ref":4451435044,"role":"stop"}]},{"type":"relation","id":8028831,"tags":{"colour":"#A9CC51","name":"Osaka Metro長堀鶴見緑地線","name:en":"Nagahori Tsurumi-Ryokuchi (Kadoma-Minami --> Taisho)","name:ja":"Osaka Metro長堀鶴見緑地線 (門真南=>大正)","network":"大阪市高速電気軌道","network:en":"Osaka Metro","network:ja":"大阪市高速電気軌道","network:wikidata":"Q51211653","network:wikipedia":"ja:大阪市高速電気軌道","operator":"大阪市高速電気軌道","operator:en":"Osaka Metro","public_transport:version":"2","ref":"N","route":"subway","type":"route","wikidata":"Q284828","wikipedia":"en:Nagahori Tsurumi-ryokuchi Line"},"members":[{"type":"node","ref":538722362,"role":"stop"},{"type":"node","ref":538722148,"role":"stop"},{"type":"node","ref":538722089,"role":"stop"},{"type":"node","ref":538721773,"role":"stop"},{"type":"node","ref":538721772,"role":"stop"},{"type":"node","ref":538721743,"role":"stop"},{"type":"node","ref":538721710,"role":"stop"},{"type":"node","ref":538721697,"role":"stop"},{"type":"node","ref":538721634,"role":"stop"},{"type":"node","ref":538721576,"role":"stop"},{"type":"node","ref":538721499,"role":"stop"},{"type":"node","ref":538721524,"role":"stop"},{"type":"node","ref":538721475,"role":"stop"},{"type":"node","ref":538721479,"role":"stop"},{"type":"node","ref":538721465,"role":"stop"},{"type":"node","ref":538721427,"role":"stop"},{"type":"node","ref":538721423,"role":"stop"}]},{"type":"relation","id":8028854,"tags":{"colour":"#0078BE","from":"西梅田","name":"Osaka Metro四つ橋線","name:en":"Osaka Municipal Subway Yotsubashi Line (Nishi-Umeda --> Suminoekoen)","name:ja":"Osaka Metro四つ橋線 (西梅田=>)","network":"大阪市高速電気軌道","network:en":"Osaka Metro","network:ja":"大阪市高速電気軌道","network:wikidata":"Q51211653","operator":"大阪市高速電気軌道","operator:en":"Osaka Metro","public_transport:version":"2","ref":"Y","route":"subway","to":"住之江公園","type":"route","wikidata":"Q1067748","wikipedia":"en:Yotsubashi Line"},"members":[{"type":"node","ref":537510157,"role":"stop"},{"type":"node","ref":537510155,"role":"stop"},{"type":"node","ref":5730564865,"role":"stop"},{"type":"node","ref":537510136,"role":"stop"},{"type":"node","ref":537510121,"role":"stop"},{"type":"node","ref":537510090,"role":"stop"},{"type":"node","ref":537509994,"role":"stop"},{"type":"node","ref":537510029,"role":"stop"},{"type":"node","ref":537509992,"role":"stop"},{"type":"node","ref":537509959,"role":"stop"},{"type":"node","ref":537509926,"role":"stop"}]},{"type":"relation","id":8028880,"tags":{"colour":"#522886","from":"八尾南","name":"Osaka Metor谷町線","name:de":"U-Bahn Osaka Tanimachi-Linie","name:en":"Osaka Metro Tanimachi Line (Dainichi --> Yao-Minami)","name:es":"Línea Tanimachi de Osaka Metro (Dainichi --> Yao-Minami)","name:ja":"Osaka Metor谷町線 (八尾南=>大日)","network":"大阪市高速電気軌道","network:en":"Osaka Metro","network:ja":"大阪市高速電気軌道","network:wikidata":"Q51211653","operator":"大阪市高速電気軌道","public_transport:version":"2","ref":"T","route":"subway","to":"大日","type":"route","wikidata":"Q1142773","wikipedia":"en:Tanimachi Line"},"members":[{"type":"node","ref":8256777207,"role":"stop"},{"type":"node","ref":8256784426,"role":"stop"},{"type":"node","ref":8256784443,"role":"stop"},{"type":"node","ref":8256784449,"role":"stop"},{"type":"node","ref":8256784466,"role":"stop"},{"type":"node","ref":8256784487,"role":"stop"},{"type":"node","ref":8256784498,"role":"stop"},{"type":"node","ref":8256784504,"role":"stop"},{"type":"node","ref":8256784521,"role":"stop"},{"type":"node","ref":8256784526,"role":"stop"},{"type":"node","ref":8256784539,"role":"stop"},{"type":"node","ref":8256784543,"role":"stop"},{"type":"node","ref":8256784551,"role":"stop"},{"type":"node","ref":8256784555,"role":"stop"},{"type":"node","ref":8256784561,"role":"stop"},{"type":"node","ref":8256784380,"role":"stop"},{"type":"node","ref":8256784392,"role":"stop"},{"type":"node","ref":8256784405,"role":"stop"},{"type":"node","ref":8256784378,"role":"stop"},{"type":"node","ref":8256784325,"role":"stop"},{"type":"node","ref":8256784337,"role":"stop"},{"type":"node","ref":8256784347,"role":"stop"},{"type":"node","ref":8256784354,"role":"stop"},{"type":"node","ref":8256784363,"role":"stop"},{"type":"node","ref":8256784369,"role":"stop"},{"type":"node","ref":8256784578,"role":"stop"}]},{"type":"relation","id":10258968,"tags":{"colour":"#65c03a","from":"学研奈良登美ヶ丘","name":"近畿日本鉄道けいはんな線 普通 (学研奈良登美ヶ丘 => 長田)","name:en":"Kintetsu Keihanna Line Local (Gakken-Nara-Tomigaoka => Nagata)","name:ja":"近畿日本鉄道けいはんな線 普通 (学研奈良登美ヶ丘 => 長田)","name:zh":"近铁京阪奈线 普通车：学研奈良登美丘 -> 长田","network":"大阪市営地下鉄","note":"Extension section of Osaka Metro Chuo Line.","old_name":"東大阪線","old_name:en":"Higashi Osaka Line","operator":"近畿日本鉄道","operator:en":"Kintetsu Railway","operator:ja":"近畿日本鉄道","public_transport:version":"2","ref":"C","route":"subway","to":"長田","type":"route","wikidata":"Q1057729","wikipedia":"ja:近鉄けいはんな線"},"members":[{"type":"node","ref":7956414209,"role":"stop"},{"type":"node","ref":7956414212,"role":"stop"},{"type":"node","ref":4451876477,"role":"stop"},{"type":"node","ref":7956414213,"role":"stop"},{"type":"node","ref":7956414218,"role":"stop"},{"type":"node","ref":4451970055,"role":"stop"},{"type":"node","ref":537521167,"role":"stop"}]},{"type":"relation","id":18943760,"tags":{"colour":"#019A66","from":"森ノ宮","from:en":"Morinomiya","name":"Osaka Metro中央線 (森ノ宮 => 夢洲)","name:en":"Osaka Municipal Subway Chūō Line (Morinomiya => Yumeshima)","name:ja":"Osaka Metro中央線 (森ノ宮 => 夢洲)","network":"大阪市高速電気軌道","network:en":"Osaka Metro","network:ja":"大阪市高速電気軌道","network:wikidata":"Q51211653","operator":"大阪市高速電気軌道","operator:en":"Osaka Metro","operator:ja":"大阪市高速電気軌道","operator:wikidata":"Q51211653","public_transport:version":"2","ref":"C","route":"subway","to":"夢洲","to:en":"Yumeshima","type":"route","wikidata":"Q907700","wikipedia":"en:Osaka Metro Chūō Line"},"members":[{"type":"node","ref":537521123,"role":"stop"},{"type":"node","ref":537521116,"role":"stop"},{"type":"node","ref":537521118,"role":"stop"},{"type":"node","ref":537520970,"role":"stop"},{"type":"node","ref":537520958,"role":"stop"},{"type":"node","ref":1457300465,"role":"stop"},{"type":"node","ref":7756610829,"role":"stop"},{"type":"node","ref":1455848417,"role":"stop"},{"type":"node","ref":5647131994,"role":"stop"},{"type":"node","ref":6621530410,"role":"stop"},{"type":"node","ref":12517912681,"role":"stop"}]},{"type":"relation","id":18943761,"tags":{"colour":"#019A66","from":"夢洲","from:en":"Yumeshima","name":"Osaka Metro中央線 (夢洲 => 森ノ宮)","name:en":"Osaka Municipal Subway Chūō Line (Yumeshima => Morinomiya)","name:ja":"Osaka Metro中央線 (夢洲 => 森ノ宮)","network":"大阪市高速電気軌道","network:en":"Osaka Metro","network:ja":"大阪市高速電気軌道","network:wikidata":"Q51211653","operator":"大阪市高速電気軌道","operator:en":"Osaka Metro","operator:ja":"大阪市高速電気軌道","operator:wikidata":"Q51211653","public_transport:version":"2","ref":"C","route":"subway","to":"森ノ宮","to:en":"Morinomiya","type":"route","wikidata":"Q907700","wikipedia":"en:Osaka Metro Chūō Line"},"members":[{"type":"node","ref":12517912680,"role":"stop"},{"type":"node","ref":6621493574,"role":"stop"},{"type":"node","ref":5470490421,"role":"stop"},{"type":"node","ref":537520677,"role":"stop"},{"type":"node","ref":537520788,"role":"stop"},{"type":"node","ref":537520917,"role":"stop"},{"type":"node","ref":7944112747,"role":"stop"},{"type":"node","ref":7944112740,"role":"stop"},{"type":"node","ref":7944112736,"role":"stop"},{"type":"node","ref":7944112730,"role":"stop"},{"type":"node","ref":7944112719,"role":"stop"}]},{"type":"node","id":359799583,"lat":34.7931201,"lon":135.497377},{"type":"node","id":359799758,"lat":34.7754202,"lon":135.4954007},{"type":"node","id":534121583,"lat":34.5563183,"lon":135.5062171},{"type":"node","id":534122750,"lat":34.5990799,"lon":135.5127578},{"type":"node","id":534123171,"lat":34.7266367,"lon":135.4986182},{"type":"node","id":534123237,"lat":34.7411464,"lon":135.4985642},{"type":"node","id":534130395,"lat":34.5822808,"lon":135.5163859},{"type":"node","id":534130655,"lat":34.5684912,"lon":135.5153348},{"type":"node","id":534131313,"lat":34.6215571,"lon":135.5151276},{"type":"node","id":534131683,"lat":34.6090185,"lon":135.5136618},{"type":"node","id":534132242,"lat":34.6331295,"lon":135.5168954},{"type":"node","id":534132524,"lat":34.6487647,"lon":135.5045366},{"type":"node","id":534132586,"lat":34.6460113,"lon":135.5152402},{"type":"node","id":534133830,"lat":34.6661576,"lon":135.5002425},{"type":"node","id":534133907,"lat":34.6745168,"lon":135.500328},{"type":"node","id":534134923,"lat":34.7034091,"lon":135.4975597},{"type":"node","id":534135526,"lat":34.7110541,"lon":135.4968116},{"type":"node","id":536380863,"lat":34.6288002,"lon":135.5250317},{"type":"node","id":536380877,"lat":34.6216708,"lon":135.5325144},{"type":"node","id":536380901,"lat":34.6212802,"lon":135.5485984},{"type":"node","id":536380916,"lat":34.60905,"lon":135.5652331},{"type":"node","id":536380931,"lat":34.6092165,"lon":135.5513631},{"type":"node","id":536380957,"lat":34.6029066,"lon":135.573698},{"type":"node","id":536381030,"lat":34.5973754,"lon":135.5825224},{"type":"node","id":536381080,"lat":34.636174,"lon":135.5180147},{"type":"node","id":536381110,"lat":34.6424824,"lon":135.512018},{"type":"node","id":536381139,"lat":34.6494263,"lon":135.5135657},{"type":"node","id":536381513,"lat":34.6588133,"lon":135.5142748},{"type":"node","id":536381546,"lat":34.6670802,"lon":135.515867},{"type":"node","id":536381550,"lat":34.6751043,"lon":135.5170953},{"type":"node","id":536381552,"lat":34.6823572,"lon":135.5173427},{"type":"node","id":536381568,"lat":34.6897207,"lon":135.5173037},{"type":"node","id":536381581,"lat":34.7005975,"lon":135.4998423},{"type":"node","id":536381594,"lat":34.6975763,"lon":135.5109758},{"type":"node","id":536381799,"lat":34.710632,"lon":135.5118369},{"type":"node","id":536381961,"lat":34.7072106,"lon":135.5056426},{"type":"node","id":536382242,"lat":34.7089478,"lon":135.5258614},{"type":"node","id":536382450,"lat":34.7093749,"lon":135.5385999},{"type":"node","id":536382688,"lat":34.7153142,"lon":135.5458363},{"type":"node","id":536382857,"lat":34.7242152,"lon":135.549279},{"type":"node","id":536383193,"lat":34.7384473,"lon":135.5644017},{"type":"node","id":536383273,"lat":34.7498446,"lon":135.5787996},{"type":"node","id":537509926,"lat":34.6087382,"lon":135.473121},{"type":"node","id":537509959,"lat":34.6212875,"lon":135.4794184},{"type":"node","id":537509992,"lat":34.6237757,"lon":135.4904379},{"type":"node","id":537509994,"lat":34.6442802,"lon":135.4966066},{"type":"node","id":537510029,"lat":34.634409,"lon":135.493888},{"type":"node","id":537510090,"lat":34.6562417,"lon":135.4978977},{"type":"node","id":537510121,"lat":34.6663446,"lon":135.4976228},{"type":"node","id":537510136,"lat":34.6740351,"lon":135.496782},{"type":"node","id":537510155,"lat":34.6914998,"lon":135.4963627},{"type":"node","id":537510157,"lat":34.699483,"lon":135.4956763},{"type":"node","id":537520677,"lat":34.66087,"lon":135.448799},{"type":"node","id":537520788,"lat":34.6684336,"lon":135.4620861},{"type":"node","id":537520917,"lat":34.675318,"lon":135.473524},{"type":"node","id":537520958,"lat":34.6813385,"lon":135.4880951},{"type":"node","id":537520970,"lat":34.681998,"lon":135.4987211},{"type":"node","id":537521116,"lat":34.6814302,"lon":135.517465},{"type":"node","id":537521118,"lat":34.6818551,"lon":135.5069325},{"type":"node","id":537521123,"lat":34.6814583,"lon":135.5320332},{"type":"node","id":537521131,"lat":34.6806358,"lon":135.545739},{"type":"node","id":537521143,"lat":34.6790916,"lon":135.5574489},{"type":"node","id":537521160,"lat":34.6783601,"lon":135.5719276},{"type":"node","id":537521167,"lat":34.6787381,"lon":135.5910595},{"type":"node","id":538714962,"lat":34.6682826,"lon":135.4902618},{"type":"node","id":538714967,"lat":34.6671933,"lon":135.4997165},{"type":"node","id":538714986,"lat":34.6664922,"lon":135.5169829},{"type":"node","id":538715048,"lat":34.6670786,"lon":135.5064058},{"type":"node","id":538715541,"lat":34.6895401,"lon":135.4761741},{"type":"node","id":538715683,"lat":34.694371,"lon":135.4748438},{"type":"node","id":538715685,"lat":34.6816242,"lon":135.4862184},{"type":"node","id":538715691,"lat":34.6738921,"lon":135.4869799},{"type":"node","id":538715734,"lat":34.6425052,"lon":135.5530849},{"type":"node","id":538715743,"lat":34.6659535,"lon":135.5290573},{"type":"node","id":538715763,"lat":34.6686947,"lon":135.5439907},{"type":"node","id":538715764,"lat":34.653507,"lon":135.5550118},{"type":"node","id":538715769,"lat":34.661432,"lon":135.5562543},{"type":"node","id":538715786,"lat":34.6681632,"lon":135.5543001},{"type":"node","id":538718233,"lat":34.637686,"lon":135.4971083},{"type":"node","id":538718289,"lat":34.6486679,"lon":135.5035212},{"type":"node","id":538718294,"lat":34.6556032,"lon":135.5056325},{"type":"node","id":538718325,"lat":34.6667194,"lon":135.5061213},{"type":"node","id":538718331,"lat":34.6748575,"lon":135.506291},{"type":"node","id":538718337,"lat":34.6826204,"lon":135.5064317},{"type":"node","id":538718386,"lat":34.6911743,"lon":135.5065498},{"type":"node","id":538718392,"lat":34.704475,"lon":135.5108165},{"type":"node","id":538721423,"lat":34.665509,"lon":135.4786099},{"type":"node","id":538721427,"lat":34.6714438,"lon":135.4795155},{"type":"node","id":538721465,"lat":34.6756856,"lon":135.4869091},{"type":"node","id":538721475,"lat":34.6753372,"lon":135.4991998},{"type":"node","id":538721479,"lat":34.6754786,"lon":135.4944713},{"type":"node","id":538721499,"lat":34.6753937,"lon":135.5122307},{"type":"node","id":538721524,"lat":34.6752768,"lon":135.506437},{"type":"node","id":538721576,"lat":34.6759996,"lon":135.518135},{"type":"node","id":538721634,"lat":34.6745896,"lon":135.530474},{"type":"node","id":538721697,"lat":34.6821935,"lon":135.5334135},{"type":"node","id":538721710,"lat":34.6924236,"lon":135.5295012},{"type":"node","id":538721743,"lat":34.6975502,"lon":135.5305398},{"type":"node","id":538721772,"lat":34.7005412,"lon":135.548485},{"type":"node","id":538721773,"lat":34.7019495,"lon":135.5599007},{"type":"node","id":538722089,"lat":34.7036117,"lon":135.5734194},{"type":"node","id":538722148,"lat":34.7109324,"lon":135.5806954},{"type":"node","id":538722362,"lat":34.7170398,"lon":135.5931108},{"type":"node","id":538724115,"lat":34.670162,"lon":135.5430853},{"type":"node","id":538724124,"lat":34.6814409,"lon":135.5446355},{"type":"node","id":538724140,"lat":34.6930234,"lon":135.5461967},{"type":"node","id":538724159,"lat":34.7009652,"lon":135.5463214},{"type":"node","id":538724186,"lat":34.7130989,"lon":135.546479},{"type":"node","id":538724212,"lat":34.7152361,"lon":135.5583012},{"type":"node","id":538724214,"lat":34.7222675,"lon":135.5608359},{"type":"node","id":538724478,"lat":34.7313068,"lon":135.5562505},{"type":"node","id":538724639,"lat":34.7439496,"lon":135.5445589},{"type":"node","id":538724645,"lat":34.7522052,"lon":135.5445776},{"type":"node","id":538724663,"lat":34.7600012,"lon":135.5472837},{"type":"node","id":538727444,"lat":34.7210306,"lon":135.7167792},{"type":"node","id":549722947,"lat":34.7312073,"lon":135.5547161},{"type":"node","id":1455848417,"lat":34.6608536,"lon":135.4488366},{"type":"node","id":1457300465,"lat":34.6752934,"lon":135.4735453},{"type":"node","id":1964006760,"lat":34.6976429,"lon":135.5111732},{"type":"node","id":4451435044,"lat":34.7098048,"lon":135.5106908},{"type":"node","id":4451876477,"lat":34.7210103,"lon":135.7168012},{"type":"node","id":4451970055,"lat":34.678583,"lon":135.604899},{"type":"node","id":4800705875,"lat":34.7328996,"lon":135.4986181},{"type":"node","id":4800705876,"lat":34.7328914,"lon":135.498469},{"type":"node","id":5470490421,"lat":34.6539654,"lon":135.4344007},{"type":"node","id":5599894640,"lat":34.8218342,"lon":135.4902827},{"type":"node","id":5647131994,"lat":34.6538844,"lon":135.4344367},{"type":"node","id":5730564865,"lat":34.6827698,"lon":135.4969235},{"type":"node","id":5730565139,"lat":34.6835429,"lon":135.5006457},{"type":"node","id":5732164218,"lat":34.6916363,"lon":135.5009259},{"type":"node","id":6621493574,"lat":34.6426716,"lon":135.4121727},{"type":"node","id":6621530410,"lat":34.6425613,"lon":135.412233},{"type":"node","id":6734976278,"lat":34.8098942,"lon":135.495112},{"type":"node","id":7397873166,"lat":34.7588638,"lon":135.4971624},{"type":"node","id":7397873167,"lat":34.7588648,"lon":135.4970353},{"type":"node","id":7756610829,"lat":34.6684026,"lon":135.4621007},{"type":"node","id":7811929015,"lat":34.7266373,"lon":135.4985747},{"type":"node","id":7811929023,"lat":34.6562418,"lon":135.4979568},{"type":"node","id":7811929027,"lat":34.6460991,"lon":135.515278},{"type":"node","id":7811929049,"lat":34.6331228,"lon":135.5169549},{"type":"node","id":7811929062,"lat":34.6215517,"lon":135.5151872},{"type":"node","id":7811929071,"lat":34.6090138,"lon":135.5137176},{"type":"node","id":7811929079,"lat":34.5990834,"lon":135.5128122},{"type":"node","id":7811944999,"lat":34.5822821,"lon":135.5164364},{"type":"node","id":7811945009,"lat":34.5684803,"lon":135.5153965},{"type":"node","id":7811945026,"lat":34.5562904,"lon":135.5062575},{"type":"node","id":7811945033,"lat":34.711026,"lon":135.4968501},{"type":"node","id":7811945042,"lat":34.7034172,"lon":135.4976136},{"type":"node","id":7811945063,"lat":34.6916379,"lon":135.5009817},{"type":"node","id":7811945066,"lat":34.6835415,"lon":135.5006949},{"type":"node","id":7811945072,"lat":34.6745178,"lon":135.5003852},{"type":"node","id":7811945079,"lat":34.6661554,"lon":135.5002995},{"type":"node","id":7811945096,"lat":34.6488146,"lon":135.5045554},{"type":"node","id":7811945103,"lat":34.6562413,"lon":135.4977793},{"type":"node","id":7811945104,"lat":34.8098982,"lon":135.4949855},{"type":"node","id":7811945105,"lat":34.7931051,"lon":135.4972611},{"type":"node","id":7811945107,"lat":34.7754251,"lon":135.4953576},{"type":"node","id":7811945110,"lat":34.7411509,"lon":135.4984468},{"type":"node","id":7893338347,"lat":34.6827731,"lon":135.4968712},{"type":"node","id":7893338367,"lat":34.691495,"lon":135.4963139},{"type":"node","id":7893338376,"lat":34.6994836,"lon":135.4956212},{"type":"node","id":7893338379,"lat":34.666319,"lon":135.4975716},{"type":"node","id":7893381687,"lat":34.6740381,"lon":135.4967318},{"type":"node","id":7944112692,"lat":34.6784001,"lon":135.5719206},{"type":"node","id":7944112703,"lat":34.6791315,"lon":135.5574567},{"type":"node","id":7944112708,"lat":34.6806757,"lon":135.5457466},{"type":"node","id":7944112719,"lat":34.6814987,"lon":135.5320338},{"type":"node","id":7944112730,"lat":34.6814704,"lon":135.5174698},{"type":"node","id":7944112736,"lat":34.6818955,"lon":135.5069338},{"type":"node","id":7944112740,"lat":34.6820385,"lon":135.49872},{"type":"node","id":7944112747,"lat":34.6813788,"lon":135.488091},{"type":"node","id":7944112751,"lat":34.6787791,"lon":135.5910607},{"type":"node","id":7948009754,"lat":34.6714613,"lon":135.4794668},{"type":"node","id":7948009768,"lat":34.6757278,"lon":135.4869076},{"type":"node","id":7948009772,"lat":34.6755169,"lon":135.4944753},{"type":"node","id":7948009777,"lat":34.6753751,"lon":135.4992026},{"type":"node","id":7948009781,"lat":34.6753201,"lon":135.5064405},{"type":"node","id":7948033289,"lat":34.6754413,"lon":135.5122159},{"type":"node","id":7948033299,"lat":34.676049,"lon":135.5181338},{"type":"node","id":7948033312,"lat":34.6746356,"lon":135.5304734},{"type":"node","id":7948033332,"lat":34.6821897,"lon":135.5333548},{"type":"node","id":7948033342,"lat":34.6924039,"lon":135.5294491},{"type":"node","id":7948033352,"lat":34.6975755,"lon":135.5305022},{"type":"node","id":7948033368,"lat":34.7005788,"lon":135.5484762},{"type":"node","id":7948033374,"lat":34.7019967,"lon":135.5598873},{"type":"node","id":7948033386,"lat":34.7036534,"lon":135.5734082},{"type":"node","id":7948033401,"lat":34.7109587,"lon":135.5806204},{"type":"node","id":7948033416,"lat":34.6655282,"lon":135.4785502},{"type":"node","id":7948033417,"lat":34.7170733,"lon":135.5930846},{"type":"node","id":7956414209,"lat":34.7264941,"lon":135.752186},{"type":"node","id":7956414210,"lat":34.7266192,"lon":135.7521799},{"type":"node","id":7956414211,"lat":34.7248341,"lon":135.7232261},{"type":"node","id":7956414212,"lat":34.7248154,"lon":135.7232483},{"type":"node","id":7956414213,"lat":34.6932723,"lon":135.6980818},{"type":"node","id":7956414214,"lat":34.6933716,"lon":135.6980683},{"type":"node","id":7956414217,"lat":34.6802344,"lon":135.640881},{"type":"node","id":7956414218,"lat":34.6802493,"lon":135.6230088},{"type":"node","id":7956414219,"lat":34.6802873,"lon":135.6230041},{"type":"node","id":7956414221,"lat":34.678627,"lon":135.6048978},{"type":"node","id":8005451543,"lat":34.60874,"lon":135.4730773},{"type":"node","id":8005451562,"lat":34.6213305,"lon":135.4794095},{"type":"node","id":8005451576,"lat":34.6237848,"lon":135.4903816},{"type":"node","id":8005455785,"lat":34.6344204,"lon":135.4938351},{"type":"node","id":8005455792,"lat":34.6442969,"lon":135.4965462},{"type":"node","id":8005455801,"lat":34.6562415,"lon":135.4978373},{"type":"node","id":8256777207,"lat":34.5972801,"lon":135.5825081},{"type":"node","id":8256784325,"lat":34.708993,"lon":135.5258559},{"type":"node","id":8256784337,"lat":34.709411,"lon":135.5385567},{"type":"node","id":8256784347,"lat":34.7153528,"lon":135.5458083},{"type":"node","id":8256784354,"lat":34.7242281,"lon":135.5492267},{"type":"node","id":8256784363,"lat":34.7312416,"lon":135.5546809},{"type":"node","id":8256784369,"lat":34.7384796,"lon":135.5643638},{"type":"node","id":8256784378,"lat":34.7106906,"lon":135.5118787},{"type":"node","id":8256784380,"lat":34.697555,"lon":135.511164},{"type":"node","id":8256784392,"lat":34.7005887,"lon":135.4997884},{"type":"node","id":8256784405,"lat":34.7072428,"lon":135.5056046},{"type":"node","id":8256784426,"lat":34.6028996,"lon":135.573644},{"type":"node","id":8256784443,"lat":34.6090051,"lon":135.5652295},{"type":"node","id":8256784449,"lat":34.6091716,"lon":135.5513607},{"type":"node","id":8256784466,"lat":34.6212646,"lon":135.5485471},{"type":"node","id":8256784487,"lat":34.6216265,"lon":135.5324965},{"type":"node","id":8256784498,"lat":34.6287747,"lon":135.5249873},{"type":"node","id":8256784504,"lat":34.6361462,"lon":135.5179718},{"type":"node","id":8256784521,"lat":34.6424929,"lon":135.5119649},{"type":"node","id":8256784526,"lat":34.6494344,"lon":135.5135119},{"type":"node","id":8256784539,"lat":34.6588196,"lon":135.5142208},{"type":"node","id":8256784543,"lat":34.6670886,"lon":135.5158133},{"type":"node","id":8256784551,"lat":34.6751068,"lon":135.5170408},{"type":"node","id":8256784555,"lat":34.6823578,"lon":135.5172881},{"type":"node","id":8256784561,"lat":34.68972,"lon":135.517245},{"type":"node","id":8256784578,"lat":34.7498774,"lon":135.578761},{"type":"node","id":8260808084,"lat":34.6486554,"lon":135.5035793},{"type":"node","id":8260808090,"lat":34.6555986,"lon":135.5056863},{"type":"node","id":8260808100,"lat":34.6667178,"lon":135.5061814},{"type":"node","id":8260808105,"lat":34.6748567,"lon":135.5063511},{"type":"node","id":8260808109,"lat":34.6826169,"lon":135.5064858},{"type":"node","id":8260808114,"lat":34.6911709,"lon":135.5066098},{"type":"node","id":8260835833,"lat":34.6975768,"lon":135.5110359},{"type":"node","id":8260835838,"lat":34.7044749,"lon":135.5108719},{"type":"node","id":8260835841,"lat":34.6376745,"lon":135.4971668},{"type":"node","id":8260835845,"lat":34.7098099,"lon":135.5108581},{"type":"node","id":10819025488,"lat":34.821804,"lon":135.4901777},{"type":"node","id":11754833255,"lat":34.8313732,"lon":135.4889956},{"type":"node","id":11754833256,"lat":34.8313768,"lon":135.4891286},{"type":"node","id":12508256179,"lat":34.7152855,"lon":135.5583018},{"type":"node","id":12508256182,"lat":34.6814459,"lon":135.5445946},{"type":"node","id":12508256192,"lat":34.6930286,"lon":135.546139},{"type":"node","id":12508256193,"lat":34.6701679,"lon":135.5430271},{"type":"node","id":12508256200,"lat":34.7009642,"lon":135.5462694},{"type":"node","id":12508282308,"lat":34.7130898,"lon":135.5464176},{"type":"node","id":12508282332,"lat":34.7222702,"lon":135.5607758},{"type":"node","id":12508282347,"lat":34.7312741,"lon":135.5562082},{"type":"node","id":12508282358,"lat":34.7600039,"lon":135.5472368},{"type":"node","id":12508282371,"lat":34.7439168,"lon":135.5445246},{"type":"node","id":12508282380,"lat":34.7522157,"lon":135.5445284},{"type":"node","id":12517912680,"lat":34.6529239,"lon":135.3905899},{"type":"node","id":12517912681,"lat":34.6529931,"lon":135.3904761},{"type":"node","id":12731300570,"lat":34.6943695,"lon":135.4748985},{"type":"node","id":12731300577,"lat":34.6895606,"lon":135.4762235},{"type":"node","id":12731300594,"lat":34.6816405,"lon":135.4862832},{"type":"node","id":12731312803,"lat":34.6738961,"lon":135.4870355},{"type":"node","id":12731312819,"lat":34.6683295,"lon":135.4902676},{"type":"node","id":12731312827,"lat":34.6673048,"lon":135.499725},{"type":"node","id":12731312831,"lat":34.6671823,"lon":135.5064158},{"type":"node","id":12731312840,"lat":34.6666275,"lon":135.5170079},{"type":"node","id":12731312851,"lat":34.6660004,"lon":135.5290604},{"type":"node","id":12731312864,"lat":34.6687376,"lon":135.544007},{"type":"node","id":12731312877,"lat":34.6682059,"lon":135.5542946},{"type":"node","id":12731312892,"lat":34.6614304,"lon":135.5563086},{"type":"node","id":12731312897,"lat":34.6535005,"lon":135.5550657},{"type":"node","id":12731312903,"lat":34.6424907,"lon":135.5531358}]}