{"elements":[{"type":"node","id":30486750,"lat":57.6910747,"lon":11.935553,"tags":{"name":"Majvallen","network":"Västtrafik","network:wikidata":"Q928178","operator":"Göteborgs Spårvägar","operator:wikidata":"Q10512910","public_transport":"stop_position","railway":"tram_stop","ref":"B","tram":"yes","wikidata":"Q107999383"}},{"type":"node","id":31098715,"lat":57.6968874,"lon":11.9512499,"tags":{"bus":"yes","highway":"bus_stop","name":"Prinsgatan","network":"Västtrafik","network:wikidata":"Q928178","network:wikipedia":"sv:Västtrafik","operator":"Göteborgs Spårvägar","operator:wikidata":"Q10512910","public_transport":"stop_position","railway":"tram_stop","ref":"A","tram":"yes","wikidata":"Q107999403"}},{"type":"node","id":33541076,"lat":57.6901338,"lon":11.9520488,"tags":{"bus":"yes","highway":"bus_stop","name":"Linnéplatsen","network":"Västtrafik","network:wikidata":"Q928178","network:wikipedia":"sv:Västtrafik","operator":"Göteborgs Spårvägar","operator:wikidata":"Q10512910","public_transport":"stop_position","railway":"tram_stop","ref":"A","tram":"yes","wikidata":"Q107999378"}},{"type":"node","id":60142086,"lat":57.7002011,"lon":11.9526163,"tags":{"name":"Järntorget","network":"Västtrafik","network:wikidata":"Q928178","operator":"Göteborgs Spårvägar","operator:wikidata":"Q10512910","public_transport":"stop_position","railway":"tram_stop","ref":"A","tram":"yes","wikidata":"Q17092837"}},{"type":"node","id":60142111,"lat":57.7692595,"lon":12.0223783,"tags":{"name":"Hjällbo","network":"Västtrafik","network:wikidata":"Q928178","network:wikipedia":"sv:Västtrafik","operator":"Göteborgs Spårvägar","operator:wikidata":"Q10512910","public_transport":"stop_position","railway":"tram_stop","ref":"A","tram":"yes","wikidata":"Q107999363"}},{"type":"node","id":60142114,"lat":57.785139,"lon":12.0462261,"tags":{"name":"Storås","network":"Västtrafik","network:wikidata":"Q928178","network:wikipedia":"sv:Västtrafik","public_transport":"stop_position","railway":"tram_stop","ref":"B","tram":"yes","wikidata":"Q7620505","wikipedia":"sv:Storås"}},{"type":"node","id":84670169,"lat":57.6942497,"lon":11.9193533,"tags":{"bus":"yes","highway":"bus_stop","name":"Chapmans Torg","network":"Västtrafik","network:wikidata":"Q928178","network:wikipedia":"sv:Västtrafik","operator":"Västtrafik","operator:wikidata":"Q10512910","public_transport":"stop_position","railway":"tram_stop","ref":"B","tram":"yes","wikidata":"Q107998988"}},{"type":"node","id":84670174,"lat":57.6914175,"lon":11.91499,"tags":{"alt_name":"Jaegerdorffsplaten;Jägerdorffsplatsen","bus":"yes","highway":"bus_stop","name":"Jægerdorffsplatsen","network":"Västtrafik","network:wikidata":"Q928178","network:wikipedia":"sv:Västtrafik","operator":"Göteborgs Spårvägar","operator:wikidata":"Q10512910","public_transport":"stop_position","railway":"tram_stop","ref":"B","tram":"yes","wikidata":"Q16977685"}},{"type":"node","id":91380481,"lat":57.6808055,"lon":11.9751665,"tags":{"local_ref":"B","name":"Doktor Sydows Gata","network":"Västtrafik","network:wikidata":"Q928178","operator":"Göteborgs Spårvägar","operator:wikidata":"Q10512910","public_transport":"stop_position","railway":"tram_stop","ref":"B","tram":"yes","wikidata":"Q107999036"}},{"type":"node","id":91380509,"lat":57.6889831,"lon":11.9685893,"tags":{"bus":"yes","highway":"bus_stop","name":"Wavrinskys Plats","network":"Västtrafik","network:wikidata":"Q928178","network:wikipedia":"sv:Västtrafik","operator":"Göteborgs Spårvägar","operator:wikidata":"Q10512910","public_transport":"stop_position","railway":"tram_stop","ref":"A","tram":"yes","wikidata":"Q107999424"}},{"type":"node","id":94229491,"lat":57.6890277,"lon":11.9684149,"tags":{"bus":"yes","highway":"bus_stop","name":"Wavrinskys Plats","network":"Västtrafik","network:wikidata":"Q928178","network:wikipedia":"sv:Västtrafik","operator":"Göteborgs Spårvägar","operator:wikidata":"Q10512910","public_transport":"stop_position","railway":"tram_stop","ref":"C","tram":"yes","wikidata":"Q107999424"}},{"type":"node","id":94229503,"lat":57.6854325,"lon":11.9643706,"tags":{"name":"Medicinaregatan","network":"Västtrafik","network:wikidata":"Q928178","operator":"Göteborgs Spårvägar","operator:wikidata":"Q10512910","public_transport":"stop_position","railway":"tram_stop","ref":"A","tram":"yes","wikidata":"Q107999387"}},{"type":"node","id":94229509,"lat":57.6836073,"lon":11.9610978,"tags":{"name":"Sahlgrenska Huvudentré","network":"Västtrafik","network:wikidata":"Q928178","network:wikipedia":"sv:Västtrafik","operator":"Göteborgs Spårvägar","operator:wikidata":"Q10512910","public_transport":"stop_position","railway":"tram_stop","ref":"A","tram":"yes","wikidata":"Q107999407"}},{"type":"node","id":94243780,"lat":57.672288,"lon":11.9275696,"tags":{"name":"Axel Dahlströms torg","network":"Västtrafik","network:wikidata":"Q928178","network:wikipedia":"sv:Västtrafik","operator":"Göteborgs Spårvägar","operator:wikidata":"Q10512910","public_transport":"stop_position","railway":"tram_stop","ref":"C","tram":"yes","wikidata":"Q107999022"}},{"type":"node","id":96544989,"lat":57.7266283,"lon":11.8930904,"tags":{"name":"Väderilsgatan","network":"Västtrafik","network:wikidata":"Q928178","network:wikipedia":"sv:Västtrafik","operator":"Göteborgs Spårvägar","operator:wikidata":"Q10512910","public_transport":"stop_position","railway":"tram_stop","ref":"A","tram":"yes","wikidata":"Q107999430"}},{"type":"node","id":96546384,"lat":57.7203339,"lon":11.9601168,"tags":{"local_ref":"B","name":"Frihamnen","network":"Västtrafik","network:wikidata":"Q928178","network:wikipedia":"sv:Västtrafik","operator":"Göteborgs Spårvägar","operator:wikidata":"Q10512910","public_transport":"stop_position","railway":"tram_stop","ref":"B","tram":"yes","wikidata":"Q107999056"}},{"type":"node","id":96546390,"lat":57.7205954,"lon":11.9532604,"tags":{"local_ref":"A2","name":"Hjalmar Brantingsplatsen","network":"Västtrafik","network:wikidata":"Q928178","network:wikipedia":"sv:Västtrafik","operator":"Göteborgs Spårvägar","operator:wikidata":"Q10512910","public_transport":"stop_position","railway":"tram_stop","ref":"A2","tram":"yes","wikidata":"Q107999362"}},{"type":"node","id":96546398,"lat":57.7205725,"lon":11.9451473,"tags":{"local_ref":"B","name":"Vågmästareplatsen","network":"Västtrafik","network:wikidata":"Q928178","network:wikipedia":"sv:Västtrafik","operator":"Göteborgs Spårvägar","operator:wikidata":"Q10512910","public_transport":"stop_position","railway":"tram_stop","ref":"B","tram":"yes","wikidata":"Q107999428"}},{"type":"node","id":96546412,"lat":57.7195189,"lon":11.9277024,"tags":{"name":"Rambergsvallen","network":"Västtrafik","network:wikidata":"Q928178","network:wikipedia":"sv:Västtrafik","operator":"Göteborgs Spårvägar","operator:wikidata":"Q10512910","public_transport":"stop_position","railway":"tram_stop","ref":"B","tram":"yes","wikidata":"Q107999404"}},{"type":"node","id":96546416,"lat":57.7183442,"lon":11.9191511,"tags":{"name":"Gropegårdsgatan","network":"Västtrafik","network:wikidata":"Q928178","network:wikipedia":"sv:Västtrafik","public_transport":"stop_position","railway":"tram_stop","ref":"B","tram":"yes","wikidata":"Q107999062"}},{"type":"node","id":96546423,"lat":57.7167011,"lon":11.9101366,"tags":{"name":"Eketrägatan","network":"Västtrafik","network:wikidata":"Q928178","network:wikipedia":"sv:Västtrafik","public_transport":"stop_position","railway":"tram_stop","ref":"B","tram":"yes","wikidata":"Q107999052"}},{"type":"node","id":96546459,"lat":57.7201505,"lon":11.8930502,"tags":{"name":"Önskevädersgatan","network":"Västtrafik","network:wikidata":"Q928178","network:wikipedia":"sv:Västtrafik","public_transport":"stop_position","railway":"tram_stop","ref":"B","tram":"yes","wikidata":"Q107999431"}},{"type":"node","id":96546466,"lat":57.7233637,"lon":11.8933238,"tags":{"name":"Friskväderstorget","network":"Västtrafik","network:wikidata":"Q928178","network:wikipedia":"sv:Västtrafik","operator":"Göteborgs Spårvägar","operator:wikidata":"Q10512910","public_transport":"stop_position","railway":"tram_stop","ref":"A","tram":"yes","wikidata":"Q107999057"}},{"type":"node","id":96546470,"lat":57.7267621,"lon":11.8934391,"tags":{"name":"Väderilsgatan","network":"Västtrafik","network:wikidata":"Q928178","network:wikipedia":"sv:Västtrafik","operator":"Göteborgs Spårvägar","operator:wikidata":"Q10512910","public_transport":"stop_position","railway":"tram_stop","ref":"C","tram":"yes","wikidata":"Q107999430"}},{"type":"node","id":96546500,"lat":57.7366752,"lon":11.896288,"tags":{"name":"Varmfrontsgatan","network":"Västtrafik","network:wikidata":"Q928178","network:wikipedia":"sv:Västtrafik","operator":"Göteborgs Spårvägar","operator:wikidata":"Q10512910","public_transport":"stop_position","railway":"tram_stop","ref":"A","tram":"yes","wikidata":"Q107999421"}},{"type":"node","id":101344918,"lat":57.7206418,"lon":11.9356288,"tags":{"local_ref":"B","name":"Wieselgrensplatsen","network":"Västtrafik","network:wikidata":"Q928178","network:wikipedia":"sv:Västtrafik","operator":"Göteborgs Spårvägar","operator:wikidata":"Q10512910","public_transport":"stop_position","railway":"tram_stop","ref":"B","tram":"yes","wikidata":"Q107999427"}},{"type":"node","id":101462493,"lat":57.6748588,"lon":11.8841839,"tags":{"name":"Hagen","network":"Västtrafik","network:wikidata":"Q928178","network:wikipedia":"sv:Västtrafik","public_transport":"stop_position","railway":"tram_stop","ref":"B","tram":"yes","wikidata":"Q107998989"}},{"type":"node","id":101463736,"lat":57.6695317,"lon":11.8720126,"tags":{"name":"Käringberget","network":"Västtrafik","network:wikidata":"Q928178","operator":"Göteborgs Spårvägar","operator:wikidata":"Q10512910","public_transport":"stop_position","railway":"tram_stop","ref":"B","tram":"yes","wikidata":"Q107999375"}},{"type":"node","id":101464415,"lat":57.6678877,"lon":11.860756,"tags":{"name":"Hinsholmen","network":"Västtrafik","network:wikidata":"Q928178","network:wikipedia":"sv:Västtrafik","public_transport":"stop_position","railway":"tram_stop","ref":"B","tram":"yes","wikidata":"Q107999360"}},{"type":"node","id":124171066,"lat":57.6919207,"lon":11.9918962,"tags":{"bus":"yes","highway":"bus_stop","name":"Liseberg Södra","network":"Västtrafik","network:wikidata":"Q928178","network:wikipedia":"sv:Västtrafik","operator":"Göteborgs Spårvägar","operator:wikidata":"Q10512910","public_transport":"stop_position","railway":"tram_stop","ref":"A","tram":"yes","wikidata":"Q107999060"}},{"type":"node","id":124171107,"lat":57.6752757,"lon":12.0080508,"tags":{"name":"Krokslätts torg","network":"Västtrafik","network:wikidata":"Q928178","operator":"Göteborgs Spårvägar","operator:wikidata":"Q10512910","public_transport":"stop_position","railway":"tram_stop","ref":"A","tram":"yes","wikidata":"Q107998997"}},{"type":"node","id":137726100,"lat":57.7006276,"lon":11.9858582,"tags":{"name":"Scandinavium","network":"Västtrafik","network:wikidata":"Q928178","operator":"Göteborgs Spårvägar","operator:wikidata":"Q10512910","public_transport":"stop_position","railway":"tram_stop","ref":"A","tram":"yes","wikidata":"Q107999413"}},{"type":"node","id":145124958,"lat":57.6996668,"lon":12.0096351,"tags":{"name":"Ekmanska","network":"Västtrafik","network:wikidata":"Q928178","operator":"Göteborgs Spårvägar","operator:wikidata":"Q10512910","public_transport":"stop_position","railway":"tram_stop","ref":"A","tram":"yes","wikidata":"Q107999053"}},{"type":"node","id":145124980,"lat":57.7023397,"lon":12.0221389,"tags":{"name":"Töpelsgatan","network":"Västtrafik","network:wikidata":"Q928178","operator":"Göteborgs Spårvägar","operator:wikidata":"Q10512910","public_transport":"stop_position","railway":"tram_stop","ref":"B","tram":"yes","wikidata":"Q107999012"}},{"type":"node","id":145124992,"lat":57.7060773,"lon":12.0239131,"tags":{"name":"Welandergatan","network":"Västtrafik","network:wikidata":"Q928178","operator":"Göteborgs Spårvägar","operator:wikidata":"Q10512910","public_transport":"stop_position","railway":"tram_stop","ref":"A","tram":"yes","wikidata":"Q107999426"}},{"type":"node","id":247822616,"lat":57.6999802,"lon":11.9529638,"tags":{"name":"Järntorget","network":"Västtrafik","network:wikidata":"Q928178","network:wikipedia":"sv:Västtrafik","operator":"Göteborgs Spårvägar","operator:wikidata":"Q10512910","public_transport":"stop_position","railway":"tram_stop","ref":"D","tram":"yes","wikidata":"Q17092837"}},{"type":"node","id":248205023,"lat":57.6724423,"lon":11.928076,"tags":{"name":"Axel Dahlströms torg","network":"Västtrafik","network:wikidata":"Q928178","network:wikipedia":"sv:Västtrafik","operator":"Göteborgs Spårvägar","operator:wikidata":"Q10512910","public_transport":"stop_position","railway":"tram_stop","ref":"A","tram":"yes","wikidata":"Q107999022"}},{"type":"node","id":281040945,"lat":57.6527834,"lon":11.9115297,"tags":{"name":"Frölunda Torg","network":"Västtrafik","network:wikidata":"Q928178","operator":"Göteborgs Spårvägar","operator:wikidata":"Q10512910","public_transport":"stop_position","railway":"tram_stop","ref":"B","tram":"yes","wikidata":"Q10499742","wikipedia":"sv:Frölunda torg (station)"}},{"type":"node","id":282928385,"lat":57.6867412,"lon":11.9207548,"tags":{"name":"Mariaplan","network":"Västtrafik","network:wikidata":"Q928178","operator":"Göteborgs Spårvägar","operator:wikidata":"Q10512910","public_transport":"stop_position","railway":"tram_stop","ref":"A","tram":"yes","wikidata":"Q107999384"}},{"type":"node","id":282929383,"lat":57.684194,"lon":11.9164755,"tags":{"name":"Sannaplan","network":"Västtrafik","network:wikidata":"Q928178","network:wikipedia":"sv:Västtrafik","operator":"Göteborgs Spårvägar","operator:wikidata":"Q10512910","public_transport":"stop_position","railway":"tram_stop","ref":"B","tram":"yes","wikidata":"Q107999412"}},{"type":"node","id":282929717,"lat":57.682819,"lon":11.9098416,"tags":{"name":"Sandarna","network":"Västtrafik","network:wikidata":"Q928178","network:wikipedia":"sv:Västtrafik","operator":"Göteborgs Spårvägar","operator:wikidata":"Q10512910","public_transport":"stop_position","railway":"tram_stop","ref":"B","tram":"yes","wikidata":"Q107999410"}},{"type":"node","id":282930012,"lat":57.6889761,"lon":11.9126923,"tags":{"name":"Vagnhallen Majorna","network":"Västtrafik","network:wikidata":"Q928178","network:wikipedia":"sv:Västtrafik","operator":"Göteborgs Spårvägar","operator:wikidata":"Q10512910","public_transport":"stop_position","railway":"tram_stop","ref":"B","tram":"yes","wikidata":"Q17057254"}},{"type":"node","id":282930071,"lat":57.6878362,"lon":11.9150836,"tags":{"name":"Ostindiegatan","network":"Västtrafik","network:wikidata":"Q928178","network:wikipedia":"sv:Västtrafik","operator":"Göteborgs Spårvägar","operator:wikidata":"Q10512910","public_transport":"stop_position","railway":"tram_stop","ref":"B","tram":"yes","wikidata":"Q107999401"}},{"type":"node","id":283253430,"lat":57.7092219,"lon":11.9667699,"tags":{"bus":"yes","highway":"bus_stop","name":"Lilla Bommen","network":"Västtrafik","network:wikidata":"Q928178","network:wikipedia":"sv:Västtrafik","operator":"Göteborgs Spårvägar","operator:wikidata":"Q10512910","public_transport":"stop_position","railway":"tram_stop","ref":"B","tram":"yes","wikidata":"Q107999377"}},{"type":"node","id":283253822,"lat":57.7080639,"lon":11.9861801,"tags":{"name":"Ullevi Norra","network":"Västtrafik","network:wikidata":"Q928178","operator":"Göteborgs Spårvägar","operator:wikidata":"Q10512910","public_transport":"stop_position","railway":"tram_stop","ref":"B","tram":"yes","wikidata":"Q107999013"}},{"type":"node","id":283254029,"lat":57.7075529,"lon":11.9734989,"tags":{"local_ref":"A1","name":"Drottningtorget","network":"Västtrafik","network:wikidata":"Q928178","operator":"Göteborgs Spårvägar","operator:wikidata":"Q10512910","public_transport":"stop_position","railway":"tram_stop","ref":"A1","tram":"yes","wikidata":"Q107999033"}},{"type":"node","id":283254362,"lat":57.7076512,"lon":11.9729691,"tags":{"local_ref":"A3","name":"Drottningtorget","network":"Västtrafik","network:wikidata":"Q928178","operator":"Göteborgs Spårvägar","operator:wikidata":"Q10512910","public_transport":"stop_position","railway":"tram_stop","ref":"A3","tram":"yes","wikidata":"Q107999033"}},{"type":"node","id":283255107,"lat":57.7065914,"lon":11.9688473,"tags":{"bus":"yes","highway":"bus_stop","local_ref":"C1","name":"Brunnsparken","network":"Västtrafik","network:wikidata":"Q928178","network:wikipedia":"sv:Västtrafik","operator":"Göteborgs Spårvägar","operator:wikidata":"Q10512910","public_transport":"stop_position","railway":"tram_stop","ref":"C1","tram":"yes","wikidata":"Q107999030"}},{"type":"node","id":285732348,"lat":57.6606627,"lon":11.8464671,"tags":{"name":"Saltholmen","network":"Västtrafik","network:wikidata":"Q928178","network:wikipedia":"sv:Västtrafik","public_transport":"stop_position","railway":"tram_stop","ref":"B","tram":"yes","wikidata":"Q107999408"}},{"type":"node","id":285732358,"lat":57.6606307,"lon":11.8454671,"tags":{"name":"Saltholmen","network":"Västtrafik","network:wikidata":"Q928178","network:wikipedia":"sv:Västtrafik","public_transport":"stop_position","railway":"tram_stop","ref":"A","tram":"yes","wikidata":"Q107999408"}},{"type":"node","id":285732384,"lat":57.6805538,"lon":11.901761,"tags":{"name":"Kungssten","network":"Västtrafik","network:wikidata":"Q928178","network:wikipedia":"sv:Västtrafik","public_transport":"stop_position","railway":"tram_stop","ref":"B1","tram":"yes","wikidata":"Q107999372"}},{"type":"node","id":285732446,"lat":57.6778774,"lon":11.8946559,"tags":{"name":"Nya Varvsallén","network":"Västtrafik","network:wikidata":"Q928178","network:wikipedia":"sv:Västtrafik","public_transport":"stop_position","railway":"tram_stop","ref":"B","tram":"yes","wikidata":"Q107999394"}},{"type":"node","id":285732591,"lat":57.6681317,"lon":11.8535293,"tags":{"name":"Långedrag","network":"Västtrafik","network:wikidata":"Q928178","network:wikipedia":"sv:Västtrafik","public_transport":"stop_position","railway":"tram_stop","ref":"B","tram":"yes","wikidata":"Q107999382"}},{"type":"node","id":285734295,"lat":57.7078166,"lon":11.9729524,"tags":{"local_ref":"A6","name":"Drottningtorget","network":"Västtrafik","network:wikidata":"Q928178","operator":"Göteborgs Spårvägar","operator:wikidata":"Q10512910","public_transport":"stop_position","railway":"tram_stop","ref":"A6","tram":"yes","wikidata":"Q107999033"}},{"type":"node","id":312896172,"lat":57.645458,"lon":11.8993432,"tags":{"name":"Smaragdgatan","network":"Västtrafik","network:wikidata":"Q928178","operator":"Göteborgs Spårvägar","operator:wikidata":"Q10512910","public_transport":"stop_position","railway":"tram_stop","ref":"B","tram":"yes","wikidata":"Q107999416"}},{"type":"node","id":312916056,"lat":57.6567765,"lon":11.9175939,"tags":{"name":"Positivgatan","network":"Västtrafik","network:wikidata":"Q928178","operator":"Göteborgs Spårvägar","operator:wikidata":"Q10512910","public_transport":"stop_position","railway":"tram_stop","ref":"B","tram":"yes","wikidata":"Q107999002"}},{"type":"node","id":312916199,"lat":57.6627437,"lon":11.9251018,"tags":{"name":"Nymilsgatan","network":"Västtrafik","network:wikidata":"Q928178","network:wikipedia":"sv:Västtrafik","public_transport":"stop_position","railway":"tram_stop","ref":"B","tram":"yes","wikidata":"Q107999396"}},{"type":"node","id":312916223,"lat":57.6671579,"lon":11.9247118,"tags":{"name":"Lantmilsgatan","network":"Västtrafik","network:wikidata":"Q928178","network:wikipedia":"sv:Västtrafik","public_transport":"stop_position","railway":"tram_stop","ref":"B","tram":"yes","wikidata":"Q107999376"}},{"type":"node","id":313609652,"lat":57.6989459,"lon":11.97005,"tags":{"bus":"yes","highway":"bus_stop","local_ref":"B","name":"Vasaplatsen","network":"Västtrafik","network:wikidata":"Q928178","network:wikipedia":"sv:Västtrafik","operator":"Göteborgs Spårvägar","operator:wikidata":"Q10512910","public_transport":"stop_position","railway":"tram_stop","ref":"B","tram":"yes","wikidata":"Q107999423"}},{"type":"node","id":315544334,"lat":57.6968324,"lon":11.9863037,"tags":{"bus":"yes","highway":"bus_stop","name":"Korsvägen","network":"Västtrafik","network:wikidata":"Q928178","network:wikipedia":"sv:Västtrafik","operator":"Göteborgs Spårvägar","operator:wikidata":"Q10512910","public_transport":"stop_position","railway":"tram_stop","ref":"A2","tram":"yes","wikidata":"Q6432683"}},{"type":"node","id":316083098,"lat":57.6995906,"lon":11.9630663,"tags":{"name":"Hagakyrkan","network":"Västtrafik","network:wikidata":"Q928178","operator":"Göteborgs Spårvägar","operator:wikidata":"Q10512910","public_transport":"stop_position","railway":"tram_stop","ref":"A","tram":"yes","wikidata":"Q107999663"}},{"type":"node","id":316131916,"lat":57.6771253,"lon":11.9327977,"tags":{"name":"Bokekullsgatan","network":"Västtrafik","network:wikidata":"Q928178","network:wikipedia":"sv:Västtrafik","operator":"Göteborgs Spårvägar","operator:wikidata":"Q10512910","public_transport":"stop_position","railway":"tram_stop","ref":"B","tram":"yes","wikidata":"Q107999026"}},{"type":"node","id":316131919,"lat":57.6801215,"lon":11.9302815,"tags":{"name":"Högsbogatan","network":"Västtrafik","network:wikidata":"Q928178","operator":"Göteborgs Spårvägar","operator:wikidata":"Q10512910","public_transport":"stop_position","railway":"tram_stop","ref":"B","tram":"yes","wikidata":"Q107998991"}},{"type":"node","id":316137086,"lat":57.7011187,"lon":12.016452,"tags":{"name":"Bögatan","network":"Västtrafik","network:wikidata":"Q928178","operator":"Göteborgs Spårvägar","operator:wikidata":"Q10512910","public_transport":"stop_position","railway":"tram_stop","ref":"A","tram":"yes","wikidata":"Q107999032"}},{"type":"node","id":316137723,"lat":57.6987301,"lon":11.9994709,"tags":{"name":"Sankt Sigfrids Plan","network":"Västtrafik","network:wikidata":"Q928178","operator":"Göteborgs Spårvägar","operator:wikidata":"Q10512910","public_transport":"stop_position","railway":"tram_stop","ref":"B","tram":"yes","wikidata":"Q107999005"}},{"type":"node","id":316138159,"lat":57.6924153,"lon":11.9525896,"tags":{"bus":"yes","highway":"bus_stop","name":"Olivedalsgatan","network":"Västtrafik","network:wikidata":"Q928178","network:wikipedia":"sv:Västtrafik","operator":"Göteborgs Spårvägar","operator:wikidata":"Q10512910","public_transport":"stop_position","railway":"tram_stop","ref":"A","tram":"yes","wikidata":"Q107999398"}},{"type":"node","id":316141189,"lat":57.6981715,"lon":11.9669504,"tags":{"name":"Vasa Viktoriagatan","network":"Västtrafik","network:wikidata":"Q928178","network:wikipedia":"sv:Västtrafik","operator":"Göteborgs Spårvägar","operator:wikidata":"Q10512910","public_transport":"stop_position","railway":"tram_stop","ref":"A","tram":"yes","wikidata":"Q107999422"}},{"type":"node","id":316141673,"lat":57.698251,"lon":11.9664299,"tags":{"name":"Vasa Viktoriagatan","network":"Västtrafik","network:wikidata":"Q928178","operator":"Göteborgs Spårvägar","operator:wikidata":"Q10512910","public_transport":"stop_position","railway":"tram_stop","ref":"B","tram":"yes","wikidata":"Q107999422"}},{"type":"node","id":316145646,"lat":57.6808915,"lon":11.9757908,"tags":{"local_ref":"A","name":"Doktor Sydows Gata","network":"Västtrafik","network:wikidata":"Q928178","operator":"Göteborgs Spårvägar","operator:wikidata":"Q10512910","public_transport":"stop_position","railway":"tram_stop","ref":"A","tram":"yes","wikidata":"Q107999036"}},{"type":"node","id":316259001,"lat":57.7004569,"lon":11.9741954,"tags":{"bus":"yes","highway":"bus_stop","local_ref":"A","name":"Valand","network":"Västtrafik","network:wikidata":"Q928178","network:wikipedia":"sv:Västtrafik","operator":"Göteborgs Spårvägar","operator:wikidata":"Q10512910","public_transport":"stop_position","railway":"tram_stop","ref":"A","tram":"yes","wikidata":"Q107999016"}},{"type":"node","id":316259371,"lat":57.7004526,"lon":11.9736913,"tags":{"bus":"yes","highway":"bus_stop","local_ref":"B","name":"Valand","network":"Västtrafik","network:wikidata":"Q928178","network:wikipedia":"sv:Västtrafik","operator":"Göteborgs Spårvägar","operator:wikidata":"Q10512910","public_transport":"stop_position","railway":"tram_stop","ref":"B","tram":"yes","wikidata":"Q107999016"}},{"type":"node","id":316259560,"lat":57.7001588,"lon":11.975272,"tags":{"bus":"yes","highway":"bus_stop","local_ref":"D","name":"Valand","network":"Västtrafik","network:wikidata":"Q928178","network:wikipedia":"sv:Västtrafik","operator":"Göteborgs Spårvägar","operator:wikidata":"Q10512910","public_transport":"stop_position","railway":"tram_stop","ref":"D","tram":"yes","wikidata":"Q107999016"}},{"type":"node","id":331415240,"lat":57.6875502,"lon":11.9965721,"tags":{"name":"Almedal","network":"Västtrafik","network:wikidata":"Q928178","operator":"Göteborgs Spårvägar","operator:wikidata":"Q10512910","public_transport":"stop_position","railway":"tram_stop","ref":"A","tram":"yes","wikidata":"Q107999019"}},{"type":"node","id":409752621,"lat":57.7134933,"lon":11.9015894,"tags":{"name":"Sälöfjordsgatan","network":"Västtrafik","network:wikidata":"Q928178","network:wikipedia":"sv:Västtrafik","public_transport":"stop_position","railway":"tram_stop","ref":"B","tram":"yes","wikidata":"Q107999418"}},{"type":"node","id":409752624,"lat":57.7129636,"lon":11.8931812,"tags":{"name":"Vårväderstorget","network":"Västtrafik","network:wikidata":"Q928178","network:wikipedia":"sv:Västtrafik","public_transport":"stop_position","railway":"tram_stop","ref":"B","tram":"yes","wikidata":"Q107999429"}},{"type":"node","id":409752625,"lat":57.7325718,"lon":11.8952747,"tags":{"name":"Temperaturgatan","network":"Västtrafik","network:wikidata":"Q928178","network:wikipedia":"sv:Västtrafik","public_transport":"stop_position","railway":"tram_stop","ref":"B","tram":"yes","wikidata":"Q107999010"}},{"type":"node","id":591286372,"lat":57.7956033,"lon":12.0492714,"tags":{"name":"Angered Centrum","network":"Västtrafik","network:wikidata":"Q928178","network:wikipedia":"sv:Västtrafik","public_transport":"stop_position","railway":"tram_stop","ref":"A","tram":"yes","wikidata":"Q107999020"}},{"type":"node","id":594306667,"lat":57.7849634,"lon":12.0463093,"tags":{"name":"Storås","network":"Västtrafik","network:wikidata":"Q928178","network:wikipedia":"sv:Västtrafik","public_transport":"stop_position","railway":"tram_stop","ref":"A","tram":"yes","wikidata":"Q7620505","wikipedia":"sv:Storås"}},{"type":"node","id":594433186,"lat":57.7695057,"lon":12.0223071,"tags":{"name":"Hjällbo","network":"Västtrafik","network:wikidata":"Q928178","network:wikipedia":"sv:Västtrafik","operator":"Göteborgs Spårvägar","operator:wikidata":"Q10512910","public_transport":"stop_position","railway":"tram_stop","ref":"B","tram":"yes","wikidata":"Q107999363"}},{"type":"node","id":661147431,"lat":57.699039,"lon":11.9338853,"tags":{"name":"Stigbergstorget","network":"Västtrafik","network:wikidata":"Q928178","operator":"Göteborgs Spårvägar","operator:wikidata":"Q10512910","public_transport":"stop_position","railway":"tram_stop","ref":"B","tram":"yes","wikidata":"Q17104123"}},{"type":"node","id":661152382,"lat":57.6853318,"lon":11.9261176,"tags":{"name":"Godhemsgatan","network":"Västtrafik","network:wikidata":"Q928178","operator":"Göteborgs Spårvägar","operator:wikidata":"Q10512910","public_transport":"stop_position","railway":"tram_stop","ref":"D","tram":"yes","wikidata":"Q107999061"}},{"type":"node","id":661152398,"lat":57.6845048,"lon":11.9259303,"tags":{"name":"Godhemsgatan","network":"Västtrafik","network:wikidata":"Q928178","operator":"Göteborgs Spårvägar","operator:wikidata":"Q10512910","public_transport":"stop_position","railway":"tram_stop","ref":"B","tram":"yes","wikidata":"Q107999061"}},{"type":"node","id":661152446,"lat":57.6871505,"lon":11.9292594,"tags":{"name":"Ekedal","network":"Västtrafik","network:wikidata":"Q928178","operator":"Göteborgs Spårvägar","operator:wikidata":"Q10512910","public_transport":"stop_position","railway":"tram_stop","ref":"A","tram":"yes","wikidata":"Q107999051"}},{"type":"node","id":661152456,"lat":57.6863608,"lon":11.9276735,"tags":{"name":"Ekedal","network":"Västtrafik","network:wikidata":"Q928178","operator":"Göteborgs Spårvägar","operator:wikidata":"Q10512910","public_transport":"stop_position","railway":"tram_stop","ref":"B","tram":"yes","wikidata":"Q107999051"}},{"type":"node","id":661178805,"lat":57.6983133,"lon":11.9823163,"tags":{"bus":"yes","highway":"bus_stop","name":"Berzeliigatan","network":"Västtrafik","network:wikidata":"Q928178","network:wikipedia":"sv:Västtrafik","operator":"Göteborgs Spårvägar","operator:wikidata":"Q10512910","public_transport":"stop_position","railway":"tram_stop","ref":"A","tram":"yes","wikidata":"Q107999024"}},{"type":"node","id":661206876,"lat":57.7057586,"lon":12.0241255,"tags":{"name":"Welandergatan","network":"Västtrafik","network:wikidata":"Q928178","operator":"Göteborgs Spårvägar","operator:wikidata":"Q10512910","public_transport":"stop_position","railway":"tram_stop","ref":"B","tram":"yes","wikidata":"Q107999426"}},{"type":"node","id":705125071,"lat":57.7796924,"lon":12.0364998,"tags":{"name":"Hammarkullen","network":"Västtrafik","network:wikidata":"Q928178","operator":"Göteborgs Spårvägar","operator:wikidata":"Q10512910","public_transport":"stop_position","railway":"tram_stop","ref":"A","tram":"yes","wikidata":"Q10516871","wikipedia":"sv:Hammarkullen (station)"}},{"type":"node","id":705125094,"lat":57.7800406,"lon":12.0366009,"tags":{"name":"Hammarkullen","network":"Västtrafik","network:wikidata":"Q928178","operator":"Göteborgs Spårvägar","operator:wikidata":"Q10512910","public_transport":"stop_position","railway":"tram_stop","ref":"B","tram":"yes","wikidata":"Q10516871","wikipedia":"sv:Hammarkullen (station)"}},{"type":"node","id":738267094,"lat":57.6724989,"lon":11.9274078,"tags":{"name":"Axel Dahlströms torg","network":"Västtrafik","network:wikidata":"Q928178","network:wikipedia":"sv:Västtrafik","operator":"Göteborgs Spårvägar","operator:wikidata":"Q10512910","public_transport":"stop_position","railway":"tram_stop","ref":"D","tram":"yes","wikidata":"Q107999022"}},{"type":"node","id":955310924,"lat":57.6725083,"lon":11.8794745,"tags":{"name":"Tranered","network":"Västtrafik","network:wikidata":"Q928178","network:wikipedia":"sv:Västtrafik","public_transport":"stop_position","railway":"tram_stop","ref":"B","tram":"yes","wikidata":"Q107999420"}},{"type":"node","id":1267180391,"lat":57.752779,"lon":12.0330403,"tags":{"name":"Kortedala Torg","network":"Västtrafik","network:wikidata":"Q928178","network:wikipedia":"sv:Västtrafik","public_transport":"stop_position","railway":"tram_stop","ref":"B","tram":"yes","wikidata":"Q107999371"}},{"type":"node","id":1267180415,"lat":57.7603496,"lon":12.0412752,"tags":{"name":"Januarigatan","network":"Västtrafik","network:wikidata":"Q928178","network:wikipedia":"sv:Västtrafik","public_transport":"stop_position","railway":"tram_stop","ref":"A","tram":"yes","wikidata":"Q107998993"}},{"type":"node","id":1267180487,"lat":57.7608937,"lon":12.0410207,"tags":{"name":"Aprilgatan","network":"Västtrafik","network:wikidata":"Q928178","network:wikipedia":"sv:Västtrafik","public_transport":"stop_position","railway":"tram_stop","ref":"A","tram":"yes","wikidata":"Q107999021"}},{"type":"node","id":1267180494,"lat":57.7529122,"lon":12.0331078,"tags":{"name":"Kortedala Torg","network":"Västtrafik","network:wikidata":"Q928178","network:wikipedia":"sv:Västtrafik","public_transport":"stop_position","railway":"tram_stop","ref":"A","tram":"yes","wikidata":"Q107999371"}},{"type":"node","id":1267180568,"lat":57.7605336,"lon":12.051446,"tags":{"name":"Galileis Gata","network":"Västtrafik","network:wikidata":"Q928178","network:wikipedia":"sv:Västtrafik","operator":"Göteborgs Spårvägar","operator:wikidata":"Q10512910","public_transport":"stop_position","railway":"tram_stop","ref":"B","tram":"yes","wikidata":"Q107999058"}},{"type":"node","id":1267180634,"lat":57.7609827,"lon":12.0415863,"tags":{"name":"Aprilgatan","network":"Västtrafik","network:wikidata":"Q928178","network:wikipedia":"sv:Västtrafik","public_transport":"stop_position","railway":"tram_stop","ref":"B","tram":"yes","wikidata":"Q107999021"}},{"type":"node","id":1267180690,"lat":57.7602447,"lon":12.0412135,"tags":{"name":"Januarigatan","network":"Västtrafik","public_transport":"stop_position","railway":"tram_stop","ref":"B","train":"no","tram":"yes","wikidata":"Q107998993"}},{"type":"node","id":1267180782,"lat":57.7572713,"lon":12.0372348,"tags":{"name":"Allhelgonakyrkan","network":"Västtrafik","network:wikidata":"Q928178","network:wikipedia":"sv:Västtrafik","public_transport":"stop_position","railway":"tram_stop","ref":"A","tram":"yes","wikidata":"Q107999018"}},{"type":"node","id":1267180821,"lat":57.757462,"lon":12.0374798,"tags":{"name":"Allhelgonakyrkan","network":"Västtrafik","network:wikidata":"Q928178","network:wikipedia":"sv:Västtrafik","public_transport":"stop_position","railway":"tram_stop","ref":"B","tram":"yes","wikidata":"Q107999018"}},{"type":"node","id":1267180835,"lat":57.7605102,"lon":12.0516912,"tags":{"name":"Galileis Gata","network":"Västtrafik","network:wikidata":"Q928178","network:wikipedia":"sv:Västtrafik","operator":"Göteborgs Spårvägar","operator:wikidata":"Q10512910","public_transport":"stop_position","railway":"tram_stop","ref":"A","tram":"yes","wikidata":"Q107999058"}},{"type":"node","id":1267229045,"lat":57.7559202,"lon":12.0667621,"tags":{"name":"Rymdtorget","network":"Västtrafik","network:wikidata":"Q928178","network:wikipedia":"sv:Västtrafik","operator":"Göteborgs Spårvägar","operator:wikidata":"Q10512910","public_transport":"stop_position","railway":"tram_stop","ref":"B","tram":"yes","wikidata":"Q107999406"}},{"type":"node","id":1267229049,"lat":57.7557468,"lon":12.0669149,"tags":{"name":"Rymdtorget","network":"Västtrafik","network:wikidata":"Q928178","network:wikipedia":"sv:Västtrafik","operator":"Göteborgs Spårvägar","operator:wikidata":"Q10512910","public_transport":"stop_position","railway":"tram_stop","ref":"A","tram":"yes","wikidata":"Q107999406"}},{"type":"node","id":1267231066,"lat":57.7593069,"lon":12.0600746,"tags":{"name":"Teleskopgatan","network":"Västtrafik","network:wikidata":"Q928178","network:wikipedia":"sv:Västtrafik","operator":"Göteborgs Spårvägar","operator:wikidata":"Q10512910","public_transport":"stop_position","railway":"tram_stop","ref":"A","tram":"yes","wikidata":"Q107999419"}},{"type":"node","id":1267231068,"lat":57.7592971,"lon":12.0596466,"tags":{"name":"Teleskopgatan","network":"Västtrafik","network:wikidata":"Q928178","network:wikipedia":"sv:Västtrafik","operator":"Göteborgs Spårvägar","operator:wikidata":"Q10512910","public_transport":"stop_position","railway":"tram_stop","ref":"B","tram":"yes","wikidata":"Q107999419"}},{"type":"node","id":1271994730,"lat":57.7511423,"lon":12.0713114,"tags":{"name":"Komettorget","network":"Västtrafik","network:wikidata":"Q928178","network:wikipedia":"sv:Västtrafik","operator":"Göteborgs Spårvägar","operator:wikidata":"Q10512910","public_transport":"stop_position","railway":"tram_stop","ref":"A","tram":"yes","wikidata":"Q107999369"}},{"type":"node","id":1271994731,"lat":57.7511058,"lon":12.0712329,"tags":{"name":"Komettorget","network":"Västtrafik","network:wikidata":"Q928178","network:wikipedia":"sv:Västtrafik","operator":"Göteborgs Spårvägar","operator:wikidata":"Q10512910","public_transport":"stop_position","railway":"tram_stop","ref":"B","tram":"yes","wikidata":"Q107999369"}},{"type":"node","id":1272031323,"lat":57.732516,"lon":12.0246213,"tags":{"bus":"yes","highway":"bus_stop","name":"Bellevue","network":"Västtrafik","network:wikidata":"Q928178","network:wikipedia":"sv:Västtrafik","operator":"Göteborgs Spårvägar","operator:wikidata":"Q10512910","public_transport":"stop_position","railway":"tram_stop","ref":"B","tram":"yes","wikidata":"Q107999023"}},{"type":"node","id":1272031437,"lat":57.7427511,"lon":12.0298737,"tags":{"name":"Nymånegatan","network":"Västtrafik","network:wikidata":"Q928178","operator":"Göteborgs Spårvägar","operator:wikidata":"Q10512910","public_transport":"stop_position","railway":"tram_stop","ref":"B","tram":"yes","wikidata":"Q107999397"}},{"type":"node","id":1272284947,"lat":57.7275816,"lon":12.0056828,"tags":{"name":"Gamlestads Torg","network":"Västtrafik","network:wikidata":"Q928178","network:wikipedia":"sv:Västtrafik","public_transport":"stop_position","railway":"tram_stop","ref":"B","tram":"yes","wikidata":"Q107999059"}},{"type":"node","id":1275171641,"lat":57.7292315,"lon":12.0137267,"tags":{"name":"SKF","network":"Västtrafik","network:wikidata":"Q928178","network:wikipedia":"sv:Västtrafik","public_transport":"stop_position","railway":"tram_stop","ref":"A","tram":"yes","wikidata":"Q107999415"}},{"type":"node","id":1275171642,"lat":57.7291215,"lon":12.0132816,"tags":{"bus":"yes","highway":"bus_stop","name":"SKF","network":"Västtrafik","network:wikidata":"Q928178","network:wikipedia":"sv:Västtrafik","public_transport":"stop_position","railway":"tram_stop","ref":"B","tram":"yes","wikidata":"Q107999415"}},{"type":"node","id":1275929579,"lat":57.7164881,"lon":12.0046916,"tags":{"bus":"yes","highway":"bus_stop","name":"Redbergsplatsen","network":"Västtrafik","network:wikidata":"Q928178","network:wikipedia":"sv:Västtrafik","operator":"Göteborgs Spårvägar","operator:wikidata":"Q10512910","public_transport":"stop_position","railway":"tram_stop","ref":"D","tram":"yes","wikidata":"Q107999003"}},{"type":"node","id":1275935022,"lat":57.7210227,"lon":12.0059497,"tags":{"name":"Ejdergatan","network":"Västtrafik","network:wikidata":"Q928178","network:wikipedia":"sv:Västtrafik","public_transport":"stop_position","railway":"tram_stop","ref":"B","tram":"yes","wikidata":"Q107999037"}},{"type":"node","id":1275935024,"lat":57.7162955,"lon":12.0045287,"tags":{"bus":"yes","highway":"bus_stop","name":"Redbergsplatsen","network":"Västtrafik","network:wikidata":"Q928178","network:wikipedia":"sv:Västtrafik","operator":"Göteborgs Spårvägar","operator:wikidata":"Q10512910","public_transport":"stop_position","railway":"tram_stop","ref":"C","tram":"yes","wikidata":"Q107999003"}},{"type":"node","id":1275935032,"lat":57.7208253,"lon":12.0058409,"tags":{"name":"Ejdergatan","network":"Västtrafik","network:wikidata":"Q928178","network:wikipedia":"sv:Västtrafik","public_transport":"stop_position","railway":"tram_stop","ref":"A","tram":"yes","wikidata":"Q107999037"}},{"type":"node","id":1277049002,"lat":57.7162782,"lon":12.0049065,"tags":{"name":"Redbergsplatsen","network":"Västtrafik","network:wikidata":"Q928178","operator":"Göteborgs Spårvägar","operator:wikidata":"Q10512910","public_transport":"stop_position","railway":"tram_stop","ref":"B","tram":"yes","wikidata":"Q107999003"}},{"type":"node","id":1277049016,"lat":57.7181219,"lon":12.0194421,"tags":{"name":"Härlanda","network":"Västtrafik","network:wikidata":"Q928178","operator":"Göteborgs Spårvägar","operator:wikidata":"Q10512910","public_transport":"stop_position","railway":"tram_stop","ref":"A","tram":"yes","wikidata":"Q107998990"}},{"type":"node","id":1277049020,"lat":57.7224582,"lon":12.0478355,"tags":{"name":"Östra Sjukhuset","network":"Västtrafik","network:wikidata":"Q928178","network:wikipedia":"sv:Västtrafik","operator":"Göteborgs Spårvägar","operator:wikidata":"Q10512910","public_transport":"stop_position","railway":"tram_stop","ref":"A","tram":"yes","wikidata":"Q107999432"}},{"type":"node","id":1277049022,"lat":57.7181866,"lon":12.0199724,"tags":{"name":"Härlanda","network":"Västtrafik","network:wikidata":"Q928178","network:wikipedia":"sv:Västtrafik","operator":"Göteborgs Spårvägar","operator:wikidata":"Q10512910","public_transport":"stop_position","railway":"tram_stop","ref":"B","tram":"yes","wikidata":"Q107998990"}},{"type":"node","id":1277049024,"lat":57.7246507,"lon":12.0421007,"tags":{"name":"Tingvallsvägen","network":"Västtrafik","network:wikidata":"Q928178","operator":"Göteborgs Spårvägar","operator:wikidata":"Q10512910","public_transport":"stop_position","railway":"tram_stop","ref":"A","tram":"yes","wikidata":"Q107999011"}},{"type":"node","id":1277049041,"lat":57.7247084,"lon":12.0417585,"tags":{"name":"Tingvallsvägen","network":"Västtrafik","network:wikidata":"Q928178","operator":"Göteborgs Spårvägar","operator:wikidata":"Q10512910","public_transport":"stop_position","railway":"tram_stop","ref":"B","tram":"yes","wikidata":"Q107999011"}},{"type":"node","id":1277049044,"lat":57.7170967,"lon":12.0140855,"tags":{"name":"Stockholmsgatan","network":"Västtrafik","network:wikidata":"Q928178","operator":"Göteborgs Spårvägar","operator:wikidata":"Q10512910","public_transport":"stop_position","railway":"tram_stop","ref":"B","tram":"yes","wikidata":"Q107999009"}},{"type":"node","id":1277049048,"lat":57.7183958,"lon":12.0260027,"tags":{"name":"Munkebäckstorget","network":"Västtrafik","network:wikidata":"Q928178","operator":"Göteborgs Spårvägar","operator:wikidata":"Q10512910","public_transport":"stop_position","railway":"tram_stop","ref":"A","tram":"yes","wikidata":"Q107999389"}},{"type":"node","id":1277049049,"lat":57.722895,"lon":12.0332249,"tags":{"name":"Kaggeledstorget","network":"Västtrafik","network:wikidata":"Q928178","operator":"Göteborgs Spårvägar","operator:wikidata":"Q10512910","public_transport":"stop_position","railway":"tram_stop","ref":"B","tram":"yes","wikidata":"Q107999364"}},{"type":"node","id":1277049070,"lat":57.718568,"lon":12.0263497,"tags":{"name":"Munkebäckstorget","network":"Västtrafik","network:wikidata":"Q928178","operator":"Göteborgs Spårvägar","operator:wikidata":"Q10512910","public_transport":"stop_position","railway":"tram_stop","ref":"B","tram":"yes","wikidata":"Q107999389"}},{"type":"node","id":1277049073,"lat":57.7163354,"lon":12.0051702,"tags":{"name":"Redbergsplatsen","network":"Västtrafik","network:wikidata":"Q928178","operator":"Göteborgs Spårvägar","operator:wikidata":"Q10512910","public_transport":"stop_position","railway":"tram_stop","ref":"A","tram":"yes","wikidata":"Q107999003"}},{"type":"node","id":1277049076,"lat":57.7227045,"lon":12.0328941,"tags":{"name":"Kaggeledstorget","network":"Västtrafik","network:wikidata":"Q928178","operator":"Göteborgs Spårvägar","operator:wikidata":"Q10512910","public_transport":"stop_position","railway":"tram_stop","ref":"A","tram":"yes","wikidata":"Q107999364"}},{"type":"node","id":1277049083,"lat":57.7170683,"lon":12.013599,"tags":{"name":"Stockholmsgatan","network":"Västtrafik","network:wikidata":"Q928178","operator":"Göteborgs Spårvägar","operator:wikidata":"Q10512910","public_transport":"stop_position","railway":"tram_stop","ref":"A","tram":"yes","wikidata":"Q107999009"}},{"type":"node","id":1277542352,"lat":57.7075969,"lon":11.9735271,"tags":{"local_ref":"A2","name":"Drottningtorget","network":"Västtrafik","network:wikidata":"Q928178","operator":"Göteborgs Spårvägar","operator:wikidata":"Q10512910","public_transport":"stop_position","railway":"tram_stop","ref":"A2","tram":"yes","wikidata":"Q107999033"}},{"type":"node","id":1277542353,"lat":57.7077079,"lon":11.9731749,"tags":{"bus":"yes","highway":"bus_stop","local_ref":"A4","name":"Drottningtorget","network":"Västtrafik","network:wikidata":"Q928178","network:wikipedia":"sv:Västtrafik","operator":"Göteborgs Spårvägar","operator:wikidata":"Q10512910","public_transport":"stop_position","railway":"tram_stop","ref":"A4","tram":"yes","wikidata":"Q107999033"}},{"type":"node","id":1277604359,"lat":57.7070626,"lon":11.9685359,"tags":{"bus":"yes","highway":"bus_stop","local_ref":"B1","name":"Brunnsparken","network":"Västtrafik","network:wikidata":"Q928178","network:wikipedia":"sv:Västtrafik","operator":"Göteborgs Spårvägar","operator:wikidata":"Q10512910","public_transport":"stop_position","railway":"tram_stop","ref":"B1","tram":"yes","wikidata":"Q107999030"}},{"type":"node","id":1313416324,"lat":57.7113575,"lon":12.0235381,"tags":{"name":"Virginsgatan","network":"Västtrafik","network:wikidata":"Q928178","operator":"Göteborgs Spårvägar","operator:wikidata":"Q10512910","public_transport":"stop_position","railway":"tram_stop","ref":"A","tram":"yes","wikidata":"Q107999374"}},{"type":"node","id":1313438792,"lat":57.7162721,"lon":12.0250239,"tags":{"name":"Solrosgatan","network":"Västtrafik","network:wikidata":"Q928178","operator":"Göteborgs Spårvägar","operator:wikidata":"Q10512910","public_transport":"stop_position","railway":"tram_stop","ref":"B","tram":"yes","wikidata":"Q107999006"}},{"type":"node","id":1313438793,"lat":57.7098197,"lon":12.0233798,"tags":{"name":"Virginsgatan","network":"Västtrafik","network:wikidata":"Q928178","operator":"Göteborgs Spårvägar","operator:wikidata":"Q10512910","public_transport":"stop_position","railway":"tram_stop","ref":"C","tram":"yes","wikidata":"Q107999374"}},{"type":"node","id":1313438803,"lat":57.7165013,"lon":12.0251095,"tags":{"name":"Solrosgatan","network":"Västtrafik","network:wikidata":"Q928178","operator":"Göteborgs Spårvägar","operator:wikidata":"Q10512910","public_transport":"stop_position","railway":"tram_stop","ref":"A","tram":"yes","wikidata":"Q107999006"}},{"type":"node","id":1313475240,"lat":57.699588,"lon":12.0091731,"tags":{"name":"Ekmanska","network":"Västtrafik","network:wikidata":"Q928178","operator":"Göteborgs Spårvägar","operator:wikidata":"Q10512910","public_transport":"stop_position","railway":"tram_stop","ref":"B","tram":"yes","wikidata":"Q107999053"}},{"type":"node","id":1313475304,"lat":57.7025157,"lon":12.0224734,"tags":{"name":"Töpelsgatan","network":"Västtrafik","network:wikidata":"Q928178","operator":"Göteborgs Spårvägar","operator:wikidata":"Q10512910","public_transport":"stop_position","railway":"tram_stop","ref":"A","tram":"yes","wikidata":"Q107999012"}},{"type":"node","id":1313475374,"lat":57.700946,"lon":12.0160087,"tags":{"name":"Bögatan","network":"Västtrafik","network:wikidata":"Q928178","operator":"Göteborgs Spårvägar","operator:wikidata":"Q10512910","public_transport":"stop_position","railway":"tram_stop","ref":"B","tram":"yes","wikidata":"Q107999032"}},{"type":"node","id":1331283436,"lat":57.748042,"lon":12.0303317,"tags":{"name":"Runstavsgatan","network":"Västtrafik","network:wikidata":"Q928178","network:wikipedia":"sv:Västtrafik","public_transport":"stop_position","railway":"tram_stop","ref":"A","tram":"yes","wikidata":"Q107999405"}},{"type":"node","id":1331283452,"lat":57.7479034,"lon":12.0303082,"tags":{"name":"Runstavsgatan","network":"Västtrafik","network:wikidata":"Q928178","network:wikipedia":"sv:Västtrafik","public_transport":"stop_position","railway":"tram_stop","ref":"B","tram":"yes","wikidata":"Q107999405"}},{"type":"node","id":1331298113,"lat":57.7425552,"lon":12.0297833,"tags":{"name":"Nymånegatan","network":"Västtrafik","network:wikidata":"Q928178","operator":"Göteborgs Spårvägar","operator:wikidata":"Q10512910","public_transport":"stop_position","railway":"tram_stop","ref":"A","tram":"yes","wikidata":"Q107999397"}},{"type":"node","id":1331298131,"lat":57.7397399,"lon":12.0284945,"tags":{"name":"Beväringsgatan","network":"Västtrafik","network:wikidata":"Q928178","operator":"Göteborgs Spårvägar","operator:wikidata":"Q10512910","public_transport":"stop_position","railway":"tram_stop","ref":"B","tram":"yes","wikidata":"Q107999025"}},{"type":"node","id":1331298134,"lat":57.736484,"lon":12.0264064,"tags":{"name":"Kviberg","network":"Västtrafik","network:wikidata":"Q928178","operator":"Göteborgs Spårvägar","operator:wikidata":"Q10512910","public_transport":"stop_position","railway":"tram_stop","ref":"A","tram":"yes","wikidata":"Q107999373"}},{"type":"node","id":1331298136,"lat":57.7367053,"lon":12.0265257,"tags":{"name":"Kviberg","network":"Västtrafik","network:wikidata":"Q928178","operator":"Göteborgs Spårvägar","operator:wikidata":"Q10512910","public_transport":"stop_position","railway":"tram_stop","ref":"B","tram":"yes","wikidata":"Q107999373"}},{"type":"node","id":1331298146,"lat":57.7399617,"lon":12.0286261,"tags":{"name":"Beväringsgatan","network":"Västtrafik","network:wikidata":"Q928178","operator":"Göteborgs Spårvägar","operator:wikidata":"Q10512910","public_transport":"stop_position","railway":"tram_stop","ref":"A","tram":"yes","wikidata":"Q107999025"}},{"type":"node","id":1331318533,"lat":57.7146502,"lon":11.9993711,"tags":{"bus":"yes","highway":"bus_stop","name":"Olskrokstorget","network":"Västtrafik","network:wikidata":"Q928178","network:wikipedia":"sv:Västtrafik","operator":"Göteborgs Spårvägar","operator:wikidata":"Q10512910","public_transport":"stop_position","railway":"tram_stop","ref":"B","tram":"yes","wikidata":"Q107999399"}},{"type":"node","id":1331318536,"lat":57.7146294,"lon":11.9987499,"tags":{"bus":"yes","highway":"bus_stop","name":"Olskrokstorget","network":"Västtrafik","network:wikidata":"Q928178","network:wikipedia":"sv:Västtrafik","operator":"Göteborgs Spårvägar","operator:wikidata":"Q10512910","public_transport":"stop_position","railway":"tram_stop","ref":"A","tram":"yes","wikidata":"Q107999399"}},{"type":"node","id":1331318540,"lat":57.713358,"lon":11.9917409,"tags":{"name":"Svingeln","network":"Västtrafik","network:wikidata":"Q928178","operator":"Göteborgs Spårvägar","operator:wikidata":"Q10512910","public_transport":"stop_position","railway":"tram_stop","ref":"B","tram":"yes","wikidata":"Q107999417"}},{"type":"node","id":1331318541,"lat":57.7131299,"lon":11.9914105,"tags":{"name":"Svingeln","network":"Västtrafik","network:wikidata":"Q928178","operator":"Göteborgs Spårvägar","operator:wikidata":"Q10512910","public_transport":"stop_position","railway":"tram_stop","ref":"A","tram":"yes","wikidata":"Q107999417"}},{"type":"node","id":1332422613,"lat":57.6744604,"lon":11.9362415,"tags":{"name":"Marklandsgatan","network":"Västtrafik","network:wikidata":"Q928178","operator":"Göteborgs Spårvägar","operator:wikidata":"Q10512910","public_transport":"stop_position","railway":"tram_stop","ref":"A","tram":"yes","wikidata":"Q107999385"}},{"type":"node","id":1332424585,"lat":57.6744438,"lon":11.9355553,"tags":{"name":"Marklandsgatan","network":"Västtrafik","network:wikidata":"Q928178","operator":"Göteborgs Spårvägar","operator:wikidata":"Q10512910","public_transport":"stop_position","railway":"tram_stop","ref":"B","tram":"yes","wikidata":"Q107999385"}},{"type":"node","id":1386002065,"lat":57.702532,"lon":11.9635991,"tags":{"name":"Grönsakstorget","network":"Västtrafik","network:wikidata":"Q928178","network:wikipedia":"sv:Västtrafik","operator":"Göteborgs Spårvägar","operator:wikidata":"Q10512910","public_transport":"stop_position","railway":"tram_stop","ref":"D","tram":"yes","wikidata":"Q107999063"}},{"type":"node","id":1395259825,"lat":57.6999594,"lon":11.9530791,"tags":{"name":"Järntorget","network":"Västtrafik","network:wikidata":"Q928178","operator":"Göteborgs Spårvägar","operator:wikidata":"Q10512910","public_transport":"stop_position","railway":"tram_stop","ref":"C","tram":"yes","wikidata":"Q17092837"}},{"type":"node","id":1395259845,"lat":57.700129,"lon":11.953095,"tags":{"name":"Järntorget","network":"Västtrafik","network:wikidata":"Q928178","operator":"Göteborgs Spårvägar","operator:wikidata":"Q10512910","public_transport":"stop_position","railway":"tram_stop","ref":"B","tram":"yes","wikidata":"Q17092837"}},{"type":"node","id":1453741647,"lat":57.6986136,"lon":11.9992078,"tags":{"name":"Sankt Sigfrids Plan","network":"Västtrafik","network:wikidata":"Q928178","operator":"Göteborgs Spårvägar","operator:wikidata":"Q10512910","public_transport":"stop_position","railway":"tram_stop","ref":"A","tram":"yes","wikidata":"Q107999005"}},{"type":"node","id":1453741694,"lat":57.6975356,"lon":11.9944519,"tags":{"bus":"yes","highway":"bus_stop","name":"Liseberg Station","network":"Västtrafik","network:wikidata":"Q928178","network:wikipedia":"sv:Västtrafik","operator":"Göteborgs Spårvägar","operator:wikidata":"Q10512910","public_transport":"stop_position","railway":"tram_stop","ref":"B3","tram":"yes"}},{"type":"node","id":1455773445,"lat":57.7003261,"lon":11.9750863,"tags":{"bus":"yes","highway":"bus_stop","local_ref":"C","name":"Valand","network":"Västtrafik","network:wikidata":"Q928178","network:wikipedia":"sv:Västtrafik","operator":"Göteborgs Spårvägar","operator:wikidata":"Q10512910","public_transport":"stop_position","railway":"tram_stop","ref":"C","tram":"yes","wikidata":"Q107999016"}},{"type":"node","id":1455773451,"lat":57.6986577,"lon":11.981542,"tags":{"bus":"yes","highway":"bus_stop","name":"Berzeliigatan","network":"Västtrafik","network:wikidata":"Q928178","network:wikipedia":"sv:Västtrafik","operator":"Göteborgs Spårvägar","operator:wikidata":"Q10512910","public_transport":"stop_position","railway":"tram_stop","ref":"B","tram":"yes","wikidata":"Q107999024"}},{"type":"node","id":1455776291,"lat":57.7048367,"lon":11.9849463,"tags":{"name":"Ullevi Södra","network":"Västtrafik","network:wikidata":"Q928178","operator":"Göteborgs Spårvägar","operator:wikidata":"Q10512910","public_transport":"stop_position","railway":"tram_stop","ref":"A","tram":"yes","wikidata":"Q107999014"}},{"type":"node","id":1455776366,"lat":57.7039541,"lon":11.9850022,"tags":{"name":"Ullevi Södra","network":"Västtrafik","network:wikidata":"Q928178","operator":"Göteborgs Spårvägar","operator:wikidata":"Q10512910","public_transport":"stop_position","railway":"tram_stop","ref":"B","tram":"yes","wikidata":"Q107999014"}},{"type":"node","id":1499296465,"lat":57.7067075,"lon":11.9697852,"tags":{"bus":"yes","highway":"bus_stop","local_ref":"C2","name":"Brunnsparken","network":"Västtrafik","network:wikidata":"Q928178","network:wikipedia":"sv:Västtrafik","operator":"Göteborgs Spårvägar","operator:wikidata":"Q10512910","public_transport":"stop_position","railway":"tram_stop","ref":"C2","tram":"yes","wikidata":"Q107999030"}},{"type":"node","id":1517531567,"lat":57.70712,"lon":11.9678056,"tags":{"bus":"yes","highway":"bus_stop","local_ref":"A1","name":"Brunnsparken","network":"Västtrafik","network:wikidata":"Q928178","network:wikipedia":"sv:Västtrafik","operator":"Göteborgs Spårvägar","operator:wikidata":"Q10512910","public_transport":"stop_position","railway":"tram_stop","ref":"A1","tram":"yes","wikidata":"Q107999030"}},{"type":"node","id":1517531575,"lat":57.7091497,"lon":11.966751,"tags":{"bus":"yes","highway":"bus_stop","name":"Lilla Bommen","network":"Västtrafik","network:wikidata":"Q928178","network:wikipedia":"sv:Västtrafik","operator":"Göteborgs Spårvägar","operator:wikidata":"Q10512910","public_transport":"stop_position","railway":"tram_stop","ref":"A","tram":"yes","wikidata":"Q107999377"}},{"type":"node","id":1517531622,"lat":57.7129359,"lon":11.8931473,"tags":{"name":"Vårväderstorget","network":"Västtrafik","network:wikidata":"Q928178","network:wikipedia":"sv:Västtrafik","public_transport":"stop_position","railway":"tram_stop","ref":"A","tram":"yes","wikidata":"Q107999429"}},{"type":"node","id":1517531632,"lat":57.7136356,"lon":11.9029025,"tags":{"name":"Sälöfjordsgatan","network":"Västtrafik","network:wikidata":"Q928178","network:wikipedia":"sv:Västtrafik","public_transport":"stop_position","railway":"tram_stop","ref":"A","tram":"yes","wikidata":"Q107999418"}},{"type":"node","id":1517531658,"lat":57.7156823,"lon":11.890926,"tags":{"name":"Mildvädersgatan","network":"Västtrafik","network:wikidata":"Q928178","network:wikipedia":"sv:Västtrafik","public_transport":"stop_position","railway":"tram_stop","ref":"A","tram":"yes","wikidata":"Q107999001"}},{"type":"node","id":1517531668,"lat":57.7164903,"lon":11.9099118,"tags":{"name":"Eketrägatan","network":"Västtrafik","network:wikidata":"Q928178","network:wikipedia":"sv:Västtrafik","public_transport":"stop_position","railway":"tram_stop","ref":"A","tram":"yes","wikidata":"Q107999052"}},{"type":"node","id":1517531693,"lat":57.7183037,"lon":11.9191595,"tags":{"name":"Gropegårdsgatan","network":"Västtrafik","network:wikidata":"Q928178","network:wikipedia":"sv:Västtrafik","public_transport":"stop_position","railway":"tram_stop","ref":"A","tram":"yes","wikidata":"Q107999062"}},{"type":"node","id":1517531702,"lat":57.7193628,"lon":11.9268524,"tags":{"name":"Rambergsvallen","network":"Västtrafik","network:wikidata":"Q928178","network:wikipedia":"sv:Västtrafik","operator":"Göteborgs Spårvägar","operator:wikidata":"Q10512910","public_transport":"stop_position","railway":"tram_stop","ref":"A","tram":"yes","wikidata":"Q107999404"}},{"type":"node","id":1517531715,"lat":57.7202963,"lon":11.9600926,"tags":{"local_ref":"A","name":"Frihamnen","network":"Västtrafik","network:wikidata":"Q928178","network:wikipedia":"sv:Västtrafik","operator":"Göteborgs Spårvägar","operator:wikidata":"Q10512910","public_transport":"stop_position","railway":"tram_stop","ref":"A","tram":"yes","wikidata":"Q107999056"}},{"type":"node","id":1517531727,"lat":57.7203002,"lon":11.8930623,"tags":{"name":"Önskevädersgatan","network":"Västtrafik","network:wikidata":"Q928178","network:wikipedia":"sv:Västtrafik","public_transport":"stop_position","railway":"tram_stop","ref":"A","tram":"yes","wikidata":"Q107999431"}},{"type":"node","id":1517531747,"lat":57.7205356,"lon":11.9451644,"tags":{"local_ref":"A","name":"Vågmästareplatsen","network":"Västtrafik","network:wikidata":"Q928178","network:wikipedia":"sv:Västtrafik","operator":"Göteborgs Spårvägar","operator:wikidata":"Q10512910","public_transport":"stop_position","railway":"tram_stop","ref":"B1","tram":"yes","wikidata":"Q107999428"}},{"type":"node","id":1517531764,"lat":57.7205998,"lon":11.9355948,"tags":{"local_ref":"A","name":"Wieselgrensplatsen","network":"Västtrafik","network:wikidata":"Q928178","network:wikipedia":"sv:Västtrafik","operator":"Göteborgs Spårvägar","operator:wikidata":"Q10512910","public_transport":"stop_position","railway":"tram_stop","ref":"A","tram":"yes","wikidata":"Q107999427"}},{"type":"node","id":1517531768,"lat":57.7206077,"lon":11.9522789,"tags":{"bus":"yes","local_ref":"A3","name":"Hjalmar Brantingsplatsen","network":"Västtrafik","network:wikidata":"Q928178","network:wikipedia":"sv:Västtrafik","operator":"Göteborgs Spårvägar","operator:wikidata":"Q10512910","public_transport":"stop_position","railway":"tram_stop","ref":"A3","tram":"yes","wikidata":"Q107999362"}},{"type":"node","id":1517531806,"lat":57.723557,"lon":11.8932259,"tags":{"name":"Friskväderstorget","network":"Västtrafik","network:wikidata":"Q928178","network:wikipedia":"sv:Västtrafik","operator":"Göteborgs Spårvägar","operator:wikidata":"Q10512910","public_transport":"stop_position","railway":"tram_stop","ref":"A","tram":"yes","wikidata":"Q107999057"}},{"type":"node","id":1517531812,"lat":57.7265507,"lon":11.8933218,"tags":{"name":"Väderilsgatan","network":"Västtrafik","network:wikidata":"Q928178","network:wikipedia":"sv:Västtrafik","operator":"Göteborgs Spårvägar","operator:wikidata":"Q10512910","public_transport":"stop_position","railway":"tram_stop","ref":"B","tram":"yes","wikidata":"Q107999430"}},{"type":"node","id":1525835669,"lat":57.6899655,"lon":11.9520485,"tags":{"name":"Linnéplatsen","network":"Västtrafik","network:wikidata":"Q928178","operator":"Göteborgs Spårvägar","operator:wikidata":"Q10512910","public_transport":"stop_position","railway":"tram_stop","ref":"B","tram":"yes","wikidata":"Q107999378"}},{"type":"node","id":1525835703,"lat":57.6921408,"lon":11.9524694,"tags":{"bus":"yes","highway":"bus_stop","name":"Olivedalsgatan","network":"Västtrafik","network:wikidata":"Q928178","network:wikipedia":"sv:Västtrafik","operator":"Göteborgs Spårvägar","operator:wikidata":"Q10512910","public_transport":"stop_position","railway":"tram_stop","ref":"B","tram":"yes","wikidata":"Q107999398"}},{"type":"node","id":1570029363,"lat":57.6989398,"lon":11.9705111,"tags":{"bus":"yes","highway":"bus_stop","local_ref":"A","name":"Vasaplatsen","network":"Västtrafik","network:wikidata":"Q928178","network:wikipedia":"sv:Västtrafik","operator":"Göteborgs Spårvägar","operator:wikidata":"Q10512910","public_transport":"stop_position","railway":"tram_stop","ref":"A","tram":"yes","wikidata":"Q107999423"}},{"type":"node","id":1570029364,"lat":57.6991712,"lon":11.9694221,"tags":{"bus":"yes","highway":"bus_stop","name":"Vasaplatsen","network":"Västtrafik","network:wikidata":"Q928178","network:wikipedia":"sv:Västtrafik","operator":"Göteborgs Spårvägar","operator:wikidata":"Q10512910","public_transport":"stop_position","railway":"tram_stop","ref":"D","tram":"yes","wikidata":"Q107999423"}},{"type":"node","id":1570029365,"lat":57.6994174,"lon":11.9693282,"tags":{"bus":"yes","highway":"bus_stop","local_ref":"C","name":"Vasaplatsen","network":"Västtrafik","network:wikidata":"Q928178","network:wikipedia":"sv:Västtrafik","operator":"Göteborgs Spårvägar","operator:wikidata":"Q10512910","public_transport":"stop_position","railway":"tram_stop","ref":"C","tram":"yes","wikidata":"Q107999423"}},{"type":"node","id":1570146689,"lat":57.7042393,"lon":11.9636908,"tags":{"bus":"yes","highway":"bus_stop","name":"Domkyrkan","network":"Västtrafik","network:wikidata":"Q928178","network:wikipedia":"sv:Västtrafik","operator":"Göteborgs Spårvägar","operator:wikidata":"Q10512910","public_transport":"stop_position","railway":"tram_stop","ref":"B","tram":"yes"}},{"type":"node","id":1570146695,"lat":57.7043165,"lon":11.9637167,"tags":{"bus":"yes","highway":"bus_stop","name":"Domkyrkan","network":"Västtrafik","network:wikidata":"Q928178","network:wikipedia":"sv:Västtrafik","operator":"Göteborgs Spårvägar","operator:wikidata":"Q10512910","public_transport":"stop_position","railway":"tram_stop","ref":"A","tram":"yes"}},{"type":"node","id":1570146707,"lat":57.7024365,"lon":11.9649306,"tags":{"bus":"yes","highway":"bus_stop","name":"Grönsakstorget","network":"Västtrafik","network:wikidata":"Q928178","network:wikipedia":"sv:Västtrafik","operator":"Göteborgs Spårvägar","operator:wikidata":"Q10512910","public_transport":"stop_position","railway":"tram_stop","ref":"B","tram":"yes","wikidata":"Q107999063"}},{"type":"node","id":1570146716,"lat":57.7025402,"lon":11.9648784,"tags":{"bus":"yes","highway":"bus_stop","name":"Grönsakstorget","network":"Västtrafik","network:wikidata":"Q928178","network:wikipedia":"sv:Västtrafik","operator":"Göteborgs Spårvägar","operator:wikidata":"Q10512910","public_transport":"stop_position","railway":"tram_stop","ref":"A","tram":"yes","wikidata":"Q107999063"}},{"type":"node","id":1570146729,"lat":57.7025963,"lon":11.9639594,"tags":{"bus":"yes","highway":"bus_stop","name":"Grönsakstorget","network":"Västtrafik","network:wikidata":"Q928178","network:wikipedia":"sv:Västtrafik","operator":"Göteborgs Spårvägar","operator:wikidata":"Q10512910","public_transport":"stop_position","railway":"tram_stop","ref":"C","tram":"yes","wikidata":"Q107999063"}},{"type":"node","id":1570146743,"lat":57.6927695,"lon":11.9735487,"tags":{"bus":"yes","highway":"bus_stop","local_ref":"B","name":"Kapellplatsen","network":"Västtrafik","network:wikidata":"Q928178","network:wikipedia":"sv:Västtrafik","operator":"Göteborgs Spårvägar","operator:wikidata":"Q10512910","public_transport":"stop_position","railway":"tram_stop","ref":"B","tram":"yes","wikidata":"Q107999365"}},{"type":"node","id":1570146748,"lat":57.6932946,"lon":11.9733531,"tags":{"bus":"yes","highway":"bus_stop","local_ref":"A","name":"Kapellplatsen","network":"Västtrafik","network:wikidata":"Q928178","network:wikipedia":"sv:Västtrafik","operator":"Göteborgs Spårvägar","operator:wikidata":"Q10512910","public_transport":"stop_position","railway":"tram_stop","ref":"A","tram":"yes","wikidata":"Q107999365"}},{"type":"node","id":1570367029,"lat":57.7039668,"lon":11.9697972,"tags":{"name":"Kungsportsplatsen","network":"Västtrafik","network:wikidata":"Q928178","operator":"Göteborgs Spårvägar","operator:wikidata":"Q10512910","public_transport":"stop_position","railway":"tram_stop","ref":"B","tram":"yes","wikidata":"Q107998998"}},{"type":"node","id":1570367033,"lat":57.7041317,"lon":11.9696182,"tags":{"name":"Kungsportsplatsen","network":"Västtrafik","network:wikidata":"Q928178","operator":"Göteborgs Spårvägar","operator:wikidata":"Q10512910","public_transport":"stop_position","railway":"tram_stop","ref":"A","tram":"yes","wikidata":"Q107998998"}},{"type":"node","id":1585220017,"lat":57.6614548,"lon":12.0136632,"tags":{"name":"Mölndals sjukhus","network":"Västtrafik","network:wikidata":"Q928178","operator":"Göteborgs Spårvägar","operator:wikidata":"Q10512910","public_transport":"stop_position","railway":"tram_stop","ref":"B","tram":"yes","wikidata":"Q107999392"}},{"type":"node","id":1585220249,"lat":57.6663479,"lon":12.0114421,"tags":{"local_ref":"A","name":"Lackarebäck","network":"Västtrafik","network:wikidata":"Q928178","operator":"Göteborgs Spårvägar","operator:wikidata":"Q10512910","public_transport":"stop_position","railway":"tram_stop","ref":"A","tram":"yes","wikidata":"Q107998999"}},{"type":"node","id":1585220305,"lat":57.6717887,"lon":12.0100249,"tags":{"local_ref":"B","name":"Krokslätts Fabriker","network":"Västtrafik","network:wikidata":"Q928178","operator":"Göteborgs Spårvägar","operator:wikidata":"Q10512910","public_transport":"stop_position","railway":"tram_stop","ref":"B","tram":"yes","wikidata":"Q107998996"}},{"type":"node","id":1585220500,"lat":57.6783362,"lon":12.0041816,"tags":{"local_ref":"A","name":"Lana","network":"Västtrafik","network:wikidata":"Q928178","operator":"Göteborgs Spårvägar","operator:wikidata":"Q10512910","public_transport":"stop_position","railway":"tram_stop","ref":"A","tram":"yes","wikidata":"Q107999000"}},{"type":"node","id":1678131041,"lat":57.6964754,"lon":11.9513521,"tags":{"bus":"yes","highway":"bus_stop","name":"Prinsgatan","network":"Västtrafik","network:wikidata":"Q928178","network:wikipedia":"sv:Västtrafik","operator":"Göteborgs Spårvägar","operator:wikidata":"Q10512910","public_transport":"stop_position","railway":"tram_stop","ref":"B","tram":"yes","wikidata":"Q107999403"}},{"type":"node","id":1691294724,"lat":57.6993282,"lon":11.9426724,"tags":{"name":"Masthuggstorget","network":"Västtrafik","network:wikidata":"Q928178","operator":"Göteborgs Spårvägar","operator:wikidata":"Q10512910","public_transport":"stop_position","railway":"tram_stop","ref":"B","tram":"yes","wikidata":"Q17103418"}},{"type":"node","id":1691318990,"lat":57.696839,"lon":11.9868284,"tags":{"bus":"yes","highway":"bus_stop","name":"Korsvägen","network":"Västtrafik","network:wikidata":"Q928178","network:wikipedia":"sv:Västtrafik","operator":"Göteborgs Spårvägar","operator:wikidata":"Q10512910","public_transport":"stop_position","railway":"tram_stop","ref":"A3","tram":"yes","wikidata":"Q6432683"}},{"type":"node","id":1751676420,"lat":57.7155501,"lon":11.8909961,"tags":{"name":"Mildvädersgatan","network":"Västtrafik","network:wikidata":"Q928178","network:wikipedia":"sv:Västtrafik","public_transport":"stop_position","railway":"tram_stop","ref":"B","tram":"yes","wikidata":"Q107999001"}},{"type":"node","id":1751728835,"lat":57.6975236,"lon":11.9938309,"tags":{"bus":"yes","highway":"bus_stop","name":"Liseberg Station","network":"Västtrafik","network:wikidata":"Q928178","network:wikipedia":"sv:Västtrafik","operator":"Göteborgs Spårvägar","operator:wikidata":"Q10512910","public_transport":"stop_position","railway":"tram_stop","ref":"B2","tram":"yes","wikidata":"Q107999379"}},{"type":"node","id":1752632594,"lat":57.6900225,"lon":11.9730927,"tags":{"name":"Chalmers","network":"Västtrafik","network:wikidata":"Q928178","operator":"Göteborgs Spårvägar","operator:wikidata":"Q10512910","public_transport":"stop_position","railway":"tram_stop","ref":"A","tram":"yes","wikidata":"Q107998987"}},{"type":"node","id":1752632595,"lat":57.689904,"lon":11.9726412,"tags":{"name":"Chalmers","network":"Västtrafik","network:wikidata":"Q928178","operator":"Göteborgs Spårvägar","operator:wikidata":"Q10512910","public_transport":"stop_position","railway":"tram_stop","ref":"B","tram":"yes","wikidata":"Q107998987"}},{"type":"node","id":1752632616,"lat":57.6889682,"lon":11.968195,"tags":{"bus":"yes","highway":"bus_stop","name":"Wavrinskys Plats","network":"Västtrafik","network:wikidata":"Q928178","network:wikipedia":"sv:Västtrafik","operator":"Göteborgs Spårvägar","operator:wikidata":"Q10512910","public_transport":"stop_position","railway":"tram_stop","ref":"D","tram":"yes","wikidata":"Q107999424"}},{"type":"node","id":1752632677,"lat":57.6888028,"lon":11.9684664,"tags":{"bus":"yes","name":"Wavrinskys Plats","network":"Västtrafik","network:wikidata":"Q928178","operator":"Göteborgs Spårvägar","operator:wikidata":"Q10512910","public_transport":"stop_position","railway":"tram_stop","ref":"B","tram":"yes","website":"https://www.vasttrafik.se/reseplanering/hallplatser/9021014007340000/","wikidata":"Q107999424"}},{"type":"node","id":1753135230,"lat":57.6852715,"lon":11.9641644,"tags":{"name":"Medicinaregatan","network":"Västtrafik","network:wikidata":"Q928178","operator":"Göteborgs Spårvägar","operator:wikidata":"Q10512910","public_transport":"stop_position","railway":"tram_stop","ref":"B","tram":"yes","wikidata":"Q107999387"}},{"type":"node","id":1753135234,"lat":57.6919036,"lon":11.9536628,"tags":{"name":"Olivedalsgatan","network":"Västtrafik","network:wikidata":"Q928178","operator":"Göteborgs Spårvägar","operator:wikidata":"Q10512910","public_transport":"stop_position","railway":"tram_stop","ref":"C","tram":"yes","wikidata":"Q107999398"}},{"type":"node","id":1753135240,"lat":57.6836795,"lon":11.9614653,"tags":{"bus":"yes","highway":"bus_stop","local_ref":"B","name":"Sahlgrenska Huvudentré","network":"Västtrafik","network:wikidata":"Q928178","network:wikipedia":"sv:Västtrafik","operator":"Göteborgs Spårvägar","operator:wikidata":"Q10512910","public_transport":"stop_position","railway":"tram_stop","ref":"B","tram":"yes","wikidata":"Q107999407"}},{"type":"node","id":1753222905,"lat":57.6834396,"lon":12.0004371,"tags":{"local_ref":"B","name":"Elisedal","network":"Västtrafik","network:wikidata":"Q928178","operator":"Göteborgs Spårvägar","operator:wikidata":"Q10512910","public_transport":"stop_position","railway":"tram_stop","ref":"B","tram":"yes","wikidata":"Q107999054"}},{"type":"node","id":1753222908,"lat":57.6916821,"lon":11.9921031,"tags":{"bus":"yes","highway":"bus_stop","name":"Liseberg Södra","network":"Västtrafik","network:wikidata":"Q928178","network:wikipedia":"sv:Västtrafik","operator":"Göteborgs Spårvägar","operator:wikidata":"Q10512910","public_transport":"stop_position","railway":"tram_stop","ref":"B","tram":"yes","wikidata":"Q107999060"}},{"type":"node","id":1753222909,"lat":57.6796154,"lon":12.0030599,"tags":{"name":"Varbergsgatan","network":"Västtrafik","network:wikidata":"Q928178","operator":"Göteborgs Spårvägar","operator:wikidata":"Q10512910","public_transport":"stop_position","railway":"tram_stop","ref":"B","tram":"yes","wikidata":"Q107999017"}},{"type":"node","id":1753222912,"lat":57.6780259,"lon":12.004441,"tags":{"local_ref":"B","name":"Lana","network":"Västtrafik","network:wikidata":"Q928178","operator":"Göteborgs Spårvägar","operator:wikidata":"Q10512910","public_transport":"stop_position","railway":"tram_stop","ref":"B","tram":"yes","wikidata":"Q107999000"}},{"type":"node","id":1753355814,"lat":57.6723825,"lon":11.9278338,"tags":{"name":"Axel Dahlströms torg","network":"Västtrafik","network:wikidata":"Q928178","network:wikipedia":"sv:Västtrafik","operator":"Göteborgs Spårvägar","operator:wikidata":"Q10512910","public_transport":"stop_position","railway":"tram_stop","ref":"B","tram":"yes","wikidata":"Q107999022"}},{"type":"node","id":1753355815,"lat":57.6486751,"lon":11.9035015,"tags":{"name":"Briljantgatan","network":"Västtrafik","network:wikidata":"Q928178","operator":"Göteborgs Spårvägar","operator:wikidata":"Q10512910","public_transport":"stop_position","railway":"tram_stop","ref":"A","tram":"yes","wikidata":"Q107999028"}},{"type":"node","id":1753355816,"lat":57.6488285,"lon":11.9034678,"tags":{"name":"Briljantgatan","network":"Västtrafik","network:wikidata":"Q928178","operator":"Göteborgs Spårvägar","operator:wikidata":"Q10512910","public_transport":"stop_position","railway":"tram_stop","ref":"B","tram":"yes","wikidata":"Q107999028"}},{"type":"node","id":1753355817,"lat":57.6527721,"lon":11.9116038,"tags":{"name":"Frölunda Torg","network":"Västtrafik","network:wikidata":"Q928178","operator":"Göteborgs Spårvägar","operator:wikidata":"Q10512910","public_transport":"stop_position","railway":"tram_stop","ref":"A","tram":"yes"}},{"type":"node","id":1753355818,"lat":57.6452838,"lon":11.8992279,"tags":{"name":"Smaragdgatan","network":"Västtrafik","network:wikidata":"Q928178","operator":"Göteborgs Spårvägar","operator:wikidata":"Q10512910","public_transport":"stop_position","railway":"tram_stop","ref":"A","tram":"yes","wikidata":"Q107999416"}},{"type":"node","id":1753413384,"lat":57.6668624,"lon":11.9248261,"tags":{"name":"Lantmilsgatan","network":"Västtrafik","network:wikidata":"Q928178","network:wikipedia":"sv:Västtrafik","public_transport":"stop_position","railway":"tram_stop","ref":"A","tram":"yes","wikidata":"Q107999376"}},{"type":"node","id":1753413386,"lat":57.6624732,"lon":11.9250576,"tags":{"name":"Nymilsgatan","network":"Västtrafik","network:wikidata":"Q928178","network:wikipedia":"sv:Västtrafik","public_transport":"stop_position","railway":"tram_stop","ref":"A","tram":"yes","wikidata":"Q107999396"}},{"type":"node","id":1753413387,"lat":57.6566434,"lon":11.9175089,"tags":{"name":"Positivgatan","network":"Västtrafik","network:wikidata":"Q928178","operator":"Göteborgs Spårvägar","operator:wikidata":"Q10512910","public_transport":"stop_position","railway":"tram_stop","ref":"A","tram":"yes","wikidata":"Q107999002"}},{"type":"node","id":1753919688,"lat":57.7327369,"lon":11.8952652,"tags":{"name":"Temperaturgatan","network":"Västtrafik","network:wikidata":"Q928178","network:wikipedia":"sv:Västtrafik","public_transport":"stop_position","railway":"tram_stop","ref":"A","tram":"yes","wikidata":"Q107999010"}},{"type":"node","id":1757383268,"lat":57.6747118,"lon":11.8836767,"tags":{"name":"Hagen","network":"Västtrafik","network:wikidata":"Q928178","network:wikipedia":"sv:Västtrafik","public_transport":"stop_position","railway":"tram_stop","ref":"A","tram":"yes","wikidata":"Q107998989"}},{"type":"node","id":1757383269,"lat":57.6676904,"lon":11.8610197,"tags":{"name":"Hinsholmen","network":"Västtrafik","network:wikidata":"Q928178","network:wikipedia":"sv:Västtrafik","public_transport":"stop_position","railway":"tram_stop","ref":"A","tram":"yes","wikidata":"Q107999360"}},{"type":"node","id":1757383270,"lat":57.6804129,"lon":11.9015691,"tags":{"name":"Kungssten","network":"Västtrafik","network:wikidata":"Q928178","network:wikipedia":"sv:Västtrafik","public_transport":"stop_position","railway":"tram_stop","ref":"B2","tram":"yes","wikidata":"Q107999372"}},{"type":"node","id":1757383271,"lat":57.6692358,"lon":11.8710883,"tags":{"name":"Käringberget","network":"Västtrafik","network:wikidata":"Q928178","operator":"Göteborgs Spårvägar","operator:wikidata":"Q10512910","public_transport":"stop_position","railway":"tram_stop","ref":"A","tram":"yes","wikidata":"Q107999375"}},{"type":"node","id":1757383272,"lat":57.668394,"lon":11.8536044,"tags":{"name":"Långedrag","network":"Västtrafik","network:wikidata":"Q928178","network:wikipedia":"sv:Västtrafik","public_transport":"stop_position","railway":"tram_stop","ref":"A","tram":"yes","wikidata":"Q107999382"}},{"type":"node","id":1757383273,"lat":57.6777757,"lon":11.8944839,"tags":{"name":"Nya Varvsallén","network":"Västtrafik","network:wikidata":"Q928178","network:wikipedia":"sv:Västtrafik","public_transport":"stop_position","railway":"tram_stop","ref":"A","tram":"yes","wikidata":"Q107999394"}},{"type":"node","id":1757383275,"lat":57.6827648,"lon":11.9095017,"tags":{"name":"Sandarna","network":"Västtrafik","network:wikidata":"Q928178","network:wikipedia":"sv:Västtrafik","operator":"Göteborgs Spårvägar","operator:wikidata":"Q10512910","public_transport":"stop_position","railway":"tram_stop","ref":"A","tram":"yes","wikidata":"Q107999410"}},{"type":"node","id":1757383276,"lat":57.6843413,"lon":11.9167929,"tags":{"name":"Sannaplan","network":"Västtrafik","network:wikidata":"Q928178","network:wikipedia":"sv:Västtrafik","operator":"Göteborgs Spårvägar","operator:wikidata":"Q10512910","public_transport":"stop_position","railway":"tram_stop","ref":"A","tram":"yes","wikidata":"Q107999412"}},{"type":"node","id":1759293579,"lat":57.6944871,"lon":11.9198453,"tags":{"bus":"yes","highway":"bus_stop","name":"Chapmans Torg","network":"Västtrafik","network:wikidata":"Q928178","network:wikipedia":"sv:Västtrafik","operator":"Västtraffik","operator:wikidata":"Q10512910","public_transport":"stop_position","railway":"tram_stop","ref":"A","tram":"yes","wikidata":"Q107998988"}},{"type":"node","id":1759293580,"lat":57.6916652,"lon":11.915473,"tags":{"alt_name":"Jaegerdorffsplaten;Jägerdorffsplatsen","bus":"yes","highway":"bus_stop","name":"Jægerdorffsplatsen","network":"Västtrafik","network:wikidata":"Q928178","network:wikipedia":"sv:Västtrafik","operator":"Göteborgs Spårvägar","operator:wikidata":"Q10512910","public_transport":"stop_position","railway":"tram_stop","ref":"A","tram":"yes","wikidata":"Q16977685"}},{"type":"node","id":1759293581,"lat":57.6993647,"lon":11.9433281,"tags":{"name":"Masthuggstorget","network":"Västtrafik","network:wikidata":"Q928178","operator":"Göteborgs Spårvägar","operator:wikidata":"Q10512910","public_transport":"stop_position","railway":"tram_stop","ref":"A","tram":"yes","wikidata":"Q17103418"}},{"type":"node","id":1759293582,"lat":57.6993315,"lon":11.935545,"tags":{"name":"Stigbergstorget","network":"Västtrafik","network:wikidata":"Q928178","operator":"Göteborgs Spårvägar","operator:wikidata":"Q10512910","public_transport":"stop_position","railway":"tram_stop","ref":"A","tram":"yes","wikidata":"Q17104123"}},{"type":"node","id":1767990477,"lat":57.6812619,"lon":11.9455821,"tags":{"name":"Botaniska Trädgården","network":"Västtrafik","network:wikidata":"Q928178","network:wikipedia":"sv:Västtrafik","operator":"Göteborgs Spårvägar","operator:wikidata":"Q10512910","public_transport":"stop_position","railway":"tram_stop","ref":"A","tram":"yes","wikidata":"Q107999027"}},{"type":"node","id":1767990484,"lat":57.6814746,"lon":11.9458868,"tags":{"name":"Botaniska Trädgården","network":"Västtrafik","network:wikidata":"Q928178","network:wikipedia":"sv:Västtrafik","operator":"Göteborgs Spårvägar","operator:wikidata":"Q10512910","public_transport":"stop_position","railway":"tram_stop","ref":"B","tram":"yes","wikidata":"Q107999027"}},{"type":"node","id":1767990496,"lat":57.6589341,"lon":11.9204561,"tags":{"name":"Musikvägen","network":"Västtrafik","network:wikidata":"Q928178","operator":"Göteborgs Spårvägar","operator:wikidata":"Q10512910","public_transport":"stop_position","railway":"tram_stop","ref":"A","tram":"yes","wikidata":"Q107999390"}},{"type":"node","id":1767990505,"lat":57.6590793,"lon":11.9206047,"tags":{"name":"Musikvägen","network":"Västtrafik","network:wikidata":"Q928178","operator":"Göteborgs Spårvägar","operator:wikidata":"Q10512910","public_transport":"stop_position","railway":"tram_stop","ref":"B","tram":"yes","wikidata":"Q107999390"}},{"type":"node","id":1768040496,"lat":57.6996437,"lon":11.9624545,"tags":{"name":"Hagakyrkan","network":"Västtrafik","network:wikidata":"Q928178","operator":"Göteborgs Spårvägar","operator:wikidata":"Q10512910","public_transport":"stop_position","railway":"tram_stop","ref":"B","tram":"yes","wikidata":"Q107999663"}},{"type":"node","id":1768040499,"lat":57.7081143,"lon":11.9861768,"tags":{"name":"Ullevi Norra","network":"Västtrafik","network:wikidata":"Q928178","operator":"Göteborgs Spårvägar","operator:wikidata":"Q10512910","public_transport":"stop_position","railway":"tram_stop","ref":"A","tram":"yes","wikidata":"Q107999013"}},{"type":"node","id":1775831995,"lat":57.7003947,"lon":11.9858686,"tags":{"name":"Scandinavium","network":"Västtrafik","network:wikidata":"Q928178","operator":"Göteborgs Spårvägar","operator:wikidata":"Q10512910","public_transport":"stop_position","railway":"tram_stop","ref":"B","tram":"yes","wikidata":"Q107999413"}},{"type":"node","id":1795684472,"lat":57.7513285,"lon":12.070946,"tags":{"name":"Komettorget","network":"Västtrafik","network:wikidata":"Q928178","network:wikipedia":"sv:Västtrafik","operator":"Göteborgs Spårvägar","operator:wikidata":"Q10512910","public_transport":"stop_position","railway":"tram_stop","ref":"D","tram":"yes","wikidata":"Q107999369"}},{"type":"node","id":1795684474,"lat":57.7513574,"lon":12.0710292,"tags":{"name":"Komettorget","network":"Västtrafik","network:wikidata":"Q928178","network:wikipedia":"sv:Västtrafik","operator":"Göteborgs Spårvägar","operator:wikidata":"Q10512910","public_transport":"stop_position","railway":"tram_stop","ref":"C","tram":"yes","wikidata":"Q107999369"}},{"type":"node","id":1795743508,"lat":57.642929,"lon":11.900071,"tags":{"name":"Opaltorget","network":"Västtrafik","network:wikidata":"Q928178","operator":"Göteborgs Spårvägar","operator:wikidata":"Q10512910","public_transport":"stop_position","railway":"tram_stop","ref":"A","tram":"yes","wikidata":"Q107999400"}},{"type":"node","id":1795743509,"lat":57.642528,"lon":11.9005512,"tags":{"name":"Opaltorget","network":"Västtrafik","network:wikidata":"Q928178","operator":"Göteborgs Spårvägar","operator:wikidata":"Q10512910","public_transport":"stop_position","railway":"tram_stop","ref":"B","tram":"yes","wikidata":"Q107999400"}},{"type":"node","id":1836994502,"lat":57.6773335,"lon":11.9326449,"tags":{"name":"Bokekullsgatan","network":"Västtrafik","network:wikidata":"Q928178","network:wikipedia":"sv:Västtrafik","operator":"Göteborgs Spårvägar","operator:wikidata":"Q10512910","public_transport":"stop_position","railway":"tram_stop","ref":"A","tram":"yes","wikidata":"Q107999026"}},{"type":"node","id":1845284463,"lat":57.6847568,"lon":11.9257249,"tags":{"name":"Godhemsgatan","network":"Västtrafik","network:wikidata":"Q928178","operator":"Göteborgs Spårvägar","operator:wikidata":"Q10512910","public_transport":"stop_position","railway":"tram_stop","ref":"A","tram":"yes","wikidata":"Q107999061"}},{"type":"node","id":1845284490,"lat":57.6823353,"lon":11.9281376,"tags":{"name":"Klintens Väg","network":"Västtrafik","network:wikidata":"Q928178","operator":"Göteborgs Spårvägar","operator:wikidata":"Q10512910","public_transport":"stop_position","railway":"tram_stop","ref":"A","tram":"yes","wikidata":"Q107999368"}},{"type":"node","id":1845284501,"lat":57.6803714,"lon":11.9300936,"tags":{"name":"Högsbogatan","network":"Västtrafik","network:wikidata":"Q928178","operator":"Göteborgs Spårvägar","operator:wikidata":"Q10512910","public_transport":"stop_position","railway":"tram_stop","ref":"A","tram":"yes","wikidata":"Q107998991"}},{"type":"node","id":1912648524,"lat":57.6844758,"lon":11.972663,"tags":{"local_ref":"B","name":"Doktor Fries Torg","network":"Västtrafik","network:wikidata":"Q928178","operator":"Göteborgs Spårvägar","operator:wikidata":"Q10512910","public_transport":"stop_position","railway":"tram_stop","ref":"B","tram":"yes","wikidata":"Q107999035"}},{"type":"node","id":1912648526,"lat":57.6843247,"lon":11.9731715,"tags":{"local_ref":"A","name":"Doktor Fries Torg","network":"Västtrafik","network:wikidata":"Q928178","operator":"Göteborgs Spårvägar","operator:wikidata":"Q10512910","public_transport":"stop_position","railway":"tram_stop","ref":"A","tram":"yes","wikidata":"Q107999035"}},{"type":"node","id":1913214087,"lat":57.6843059,"lon":11.9999349,"tags":{"local_ref":"A","name":"Elisedal","network":"Västtrafik","network:wikidata":"Q928178","operator":"Göteborgs Spårvägar","operator:wikidata":"Q10512910","public_transport":"stop_position","railway":"tram_stop","ref":"A","tram":"yes","wikidata":"Q107999054"}},{"type":"node","id":1913214088,"lat":57.6867861,"lon":11.9974999,"tags":{"name":"Almedal","network":"Västtrafik","network:wikidata":"Q928178","operator":"Göteborgs Spårvägar","operator:wikidata":"Q10512910","public_transport":"stop_position","railway":"tram_stop","ref":"B","tram":"yes","wikidata":"Q107999019"}},{"type":"node","id":1913214116,"lat":57.6804533,"lon":12.0025723,"tags":{"local_ref":"A","name":"Varbergsgatan","network":"Västtrafik","network:wikidata":"Q928178","operator":"Göteborgs Spårvägar","operator:wikidata":"Q10512910","public_transport":"stop_position","railway":"tram_stop","ref":"A","tram":"yes","wikidata":"Q107999017"}},{"type":"node","id":1913261811,"lat":57.6560881,"lon":12.0172243,"tags":{"name":"Mölndals Innerstad","network":"Västtrafik","network:wikidata":"Q928178","operator":"Göteborgs Spårvägar","operator:wikidata":"Q10512910","public_transport":"stop_position","railway":"tram_stop","ref":"A2","tram":"yes","wikidata":"Q107999391"}},{"type":"node","id":1913261814,"lat":57.6651824,"lon":12.0118863,"tags":{"local_ref":"B","name":"Lackarebäck","network":"Västtrafik","network:wikidata":"Q928178","operator":"Göteborgs Spårvägar","operator:wikidata":"Q10512910","public_transport":"stop_position","railway":"tram_stop","ref":"B","tram":"yes","wikidata":"Q107998999"}},{"type":"node","id":1913261819,"lat":57.6753924,"lon":12.0078652,"tags":{"local_ref":"B","name":"Krokslätts torg","network":"Västtrafik","network:wikidata":"Q928178","operator":"Göteborgs Spårvägar","operator:wikidata":"Q10512910","public_transport":"stop_position","railway":"tram_stop","ref":"B","tram":"yes","wikidata":"Q107998997"}},{"type":"node","id":1913261838,"lat":57.661537,"lon":12.0136912,"tags":{"name":"Mölndals sjukhus","network":"Västtrafik","network:wikidata":"Q928178","operator":"Göteborgs Spårvägar","operator:wikidata":"Q10512910","public_transport":"stop_position","railway":"tram_stop","ref":"A","tram":"yes","wikidata":"Q107999392"}},{"type":"node","id":1913261843,"lat":57.6720686,"lon":12.0099724,"tags":{"local_ref":"A","name":"Krokslätts Fabriker","network":"Västtrafik","network:wikidata":"Q928178","operator":"Göteborgs Spårvägar","operator:wikidata":"Q10512910","public_transport":"stop_position","railway":"tram_stop","ref":"A","tram":"yes","wikidata":"Q107998996"}},{"type":"node","id":1913304138,"lat":57.6565525,"lon":12.0169118,"tags":{"name":"Mölndals Innerstad","network":"Västtrafik","network:wikidata":"Q928178","operator":"Göteborgs Spårvägar","operator:wikidata":"Q10512910","public_transport":"stop_position","railway":"tram_stop","ref":"A1","tram":"yes","wikidata":"Q107999391"}},{"type":"node","id":2087541783,"lat":57.7224858,"lon":12.0479582,"tags":{"name":"Östra Sjukhuset","network":"Västtrafik","network:wikidata":"Q928178","operator":"Göteborgs Spårvägar","operator:wikidata":"Q10512910","public_transport":"stop_position","railway":"tram_stop","ref":"B","tram":"yes","wikidata":"Q107999432"}},{"type":"node","id":2087560478,"lat":57.722586,"lon":12.047442,"tags":{"name":"Östra Sjukhuset","network":"Västtrafik","network:wikidata":"Q928178","network:wikipedia":"sv:Västtrafik","operator":"Göteborgs Spårvägar","operator:wikidata":"Q10512910","public_transport":"stop_position","railway":"tram_stop","ref":"C","tram":"yes","wikidata":"Q107999432"}},{"type":"node","id":2087560489,"lat":57.7226357,"lon":12.0475051,"tags":{"name":"Östra Sjukhuset","network":"Västtrafik","network:wikidata":"Q928178","operator":"Göteborgs Spårvägar","operator:wikidata":"Q10512910","public_transport":"stop_position","railway":"tram_stop","ref":"D","tram":"yes","wikidata":"Q107999432"}},{"type":"node","id":2087898166,"lat":57.6941944,"lon":11.9362536,"tags":{"name":"Fjällgatan","network":"Västtrafik","network:wikidata":"Q928178","operator":"Göteborgs Spårvägar","operator:wikidata":"Q10512910","public_transport":"stop_position","railway":"tram_stop","ref":"B","tram":"yes","wikidata":"Q16935514"}},{"type":"node","id":2087898167,"lat":57.69443,"lon":11.9362249,"tags":{"name":"Fjällgatan","network":"Västtrafik","network:wikidata":"Q928178","network:wikipedia":"sv:Västtrafik","operator":"Göteborgs Spårvägar","operator:wikidata":"Q10512910","public_transport":"stop_position","railway":"tram_stop","ref":"A","tram":"yes","wikidata":"Q16935514"}},{"type":"node","id":2087898168,"lat":57.6854379,"lon":11.9264658,"tags":{"name":"Godhemsgatan","network":"Västtrafik","network:wikidata":"Q928178","operator":"Göteborgs Spårvägar","operator:wikidata":"Q10512910","public_transport":"stop_position","railway":"tram_stop","ref":"C","tram":"yes","wikidata":"Q107999061"}},{"type":"node","id":2087898169,"lat":57.6909343,"lon":11.9354935,"tags":{"name":"Majvallen","network":"Västtrafik","network:wikidata":"Q928178","operator":"Göteborgs Spårvägar","operator:wikidata":"Q10512910","public_transport":"stop_position","railway":"tram_stop","ref":"A","tram":"yes","wikidata":"Q107999383"}},{"type":"node","id":2087898351,"lat":57.6981719,"lon":11.934823,"tags":{"name":"Stigbergstorget","network":"Västtrafik","network:wikidata":"Q928178","operator":"Göteborgs Spårvägar","operator:wikidata":"Q10512910","public_transport":"stop_position","railway":"tram_stop","ref":"C","tram":"yes","wikidata":"Q17104123"}},{"type":"node","id":2087922967,"lat":57.6936796,"lon":11.9591759,"tags":{"name":"Brunnsgatan","network":"Västtrafik","network:wikidata":"Q928178","operator":"Göteborgs Spårvägar","operator:wikidata":"Q10512910","public_transport":"stop_position","railway":"tram_stop","ref":"B","tram":"yes","wikidata":"Q107999029"}},{"type":"node","id":2087922968,"lat":57.693785,"lon":11.959526,"tags":{"name":"Brunnsgatan","network":"Västtrafik","network:wikidata":"Q928178","operator":"Göteborgs Spårvägar","operator:wikidata":"Q10512910","public_transport":"stop_position","railway":"tram_stop","ref":"A","tram":"yes","wikidata":"Q107999029"}},{"type":"node","id":2087922969,"lat":57.696179,"lon":11.9624549,"tags":{"name":"Handelshögskolan","network":"Västtrafik","network:wikidata":"Q928178","operator":"Göteborgs Spårvägar","operator:wikidata":"Q10512910","public_transport":"stop_position","railway":"tram_stop","ref":"A","tram":"yes","wikidata":"Q107999342"}},{"type":"node","id":2087922970,"lat":57.6965303,"lon":11.9625825,"tags":{"name":"Handelshögskolan","network":"Västtrafik","network:wikidata":"Q928178","operator":"Göteborgs Spårvägar","operator:wikidata":"Q10512910","public_transport":"stop_position","railway":"tram_stop","ref":"B","tram":"yes","wikidata":"Q107999342"}},{"type":"node","id":2087922971,"lat":57.6969531,"lon":11.9270343,"tags":{"bus":"yes","highway":"bus_stop","name":"Kaptensgatan","network":"Västtrafik","network:wikidata":"Q928178","network:wikipedia":"sv:Västtrafik","operator":"Västtraffik","operator:wikidata":"Q10512910","public_transport":"stop_position","railway":"tram_stop","ref":"A","tram":"yes","wikidata":"Q17092979"}},{"type":"node","id":2087922972,"lat":57.6971859,"lon":11.9276919,"tags":{"bus":"yes","highway":"bus_stop","name":"Kaptensgatan","network":"Västtrafik","network:wikidata":"Q928178","network:wikipedia":"sv:Västtrafik","operator":"Västtraffik","operator:wikidata":"Q10512910","public_transport":"stop_position","railway":"tram_stop","ref":"B","tram":"yes","wikidata":"Q17092979"}},{"type":"node","id":2087922973,"lat":57.687621,"lon":11.9156354,"tags":{"name":"Ostindiegatan","network":"Västtrafik","network:wikidata":"Q928178","network:wikipedia":"sv:Västtrafik","operator":"Göteborgs Spårvägar","operator:wikidata":"Q10512910","public_transport":"stop_position","railway":"tram_stop","ref":"A","tram":"yes","wikidata":"Q107999401"}},{"type":"node","id":2087922974,"lat":57.6920634,"lon":11.9571597,"tags":{"name":"Seminariegatan","network":"Västtrafik","network:wikidata":"Q928178","operator":"Göteborgs Spårvägar","operator:wikidata":"Q10512910","public_transport":"stop_position","railway":"tram_stop","ref":"B","tram":"yes","wikidata":"Q107999414"}},{"type":"node","id":2087922975,"lat":57.6923509,"lon":11.9575419,"tags":{"name":"Seminariegatan","network":"Västtrafik","network:wikidata":"Q928178","operator":"Göteborgs Spårvägar","operator:wikidata":"Q10512910","public_transport":"stop_position","railway":"tram_stop","ref":"A","tram":"yes","wikidata":"Q107999414"}},{"type":"node","id":2087931321,"lat":57.686497,"lon":11.9202959,"tags":{"name":"Mariaplan","network":"Västtrafik","network:wikidata":"Q928178","operator":"Göteborgs Spårvägar","operator:wikidata":"Q10512910","public_transport":"stop_position","railway":"tram_stop","ref":"B","tram":"yes","wikidata":"Q107999384"}},{"type":"node","id":2087931322,"lat":57.6891533,"lon":11.9123981,"tags":{"name":"Vagnhallen Majorna","network":"Västtrafik","network:wikidata":"Q928178","network:wikipedia":"sv:Västtrafik","operator":"Göteborgs Spårvägar","operator:wikidata":"Q10512910","public_transport":"stop_position","railway":"tram_stop","ref":"A","tram":"yes","wikidata":"Q17057254"}},{"type":"node","id":2087956215,"lat":57.7956152,"lon":12.0491606,"tags":{"name":"Angered Centrum","network":"Västtrafik","network:wikidata":"Q928178","network:wikipedia":"sv:Västtrafik","public_transport":"stop_position","railway":"tram_stop","ref":"B","tram":"yes","wikidata":"Q107999020"}},{"type":"node","id":2087956223,"lat":57.7956371,"lon":12.0490585,"tags":{"name":"Angered Centrum","network":"Västtrafik","network:wikidata":"Q928178","network:wikipedia":"sv:Västtrafik","public_transport":"stop_position","railway":"tram_stop","ref":"C","tram":"yes","wikidata":"Q107999020"}},{"type":"node","id":2087956232,"lat":57.7960723,"lon":12.0495901,"tags":{"name":"Angered Centrum","network":"Västtrafik","network:wikidata":"Q928178","network:wikipedia":"sv:Västtrafik","public_transport":"stop_position","railway":"tram_stop","ref":"D","tram":"yes","wikidata":"Q107999020"}},{"type":"node","id":2087956245,"lat":57.7960881,"lon":12.0494795,"tags":{"name":"Angered Centrum","network":"Västtrafik","network:wikidata":"Q928178","network:wikipedia":"sv:Västtrafik","public_transport":"stop_position","railway":"tram_stop","ref":"E","tram":"yes","wikidata":"Q107999020"}},{"type":"node","id":2087956254,"lat":57.7960948,"lon":12.0493563,"tags":{"name":"Angered Centrum","network":"Västtrafik","network:wikidata":"Q928178","network:wikipedia":"sv:Västtrafik","public_transport":"stop_position","railway":"tram_stop","ref":"F","tram":"yes","wikidata":"Q107999020"}},{"type":"node","id":2132420249,"lat":57.6824578,"lon":11.9279564,"tags":{"name":"Klintens Väg","network":"Västtrafik","network:wikidata":"Q928178","operator":"Göteborgs Spårvägar","operator:wikidata":"Q10512910","public_transport":"stop_position","railway":"tram_stop","ref":"B","tram":"yes","wikidata":"Q107999368"}},{"type":"node","id":2176980153,"lat":57.7368794,"lon":11.8966544,"tags":{"name":"Varmfrontsgatan","network":"Västtrafik","network:wikidata":"Q928178","network:wikipedia":"sv:Västtrafik","public_transport":"stop_position","railway":"tram_stop","ref":"B","tram":"yes","wikidata":"Q107999421"}},{"type":"node","id":2177124793,"lat":57.672322,"lon":11.8793527,"tags":{"name":"Tranered","network":"Västtrafik","network:wikidata":"Q928178","network:wikipedia":"sv:Västtrafik","public_transport":"stop_position","railway":"tram_stop","ref":"A","tram":"yes","wikidata":"Q107999420"}},{"type":"node","id":2582722054,"lat":57.7074908,"lon":11.9676673,"tags":{"bus":"yes","highway":"bus_stop","local_ref":"A2","name":"Brunnsparken","network":"Västtrafik","network:wikidata":"Q928178","network:wikipedia":"sv:Västtrafik","operator":"Göteborgs Spårvägar","operator:wikidata":"Q10512910","public_transport":"stop_position","railway":"tram_stop","ref":"A2","tram":"yes","wikidata":"Q107999030"}},{"type":"node","id":2973072438,"lat":57.7322694,"lon":12.0238706,"tags":{"bus":"yes","highway":"bus_stop","name":"Bellevue","network":"Västtrafik","network:wikidata":"Q928178","network:wikipedia":"sv:Västtrafik","operator":"Göteborgs Spårvägar","operator:wikidata":"Q10512910","public_transport":"stop_position","railway":"tram_stop","ref":"A","tram":"yes","wikidata":"Q107999023"}},{"type":"node","id":3395041537,"lat":57.691937,"lon":11.9531887,"tags":{"name":"Olivedalsgatan","network":"Västtrafik","network:wikidata":"Q928178","operator":"Göteborgs Spårvägar","operator:wikidata":"Q10512910","public_transport":"stop_position","railway":"tram_stop","ref":"D","tram":"yes"}},{"type":"node","id":3707818835,"lat":57.70566,"lon":11.9574354,"tags":{"bus":"yes","highway":"bus_stop","name":"Stenpiren","network":"Västtrafik","network:wikidata":"Q928178","network:wikipedia":"sv:Västtrafik","operator":"Göteborgs Spårvägar","operator:wikidata":"Q10512910","public_transport":"stop_position","railway":"tram_stop","ref":"B","tram":"yes","wikidata":"Q107999008"}},{"type":"node","id":3707818838,"lat":57.7059606,"lon":11.9580454,"tags":{"bus":"yes","highway":"bus_stop","name":"Stenpiren","network":"Västtrafik","network:wikidata":"Q928178","network:wikipedia":"sv:Västtrafik","operator":"Göteborgs Spårvägar","operator:wikidata":"Q10512910","public_transport":"stop_position","railway":"tram_stop","ref":"A","tram":"yes","wikidata":"Q107999008"}},{"type":"node","id":3709799280,"lat":57.7107856,"lon":12.0235253,"tags":{"name":"Virginsgatan","network":"Västtrafik","network:wikidata":"Q928178","operator":"Göteborgs Spårvägar","operator:wikidata":"Q10512910","public_transport":"stop_position","railway":"tram_stop","ref":"B","tram":"yes","wikidata":"Q107999374"}},{"type":"node","id":4397629627,"lat":57.7279636,"lon":12.0046485,"tags":{"name":"Gamlestads Torg","network":"Västtrafik","network:wikidata":"Q928178","network:wikipedia":"sv:Västtrafik","public_transport":"stop_position","railway":"tram_stop","ref":"D","tram":"yes","wikidata":"Q107999059"}},{"type":"node","id":4405782069,"lat":57.7275931,"lon":12.0044754,"tags":{"name":"Gamlestads Torg","network":"Västtrafik","network:wikidata":"Q928178","network:wikipedia":"sv:Västtrafik","public_transport":"stop_position","railway":"tram_stop","ref":"C","tram":"yes","wikidata":"Q107999059"}},{"type":"node","id":7676199055,"lat":57.7275176,"lon":12.0051001,"tags":{"name":"Gamlestads Torg","network":"Västtrafik","network:wikidata":"Q928178","network:wikipedia":"sv:Västtrafik","public_transport":"stop_position","railway":"tram_stop","ref":"A","tram":"yes","wikidata":"Q107999059"}},{"type":"node","id":9016006478,"lat":57.708939,"lon":11.9711554,"tags":{"bus":"yes","highway":"bus_stop","name":"Nils Ericsonsplatsen","network":"Västtrafik","network:wikidata":"Q928178","network:wikipedia":"sv:Västtrafik","old_name:-20260615":"Nordstan","operator":"Göteborgs Spårvägar","operator:wikidata":"Q10512910","public_transport":"stop_position","railway":"tram_stop","ref":"C","tram":"yes"}},{"type":"node","id":9016006479,"lat":57.7093126,"lon":11.9710133,"tags":{"bus":"yes","highway":"bus_stop","name":"Nils Ericsonsplatsen","network":"Västtrafik","network:wikidata":"Q928178","network:wikipedia":"sv:Västtrafik","old_name:-20260615":"Nordstan","operator":"Göteborgs Spårvägar","operator:wikidata":"Q10512910","public_transport":"stop_position","railway":"tram_stop","ref":"B","tram":"yes"}},{"type":"node","id":9955343866,"lat":57.7071764,"lon":11.9694639,"tags":{"bus":"yes","highway":"bus_stop","local_ref":"B2","name":"Brunnsparken","network":"Västtrafik","network:wikidata":"Q928178","network:wikipedia":"sv:Västtrafik","operator":"Göteborgs Spårvägar","operator:wikidata":"Q10512910","public_transport":"stop_position","railway":"tram_stop","ref":"B2","tram":"yes","wikidata":"Q107999030"}},{"type":"node","id":11097495325,"lat":57.6972421,"lon":11.9869891,"tags":{"bus":"yes","highway":"bus_stop","name":"Korsvägen","network":"Västtrafik","network:wikidata":"Q928178","network:wikipedia":"sv:Västtrafik","operator":"Göteborgs Spårvägar","operator:wikidata":"Q10512910","public_transport":"stop_position","railway":"tram_stop","ref":"B2","tram":"yes","wikidata":"Q6432683"}},{"type":"node","id":11097495326,"lat":57.6970395,"lon":11.9872107,"tags":{"bus":"yes","highway":"bus_stop","name":"Korsvägen","network":"Västtrafik","network:wikidata":"Q928178","network:wikipedia":"sv:Västtrafik","operator":"Göteborgs Spårvägar","operator:wikidata":"Q10512910","public_transport":"stop_position","railway":"tram_stop","ref":"B1","tram":"yes","wikidata":"Q6432683"}},