{"elements":[{"type":"node","id":287054150,"lat":47.2659631,"lon":11.3836384,"tags":{"name":"Fürstenweg","public_transport":"stop_position","railway":"tram_stop","tram":"yes","wheelchair":"yes"}},{"type":"node","id":288207743,"lat":47.2529861,"lon":11.3998786,"tags":{"name":"Bergisel","note":"Linie 6","public_transport":"stop_position","railway":"tram_stop","tram":"yes","wikidata":"Q116642852"}},{"type":"node","id":288207779,"lat":47.2528293,"lon":11.4045169,"tags":{"direction":"backward","name":"Bretterkeller","public_transport":"stop_position","railway":"tram_stop","tram":"yes","wikidata":"Q116678715"}},{"type":"node","id":288208218,"lat":47.2478154,"lon":11.4349796,"tags":{"name":"Aldrans","public_transport":"stop_position","railway":"tram_stop","tram":"yes"}},{"type":"node","id":288208357,"lat":47.2446087,"lon":11.4313043,"tags":{"name":"Mühlsee","public_transport":"stop_position","railway":"tram_stop","tram":"yes","wikidata":"Q116678709"}},{"type":"node","id":288208381,"lat":47.2410798,"lon":11.4238379,"tags":{"name":"Lans-Sistrans","public_transport":"stop_position","railway":"tram_stop","tram":"yes","wikidata":"Q116678708"}},{"type":"node","id":288208453,"lat":47.2338499,"lon":11.4126544,"tags":{"ele":"900","name":"Igls Bahnhof","public_transport":"stop_position","railway":"tram_stop","railway:position:exact":"8.362","tram":"yes","wikidata":"Q116678706"}},{"type":"node","id":288208954,"lat":47.2463797,"lon":11.3935913,"tags":{"name":"Sonnenburgerhof","public_transport":"stop_position","railway":"stop","tram":"yes","uic_name":"Innsbruck Sonnenburgerhof","uic_ref":"8101568"}},{"type":"node","id":288209093,"lat":47.2302948,"lon":11.3820981,"tags":{"name":"Mutters Burgstall","public_transport":"stop_position","railway":"tram_stop","railway:position":"5.4","railway:position:exact":"5.440","tram":"yes","uic_name":"Mutters Burgstall","uic_ref":"8100685","wikidata":"Q109497299"}},{"type":"node","id":288209190,"lat":47.2183507,"lon":11.374803,"tags":{"name":"Mutters Raitis","public_transport":"stop_position","railway":"tram_stop","railway:position":"8.7","railway:position:exact":"8.690","start_date":"1983","tram":"yes","uic_name":"Mutters Raitis","uic_ref":"8101420","wikidata":"Q116618802"}},{"type":"node","id":288209223,"lat":47.2025636,"lon":11.3808913,"tags":{"light_rail":"yes","local_ref":"A","name":"Mutters Kreith","public_transport":"stop_position","railway":"stop","tram":"yes"}},{"type":"node","id":288209377,"lat":47.1594391,"lon":11.352952,"tags":{"disused:public_transport":"stop_position","disused:railway":"tram_stop","disused:tram":"yes","name":"Telfes StuBay","note":"Alter Name bis 2014-12-14","old_name":"Telfes im Stubai Tenniscamp","railway":"site","railway:position":"17.1","railway:position:exact":"17.120","uic_name":"Telfes im Stubai StuBay (Stubaitalbahn)","uic_ref":"8101662","wheelchair":"no","wikidata":"Q116618798"}},{"type":"node","id":288209470,"lat":47.1556197,"lon":11.3524154,"tags":{"name":"Fulpmes","public_transport":"stop_position","railway":"stop","tram":"yes","uic_name":"Fulpmes Bahnhof (Stubaitalbahn)","uic_ref":"8100540"}},{"type":"node","id":288213241,"lat":47.2329276,"lon":11.3785279,"tags":{"ele":"765.14","name":"Natters","public_transport":"stop_position","railway":"tram_stop","railway:position":"4.5","railway:position:exact":"4.520","tram":"yes","uic_name":"Natters","uic_ref":"8100428","wikidata":"Q116629566"}},{"type":"node","id":288968164,"lat":47.2287275,"lon":11.3785322,"tags":{"name":"Mutters","public_transport":"stop_position","railway":"stop","ref":"2","tram":"yes"}},{"type":"node","id":289288964,"lat":47.2528388,"lon":11.3996686,"tags":{"name":"Bergisel","note":"Linie 1","public_transport":"stop_position","railway":"tram_stop","tram":"yes","wikidata":"Q116642852"}},{"type":"node","id":293728588,"lat":47.2422724,"lon":11.3897121,"tags":{"ele":"705.23","name":"Natters Gärberbach","public_transport":"stop_position","railway":"tram_stop","railway:position":"2.9","railway:position:exact":"2.897","tram":"yes","uic_name":"Natters Gärberbach","uic_ref":"8100815","wikidata":"Q116629661"}},{"type":"node","id":293728794,"lat":47.2385678,"lon":11.384566,"tags":{"local_ref":"A","name":"Natters Hölltal","public_transport":"stop_position","railway":"stop","tram":"yes"}},{"type":"node","id":293729837,"lat":47.2284984,"lon":11.3677564,"tags":{"name":"Mutters Birchfeld","public_transport":"stop_position","railway":"tram_stop","railway:position":"7.0","railway:position:exact":"7.000","tram":"yes","uic_name":"Mutters Birchfeld","uic_ref":"8100654","wikidata":"Q116618800"}},{"type":"node","id":293731789,"lat":47.2094092,"lon":11.3781713,"tags":{"ele":"947.5","light_rail":"yes","name":"Mutters Außerkreith","network":"Verkehrsverbund Tirol","network:short":"VVT","operator":"IVB","public_transport":"station","railway":"station","railway:position":"9.8","railway:position:exact":"9.825","shelter":"yes","station":"light_rail","uic_name":"Mutters Außerkreith","uic_ref":"8100640","wikidata":"Q116618804"}},{"type":"node","id":293732921,"lat":47.1968695,"lon":11.3827443,"tags":{"light_rail":"yes","name":"Mutters Brandeck","network":"Verkehrsverbund Tirol","network:short":"VVT","operator":"IVB","public_transport":"station","railway":"station","railway:position":"11.7","railway:position:exact":"11.680","station":"light_rail","uic_name":"Mutters Brandeck","uic_ref":"8100683","wikidata":"Q116618805"}},{"type":"node","id":293733127,"lat":47.1891948,"lon":11.3859781,"tags":{"light_rail":"yes","name":"Telfes Telfer Wiesen","network":"Verkehrsverbund Tirol","network:short":"VVT","operator":"IVB","public_transport":"stop_position","railway":"stop"}},{"type":"node","id":293733626,"lat":47.1729456,"lon":11.367359,"tags":{"name":"Telfes Luimes","public_transport":"stop_position","railway":"stop","tram":"yes"}},{"type":"node","id":337806188,"lat":47.2660149,"lon":11.3828715,"tags":{"name":"Fürstenweg","public_transport":"stop_position","railway":"tram_stop","tram":"yes","wheelchair":"yes"}},{"type":"node","id":337818068,"lat":47.2640919,"lon":11.3862399,"tags":{"name":"Klinik/Universität","public_transport":"stop_position","railway":"tram_stop","tram":"yes","wheelchair":"yes"}},{"type":"node","id":337851485,"lat":47.2627805,"lon":11.3951756,"tags":{"bus":"yes","direction":"forward","name":"Triumphpforte/Casino","public_transport":"stop_position","railway":"tram_stop","tram":"yes","wheelchair":"yes","wikidata":"Q116618808"}},{"type":"node","id":338126608,"lat":47.2728496,"lon":11.4049955,"tags":{"name":"Bundesbahndirektion","public_transport":"stop_position","railway":"tram_stop","tram":"yes","wikidata":"Q116642859"}},{"type":"node","id":338169527,"lat":47.2565605,"lon":11.3918217,"tags":{"name":"Westbahnhof","public_transport":"stop_position","railway":"tram_stop","tram":"yes","uic_name":"Innsbruck Westbahnhof (Andreas-Hofer-Straße)","uic_ref":"8152099","wheelchair":"yes","wikidata":"Q116618812"}},{"type":"node","id":338170327,"lat":47.2537496,"lon":11.3971149,"tags":{"name":"Stubaitalbahnhof","public_transport":"stop_position","railway":"tram_stop","tram":"yes"}},{"type":"node","id":338170403,"lat":47.2592342,"lon":11.3918005,"tags":{"name":"Franz-Fischer-Straße","public_transport":"stop_position","railway":"tram_stop","tram":"yes","uic_name":"Innsbruck Franz-Fischer-Straße","uic_ref":"8101884","wikidata":"Q116618811"}},{"type":"node","id":338909651,"lat":47.2782191,"lon":11.4039055,"tags":{"name":"Mühlauer Brücke","public_transport":"stop_position","railway":"tram_stop","tram":"yes","wikidata":"Q116642866"}},{"type":"node","id":391572507,"lat":47.253465,"lon":11.3976701,"tags":{"name":"Stubaitalbahnhof","public_transport":"stop_position","railway":"stop","tram":"yes"}},{"type":"node","id":391657964,"lat":47.2385594,"lon":11.4191519,"tags":{"name":"Lanser See","public_transport":"stop_position","railway":"tram_stop","tram":"yes"}},{"type":"node","id":391657966,"lat":47.2509203,"lon":11.4228662,"tags":{"name":"Tantegert","public_transport":"stop_position","railway":"tram_stop","tram":"yes","wikidata":"Q116678711"}},{"type":"node","id":391657967,"lat":47.2542909,"lon":11.4308266,"tags":{"name":"Schönruh","public_transport":"stop_position","railway":"tram_stop","tram":"yes","wikidata":"Q116678712"}},{"type":"node","id":391659381,"lat":47.2550441,"lon":11.4279195,"tags":{"name":"Tummelplatz","public_transport":"stop_position","railway":"tram_stop","tram":"yes"}},{"type":"node","id":412727456,"lat":47.2648737,"lon":11.3729361,"tags":{"name":"EKZ West","old_name":"Höttinger Au/EKZ West","public_transport":"stop_position","railway":"tram_stop","tram":"yes","wheelchair":"yes"}},{"type":"node","id":617286253,"lat":47.1651873,"lon":11.359914,"tags":{"name":"Telfes Ort","public_transport":"stop_position","railway":"stop","tram":"yes"}},{"type":"node","id":1027864612,"lat":47.224293,"lon":11.3717255,"tags":{"local_ref":"A","name":"Mutters Nockhofweg/Muttereralm Bahn","public_transport":"stop_position","railway":"stop","tram":"yes"}},{"type":"node","id":1144856392,"lat":47.2760077,"lon":11.4059884,"tags":{"alt_name":"Claudiastraße","name":"Claudiaplatz","public_transport":"stop_position","railway":"tram_stop","tram":"yes"}},{"type":"node","id":1144856433,"lat":47.2773829,"lon":11.4068167,"tags":{"name":"Haydnplatz","public_transport":"stop_position","railway":"tram_stop","tram":"yes","wikidata":"Q116642864"}},{"type":"node","id":1253186957,"lat":47.2149244,"lon":11.3754659,"tags":{"light_rail":"yes","local_ref":"A","name":"Mutters Feldeler","public_transport":"stop_position","railway":"stop","tram":"yes"}},{"type":"node","id":1385050713,"lat":47.1893058,"lon":11.3859725,"tags":{"light_rail":"yes","name":"Telfes Telfer Wiesen","network":"Verkehrsverbund Tirol","network:short":"VVT","operator":"IVB","public_transport":"stop_position","railway":"stop"}},{"type":"node","id":1385050731,"lat":47.2026946,"lon":11.3807371,"tags":{"light_rail":"yes","local_ref":"B","name":"Mutters Kreith","public_transport":"stop_position","railway":"stop","tram":"yes"}},{"type":"node","id":1385050758,"lat":47.2150057,"lon":11.3752432,"tags":{"light_rail":"yes","local_ref":"B","name":"Mutters Feldeler","public_transport":"stop_position","railway":"stop","tram":"yes"}},{"type":"node","id":1385050785,"lat":47.2287346,"lon":11.3783036,"tags":{"name":"Mutters","public_transport":"stop_position","railway":"stop","ref":"1","tram":"yes"}},{"type":"node","id":1385050853,"lat":47.2385511,"lon":11.3848249,"tags":{"local_ref":"B","name":"Natters Hölltal","public_transport":"stop_position","railway":"stop","tram":"yes"}},{"type":"node","id":1385050882,"lat":47.2464939,"lon":11.3935738,"tags":{"name":"Sonnenburgerhof","public_transport":"stop_position","railway":"stop","tram":"yes","uic_name":"Innsbruck Sonnenburgerhof","uic_ref":"8101568"}},{"type":"node","id":1773746307,"lat":47.2579416,"lon":11.4228714,"tags":{"name":"Philippine-Welser-Straße","public_transport":"stop_position","railway":"tram_stop","tram":"yes","wikidata":"Q116677062"}},{"type":"node","id":1773746309,"lat":47.2587106,"lon":11.4259894,"tags":{"name":"Amras","public_transport":"stop_position","railway":"tram_stop","tram":"yes","wikidata":"Q116677061"}},{"type":"node","id":1944980524,"lat":47.2650177,"lon":11.3773393,"tags":{"name":"Höttinger Auffahrt","public_transport":"stop_position","railway":"tram_stop","tram":"yes"}},{"type":"node","id":2007342642,"lat":47.2537336,"lon":11.3983121,"tags":{"direction":"forward","name":"Stubaitalbahnhof","public_transport":"stop_position","railway":"tram_stop","tram":"yes"}},{"type":"node","id":2013121442,"lat":47.264892,"lon":11.3720975,"tags":{"name":"EKZ West","old_name":"Höttinger Au/EKZ West","public_transport":"stop_position","railway":"tram_stop","tram":"yes","wheelchair":"yes"}},{"type":"node","id":2013121445,"lat":47.2627002,"lon":11.3958276,"tags":{"bus":"yes","direction":"forward","name":"Triumphpforte/Casino","public_transport":"stop_position","railway":"tram_stop","tram":"yes","wheelchair":"yes","wikidata":"Q116618808"}},{"type":"node","id":2015055450,"lat":47.265053,"lon":11.3779761,"tags":{"name":"Höttinger Auffahrt","public_transport":"stop_position","railway":"tram_stop","tram":"yes"}},{"type":"node","id":2217062374,"lat":47.2509886,"lon":11.423126,"tags":{"name":"Tantegert","public_transport":"stop_position","railway":"tram_stop","tram":"yes"}},{"type":"node","id":2960672313,"lat":47.2578875,"lon":11.4228952,"tags":{"name":"Philippine-Welser-Straße","public_transport":"stop_position","railway":"tram_stop","tram":"yes","wikidata":"Q116677062"}},{"type":"node","id":3027357719,"lat":47.2634583,"lon":11.4000268,"tags":{"name":"Hauptbahnhof","public_transport":"stop_position","railway":"tram_stop","ref":"G","tram":"yes"}},{"type":"node","id":3027357722,"lat":47.2637008,"lon":11.4002424,"tags":{"name":"Hauptbahnhof","public_transport":"stop_position","railway":"tram_stop","ref":"D","tram":"yes","wheelchair":"yes"}},{"type":"node","id":3027529822,"lat":47.2638995,"lon":11.4002019,"tags":{"name":"Hauptbahnhof","public_transport":"stop_position","railway":"tram_stop","ref":"F","tram":"yes"}},{"type":"node","id":3123654585,"lat":47.1650564,"lon":11.3598223,"tags":{"name":"Telfes Ort","public_transport":"stop_position","railway":"stop","tram":"yes"}},{"type":"node","id":3123664968,"lat":47.1727927,"lon":11.3672722,"tags":{"name":"Telfes Luimes","public_transport":"stop_position","railway":"stop","tram":"yes"}},{"type":"node","id":3598562244,"lat":47.2586837,"lon":11.4260052,"tags":{"name":"Amras","public_transport":"stop_position","railway":"tram_stop","tram":"yes","wikidata":"Q116677061"}},{"type":"node","id":3674091765,"lat":47.2650131,"lon":11.3930669,"tags":{"name":"Anichstraße/Rathausgalerien","public_transport":"stop_position","railway":"tram_stop","tram":"yes","wheelchair":"yes"}},{"type":"node","id":3674091813,"lat":47.266781,"lon":11.3989563,"tags":{"direction":"forward","name":"Landesmuseum","public_transport":"stop_position","railway":"tram_stop","tram":"yes","uic_name":"Innsbruck Landesmuseum","uic_ref":"8101889","wheelchair":"no","wikidata":"Q116638610"}},{"type":"node","id":3675081245,"lat":47.2621107,"lon":11.3913119,"tags":{"direction":"forward","name":"Maximilianstraße","public_transport":"stop_position","railway":"tram_stop","survey:date":"2023-12-28","tram":"yes","uic_name":"Innsbruck Maximilianstraße","uic_ref":"8101882"}},{"type":"node","id":3675081299,"lat":47.265604,"lon":11.402888,"tags":{"name":"Sillpark","public_transport":"stop_position","railway":"tram_stop","tram":"yes","wheelchair":"yes","wikidata":"Q116663132"}},{"type":"node","id":3675088187,"lat":47.2650268,"lon":11.4093149,"tags":{"name":"Defreggerstraße","public_transport":"stop_position","railway":"tram_stop","tram":"yes","wikidata":"Q116663130"}},{"type":"node","id":3675106940,"lat":47.2695562,"lon":11.4028216,"tags":{"name":"Ing.-Etzel-Straße","public_transport":"stop_position","railway":"tram_stop","tram":"yes","wikidata":"Q116642854"}},{"type":"node","id":3675106951,"lat":47.2711213,"lon":11.4044339,"tags":{"name":"Messe/Zeughaus","public_transport":"stop_position","railway":"tram_stop","tram":"yes","wikidata":"Q116642856"}},{"type":"node","id":3675591840,"lat":47.2588003,"lon":11.421461,"tags":{"name":"Pradler Friedhof","public_transport":"stop_position","railway":"tram_stop","tram":"yes","wheelchair":"yes","wikidata":"Q116677063"}},{"type":"node","id":3688277404,"lat":47.2596026,"lon":11.4208411,"tags":{"direction":"forward","name":"Pradler Friedhof","public_transport":"stop_position","railway":"tram_stop","tram":"yes","wheelchair":"yes","wikidata":"Q116677063"}},{"type":"node","id":3712176665,"lat":47.2562846,"lon":11.3956805,"tags":{"name":"Cineplexx","old_name":"Fritz-Konzert-Straße","public_transport":"stop_position","railway":"tram_stop","tram":"yes","uic_name":"Innsbruck Fritz-Konzert-Straße","uic_ref":"8101885","wikidata":"Q116618813"}},{"type":"node","id":3739673662,"lat":47.2642702,"lon":11.3867752,"tags":{"name":"Klinik/Universität","public_transport":"stop_position","railway":"tram_stop","tram":"yes","wheelchair":"yes"}},{"type":"node","id":3742471537,"lat":47.2242084,"lon":11.3717759,"tags":{"local_ref":"B","name":"Mutters Nockhofweg/Muttereralm Bahn","public_transport":"stop_position","railway":"stop","tram":"yes"}},{"type":"node","id":3790368394,"lat":47.2650225,"lon":11.4091891,"tags":{"name":"Defreggerstraße","public_transport":"stop_position","railway":"tram_stop","tram":"yes","wikidata":"Q116663130"}},{"type":"node","id":3790471088,"lat":47.2624657,"lon":11.4132949,"tags":{"name":"Dr.-Glatz-Straße","public_transport":"stop_position","railway":"tram_stop","tram":"yes","wikidata":"Q116677066"}},{"type":"node","id":3790471089,"lat":47.2625337,"lon":11.4130165,"tags":{"name":"Dr.-Glatz-Straße","public_transport":"stop_position","railway":"tram_stop","tram":"yes","wikidata":"Q116677066"}},{"type":"node","id":3790471090,"lat":47.2617581,"lon":11.4164422,"tags":{"name":"Rudolf-Greinz-Straße","public_transport":"stop_position","railway":"tram_stop","tram":"yes","wikidata":"Q116677065"}},{"type":"node","id":3790471091,"lat":47.2618619,"lon":11.4161699,"tags":{"name":"Rudolf-Greinz-Straße","public_transport":"stop_position","railway":"tram_stop","tram":"yes","wikidata":"Q116677065"}},{"type":"node","id":3790504461,"lat":47.2607962,"lon":11.4194509,"tags":{"name":"Südring","public_transport":"stop_position","railway":"tram_stop","tram":"yes","wikidata":"Q116677064"}},{"type":"node","id":3790504462,"lat":47.2609201,"lon":11.4192031,"tags":{"name":"Südring","public_transport":"stop_position","railway":"tram_stop","tram":"yes","wikidata":"Q116677064"}},{"type":"node","id":3790556186,"lat":47.2644176,"lon":11.4061987,"tags":{"direction":"forward","local_ref":"D","name":"Leipziger Platz","public_transport":"stop_position","railway":"tram_stop","tram":"yes"}},{"type":"node","id":3790556187,"lat":47.2645751,"lon":11.4054177,"tags":{"local_ref":"A","name":"Leipziger Platz","public_transport":"stop_position","railway":"tram_stop","tram":"yes"}},{"type":"node","id":3790696583,"lat":47.2666313,"lon":11.4017933,"tags":{"direction":"forward","name":"Brunecker Straße/BFI","public_transport":"stop_position","railway":"tram_stop","tram":"yes","wikidata":"Q116642853"}},{"type":"node","id":3790696584,"lat":47.266931,"lon":11.4019055,"tags":{"name":"Brunecker Straße/BFI","public_transport":"stop_position","railway":"tram_stop","tram":"yes","wikidata":"Q116642853"}},{"type":"node","id":3790696590,"lat":47.2693755,"lon":11.4026541,"tags":{"name":"Ing.-Etzel-Straße","public_transport":"stop_position","railway":"tram_stop","tram":"yes","wikidata":"Q116642854"}},{"type":"node","id":3790696598,"lat":47.2709854,"lon":11.4041776,"tags":{"name":"Messe/Zeughaus","public_transport":"stop_position","railway":"tram_stop","tram":"yes","wikidata":"Q116642856"}},{"type":"node","id":3790696612,"lat":47.2759884,"lon":11.4050571,"tags":{"alt_name":"Claudiastraße","name":"Claudiaplatz","public_transport":"stop_position","railway":"tram_stop","tram":"yes"}},{"type":"node","id":3790705720,"lat":47.2676825,"lon":11.3482974,"tags":{"name":"Lahntalweg","public_transport":"stop_position","railway":"tram_stop","tram":"yes"}},{"type":"node","id":3790705722,"lat":47.2676779,"lon":11.3475528,"tags":{"name":"Lahntalweg","public_transport":"stop_position","railway":"tram_stop","tram":"yes"}},{"type":"node","id":3794151100,"lat":47.2633382,"lon":11.3516955,"tags":{"name":"Lohbachsiedlung West","public_transport":"stop_position","railway":"tram_stop","tram":"yes"}},{"type":"node","id":3794151103,"lat":47.2636953,"lon":11.3516317,"tags":{"name":"Lohbachsiedlung West","public_transport":"stop_position","railway":"tram_stop","tram":"yes","wheelchair":"yes"}},{"type":"node","id":3794151127,"lat":47.2651465,"lon":11.3468365,"tags":{"name":"Technik","public_transport":"stop_position","railway":"tram_stop","tram":"yes"}},{"type":"node","id":4071646033,"lat":47.2639813,"lon":11.3633649,"tags":{"name":"Vögelebichl","public_transport":"stop_position","railway":"tram_stop","tram":"yes","wheelchair":"yes"}},{"type":"node","id":4114940727,"lat":47.2651789,"lon":11.3939409,"tags":{"name":"Anichstraße/Rathausgalerien","public_transport":"stop_position","railway":"tram_stop","tram":"yes","wheelchair":"yes"}},{"type":"node","id":4114940728,"lat":47.2730586,"lon":11.4050607,"tags":{"name":"Bundesbahndirektion","public_transport":"stop_position","railway":"tram_stop","tram":"yes","wikidata":"Q116642859"}},{"type":"node","id":4114940729,"lat":47.2645327,"lon":11.3904631,"tags":{"direction":"forward","name":"Bürgerstraße","public_transport":"stop_position","railway":"tram_stop","tram":"yes","uic_name":"Innsbruck Bürgerstraße","uic_ref":"8101878"}},{"type":"node","id":4114940730,"lat":47.2648215,"lon":11.3903068,"tags":{"direction":"forward","name":"Bürgerstraße","public_transport":"stop_position","railway":"tram_stop","tram":"yes","uic_name":"Innsbruck Bürgerstraße","uic_ref":"8101878"}},{"type":"node","id":4114940731,"lat":47.2594388,"lon":11.3918461,"tags":{"name":"Franz-Fischer-Straße","public_transport":"stop_position","railway":"tram_stop","tram":"yes","uic_name":"Innsbruck Franz-Fischer-Straße","uic_ref":"8101884","wikidata":"Q116618811"}},{"type":"node","id":4114940732,"lat":47.2562882,"lon":11.3951537,"tags":{"name":"Cineplexx","old_name":"Fritz-Konzert-Straße","public_transport":"stop_position","railway":"tram_stop","tram":"yes","uic_name":"Innsbruck Fritz-Konzert-Straße","uic_ref":"8101885","wikidata":"Q116618813"}},{"type":"node","id":4114940733,"lat":47.2636174,"lon":11.3874303,"tags":{"name":"Klinik/Universität","public_transport":"stop_position","railway":"tram_stop","tram":"yes","wheelchair":"yes"}},{"type":"node","id":4114940734,"lat":47.2669148,"lon":11.3982156,"tags":{"direction":"forward","name":"Landesmuseum","public_transport":"stop_position","railway":"tram_stop","tram":"yes","uic_name":"Innsbruck Landesmuseum","uic_ref":"8101889","wheelchair":"no","wikidata":"Q116638610"}},{"type":"node","id":4114940735,"lat":47.266891,"lon":11.392648,"tags":{"alt_name":"Maria-Theresien-Straße - Marktgraben","name":"Maria-Theresien-Straße","public_transport":"stop_position","railway":"tram_stop","tram":"yes","uic_name":"Innsbruck Maria-Theresien-Straße","uic_ref":"8101887","wheelchair":"no"}},{"type":"node","id":4114940736,"lat":47.2669583,"lon":11.3933459,"tags":{"alt_name":"Maria-Theresien-Straße - Marktgraben","name":"Maria-Theresien-Straße","public_transport":"stop_position","railway":"tram_stop","tram":"yes","uic_name":"Innsbruck Maria-Theresien-Straße","uic_ref":"8101887","wheelchair":"no"}},{"type":"node","id":4114940737,"lat":47.2627132,"lon":11.3910297,"tags":{"name":"Maximilianstraße","public_transport":"stop_position","railway":"tram_stop","tram":"yes"}},{"type":"node","id":4114940738,"lat":47.2671854,"lon":11.3959991,"tags":{"name":"Museumstraße","public_transport":"stop_position","railway":"tram_stop","tram":"yes","uic_name":"Innsbruck Museumstraße","uic_ref":"8101888","wheelchair":"no","wikidata":"Q116637509"}},{"type":"node","id":4114940739,"lat":47.2673526,"lon":11.3950175,"tags":{"name":"Museumstraße","public_transport":"stop_position","railway":"tram_stop","tram":"yes","uic_name":"Innsbruck Museumstraße","uic_ref":"8101888","wheelchair":"no","wikidata":"Q116637509"}},{"type":"node","id":4114940740,"lat":47.265938,"lon":11.4026469,"tags":{"name":"Sillpark","public_transport":"stop_position","railway":"tram_stop","tram":"yes","wheelchair":"yes"}},{"type":"node","id":4114940741,"lat":47.2662918,"lon":11.3897398,"tags":{"name":"Terminal Marktplatz","public_transport":"stop_position","railway":"tram_stop","tram":"yes","uic_name":"Innsbruck Marktplatz","uic_ref":"8101886","wheelchair":"yes"}},{"type":"node","id":4114940742,"lat":47.2666438,"lon":11.3902778,"tags":{"name":"Terminal Marktplatz","public_transport":"stop_position","railway":"tram_stop","tram":"yes","uic_name":"Innsbruck Marktplatz","uic_ref":"8101886","wheelchair":"yes"}},{"type":"node","id":4114940743,"lat":47.2565897,"lon":11.3918682,"tags":{"name":"Westbahnhof","public_transport":"stop_position","railway":"tram_stop","tram":"yes","uic_name":"Innsbruck Westbahnhof (Andreas-Hofer-Straße)","uic_ref":"8152099","wheelchair":"yes","wikidata":"Q116618812"}},{"type":"node","id":4449721000,"lat":47.2658108,"lon":11.4119399,"tags":{"name":"Gabelsbergerstraße","public_transport":"stop_position","railway":"tram_stop","tram":"yes","wikidata":"Q116663128"}},{"type":"node","id":4449721005,"lat":47.2682224,"lon":11.4118843,"tags":{"name":"Rennerschule","public_transport":"stop_position","railway":"tram_stop","tram":"yes","wikidata":"Q116663127"}},{"type":"node","id":4449721006,"lat":47.2687139,"lon":11.4116719,"tags":{"name":"Rennerschule","public_transport":"stop_position","railway":"tram_stop","tram":"yes","wikidata":"Q116663127"}},{"type":"node","id":5252739906,"lat":47.2650052,"lon":11.3402011,"tags":{"name":"Technik West","public_transport":"stop_position","railway":"tram_stop","tram":"yes"}},{"type":"node","id":5252739907,"lat":47.2650294,"lon":11.3408279,"tags":{"name":"Technik West","public_transport":"stop_position","railway":"tram_stop","tram":"yes"}},{"type":"node","id":5252739909,"lat":47.2688803,"lon":11.3460739,"tags":{"name":"Peerhofsiedlung","public_transport":"stop_position","railway":"tram_stop","tram":"yes"}},{"type":"node","id":5252739911,"lat":47.2667982,"lon":11.346075,"tags":{"name":"Luis-Zuegg-Straße","public_transport":"stop_position","railway":"tram_stop","tram":"yes"}},{"type":"node","id":5252739912,"lat":47.2663318,"lon":11.3458719,"tags":{"name":"Luis-Zuegg-Straße","public_transport":"stop_position","railway":"tram_stop","tram":"yes"}},{"type":"node","id":5252739913,"lat":47.2652912,"lon":11.346253,"tags":{"name":"Technik","public_transport":"stop_position","railway":"tram_stop","tram":"yes"}},{"type":"node","id":5252739914,"lat":47.2634765,"lon":11.3571613,"tags":{"name":"Lohbachsiedlung Ost","public_transport":"stop_position","railway":"tram_stop","tram":"yes","wheelchair":"yes"}},{"type":"node","id":5252739915,"lat":47.2634615,"lon":11.3564371,"tags":{"name":"Lohbachsiedlung Ost","public_transport":"stop_position","railway":"tram_stop","tram":"yes","wheelchair":"yes"}},{"type":"node","id":5252739916,"lat":47.2640494,"lon":11.3640616,"tags":{"name":"Vögelebichl","public_transport":"stop_position","railway":"tram_stop","tram":"yes","wheelchair":"yes"}},{"type":"node","id":5287587380,"lat":47.2632607,"lon":11.4088112,"tags":{"name":"Sonnpark","public_transport":"stop_position","railway":"tram_stop","tram":"yes","wikidata":"Q116677067"}},{"type":"node","id":5477359889,"lat":47.2634052,"lon":11.4085804,"tags":{"name":"Sonnpark","public_transport":"stop_position","railway":"tram_stop","tram":"yes"}},{"type":"node","id":5583103820,"lat":47.2752131,"lon":11.431633,"tags":{"name":"Hochhaus Schützenstraße","public_transport":"stop_position","railway":"tram_stop","tram":"yes","wikidata":"Q116663116"}},{"type":"node","id":5583103930,"lat":47.274147,"lon":11.4385734,"tags":{"name":"Piuskirche","public_transport":"stop_position","railway":"tram_stop","tram":"yes","wikidata":"Q116663115"}},{"type":"node","id":6221829066,"lat":47.2719137,"lon":11.4434234,"tags":{"name":"Alois-Lugger-Platz","old_name":"Josef-Kerschbaumer-Straße","public_transport":"stop_position","railway":"tram_stop","tram":"yes","wikidata":"Q116663112"}},{"type":"node","id":6221829067,"lat":47.2716659,"lon":11.4434322,"tags":{"name":"Alois-Lugger-Platz","old_name":"Josef-Kerschbaumer-Straße","public_transport":"stop_position","railway":"tram_stop","tram":"yes","wikidata":"Q116663112"}},{"type":"node","id":6221829068,"lat":47.2738066,"lon":11.442576,"tags":{"name":"Schützenstraße","public_transport":"stop_position","railway":"tram_stop","tram":"yes","wikidata":"Q116663114"}},{"type":"node","id":6221829069,"lat":47.2739082,"lon":11.4419716,"tags":{"name":"Schützenstraße","public_transport":"stop_position","railway":"tram_stop","tram":"yes","wikidata":"Q116663114"}},{"type":"node","id":6221829070,"lat":47.2742471,"lon":11.4379756,"tags":{"name":"Piuskirche","public_transport":"stop_position","railway":"tram_stop","tram":"yes","wikidata":"Q116663115"}},{"type":"node","id":6221829071,"lat":47.2752799,"lon":11.4323311,"tags":{"name":"Hochhaus Schützenstraße","public_transport":"stop_position","railway":"tram_stop","tram":"yes","wikidata":"Q116663116"}},{"type":"node","id":6221829072,"lat":47.2734795,"lon":11.4283301,"tags":{"name":"Jugendherberge","public_transport":"stop_position","railway":"tram_stop","tram":"yes","wikidata":"Q116663118"}},{"type":"node","id":6221829073,"lat":47.2736913,"lon":11.4278905,"tags":{"name":"Jugendherberge","public_transport":"stop_position","railway":"tram_stop","tram":"yes","wikidata":"Q116663118"}},{"type":"node","id":6221829074,"lat":47.2751704,"lon":11.4234353,"tags":{"name":"Roßbachstraße","public_transport":"stop_position","railway":"tram_stop","tram":"yes","wheelchair":"yes","wikidata":"Q116663119"}},{"type":"node","id":6221829075,"lat":47.2750196,"lon":11.4238392,"tags":{"name":"Roßbachstraße","public_transport":"stop_position","railway":"tram_stop","tram":"yes","wikidata":"Q116663119"}},{"type":"node","id":6221829076,"lat":47.2751831,"lon":11.4199851,"tags":{"name":"Radetzkystraße","public_transport":"stop_position","railway":"tram_stop","tram":"yes","wheelchair":"yes","wikidata":"Q116663120"}},{"type":"node","id":6221829077,"lat":47.2751916,"lon":11.4196569,"tags":{"name":"Radetzkystraße","public_transport":"stop_position","railway":"tram_stop","tram":"yes","wheelchair":"yes","wikidata":"Q116663120"}},{"type":"node","id":6221829078,"lat":47.2732141,"lon":11.4161686,"tags":{"name":"Pauluskirche","public_transport":"stop_position","railway":"tram_stop","tram":"yes","wikidata":"Q116663122"}},{"type":"node","id":6221829079,"lat":47.2729563,"lon":11.4159065,"tags":{"name":"Pauluskirche","public_transport":"stop_position","railway":"tram_stop","tram":"yes","wikidata":"Q116663122"}},{"type":"node","id":6221829080,"lat":47.270854,"lon":11.4127176,"tags":{"name":"Mitterhoferstraße","public_transport":"stop_position","railway":"tram_stop","tram":"yes","wikidata":"Q116663123"}},{"type":"node","id":6221829081,"lat":47.270929,"lon":11.4130848,"tags":{"name":"Mitterhoferstraße","public_transport":"stop_position","railway":"tram_stop","tram":"yes","wikidata":"Q116663123"}},{"type":"node","id":6225914404,"lat":47.2644827,"lon":11.4060739,"tags":{"local_ref":"B","name":"Leipziger Platz","public_transport":"stop_position","railway":"tram_stop","tram":"yes","wikidata":"Q116663131"}},{"type":"node","id":8092046015,"lat":47.2660209,"lon":11.4127124,"tags":{"name":"Gabelsbergerstraße","public_transport":"stop_position","railway":"tram_stop","tram":"yes","wikidata":"Q116663128"}},{"type":"node","id":10314509526,"lat":47.2777728,"lon":11.45768,"tags":{"name":"Rum Bahnhof","public_transport":"stop_position","railway":"tram_stop","tram":"yes","wikidata":"Q116978191"}},{"type":"node","id":10314509527,"lat":47.2777991,"lon":11.4576823,"tags":{"name":"Rum Bahnhof","public_transport":"stop_position","railway":"tram_stop","tram":"yes","wikidata":"Q116978191"}},{"type":"node","id":10314509575,"lat":47.274844,"lon":11.4490485,"tags":{"name":"Neu-Rum Volksschule Serlesstraße","public_transport":"stop_position","railway":"tram_stop","tram":"yes","wikidata":"Q116978180"}},{"type":"node","id":10314524684,"lat":47.276102,"lon":11.4522056,"tags":{"name":"Neu-Rum Glungezerstraße","public_transport":"stop_position","railway":"tram_stop","tram":"yes","wikidata":"Q116978185"}},{"type":"node","id":10314524715,"lat":47.2746587,"lon":11.4484293,"tags":{"name":"Neu-Rum Volksschule Serlesstraße","public_transport":"stop_position","railway":"tram_stop","tram":"yes","wikidata":"Q116978180"}},{"type":"node","id":10314524722,"lat":47.2759392,"lon":11.4516981,"tags":{"name":"Neu-Rum Glungezerstraße","public_transport":"stop_position","railway":"tram_stop","tram":"yes","wikidata":"Q116978185"}},{"type":"node","id":13840025265,"lat":47.2529223,"lon":11.4048645,"tags":{"direction":"forward","name":"Bretterkeller","public_transport":"stop_position","railway":"tram_stop","tram":"yes","wikidata":"Q116678715"}},{"type":"node","id":5252739910,"lat":47.2688989,"lon":11.3463263,"tags":{"name":"Peerhofsiedlung","public_transport":"stop_position","railway":"tram_stop","tram":"yes"}},{"type":"node","id":3122767793,"lat":47.2149699,"lon":11.3753477,"tags":{"light_rail":"yes","name":"Mutters Feldeler","network":"Verkehrsverbund Tirol","operator":"IVB","public_transport":"station","railway":"station","railway:position":"9.1","railway:position:exact":"9.120","station":"light_rail","uic_name":"Mutters Feldeler","uic_ref":"8101919","wikidata":"Q116618803"}},{"type":"node","id":3123231256,"lat":47.2026133,"lon":11.3808289,"tags":{"ele":"980","light_rail":"yes","name":"Mutters Kreith","network":"Verkehrsverbund Tirol","network:short":"VVT","not:network:wikidata":"Q1668732","operator":"IVB","public_transport":"station","railway":"station","railway:position":"10.7","railway:position:exact":"10.650","station":"light_rail","uic_name":"Mutters Kreith","uic_ref":"8100294","wheelchair":"limited","wikidata":"Q123059311"}},{"type":"node","id":3123691265,"lat":47.1892527,"lon":11.3859874,"tags":{"ele":"1002","light_rail":"yes","name":"Telfes Telfer Wiesen","network":"Verkehrsverbund Tirol","operator":"IVB","public_transport":"station","railway":"station","railway:position":"12.7","railway:position:exact":"12.674","station":"light_rail","uic_name":"Telfes im Stubai Telfer Wiesen","uic_ref":"8101659","wheelchair":"no","wikidata":"Q116621419"}}]}