{"elements":[{"type":"node","id":771136531,"lat":31.9845891,"lon":118.7394753,"tags":{"name":"小行","name:en":"Xiaohang","name:zh-Latn-pinyin":"Xiăohàng","public_transport":"stop_position","railway":"stop","ref":"M1","subway":"yes"}},{"type":"node","id":1236938075,"lat":31.9684032,"lon":118.7163035,"tags":{"name":"油坊桥","name:en":"Youfangqiao","name:zh":"油坊桥","name:zh-Hans":"油坊桥","name:zh-Hant":"油坊橋","name:zh-Latn-pinyin":"Yóufángqiáo","public_transport":"stop_position","railway":"stop","subway":"yes"}},{"type":"node","id":1236938077,"lat":31.9857369,"lon":118.7172617,"tags":{"name":"雨润大街","name:zh-Hans":"雨润大街","name:zh-Hant":"雨潤大街","public_transport":"stop_position","railway":"stop","subway":"yes"}},{"type":"node","id":3217971336,"lat":31.7933592,"lon":118.8165041,"tags":{"name":"翔宇路北","name:en":"Xiangyulubei","public_transport":"stop_position","railway":"stop","subway":"yes"}},{"type":"node","id":3217971420,"lat":31.8472093,"lon":118.8006664,"tags":{"name":"正方中路","name:en":"Zhengfang­zhonglu","public_transport":"stop_position","railway":"stop","subway":"yes"}},{"type":"node","id":3219299471,"lat":31.9158198,"lon":118.7863598,"tags":{"name":"河海大学·佛城西路","name:en":"Hohai University / Fochengxilu","public_transport":"stop_position","railway":"stop","subway":"yes"}},{"type":"node","id":3219441001,"lat":31.8883938,"lon":118.7901972,"tags":{"name":"吉印大道","name:en":"Jiyindadao","public_transport":"stop_position","railway":"stop","subway":"yes"}},{"type":"node","id":3219441002,"lat":31.9446289,"lon":118.7795232,"tags":{"name":"翠屏山","name:en":"Cuipingshan","public_transport":"stop_position","railway":"stop","subway":"yes"}},{"type":"node","id":3226096689,"lat":32.3491862,"lon":118.839983,"tags":{"name":"凤凰山公园","name:en":"Fenghuangshan­gongyuan","public_transport":"stop_position","railway":"stop","subway":"yes"}},{"type":"node","id":3226096691,"lat":32.361677,"lon":118.8448949,"tags":{"name":"方洲广场","name:en":"Fangzhou­guangchang","public_transport":"stop_position","railway":"stop","subway":"yes"}},{"type":"node","id":3226096751,"lat":32.40223,"lon":118.8868377,"tags":{"name":"沈桥","name:en":"Shenqiao","public_transport":"stop_position","railway":"stop","subway":"yes"}},{"type":"node","id":3226096895,"lat":32.4293689,"lon":118.9281127,"tags":{"name":"八百桥","name:en":"Babaiqiao","public_transport":"stop_position","railway":"stop","subway":"yes"}},{"type":"node","id":3237521382,"lat":32.4675569,"lon":118.9595749,"tags":{"name":"金牛湖","name:en":"Jinniuhu","public_transport":"stop_position","railway":"stop","subway":"yes"}},{"type":"node","id":3269885445,"lat":32.2168577,"lon":118.7253414,"tags":{"name":"卸甲甸","name:en":"Xiejiadian","public_transport":"stop_position","railway":"stop","subway":"yes"}},{"type":"node","id":3269886378,"lat":32.2310977,"lon":118.7349832,"tags":{"name":"大厂","name:en":"Dachang","public_transport":"stop_position","railway":"stop","subway":"yes"}},{"type":"node","id":3323134394,"lat":32.1464093,"lon":118.7109379,"tags":{"name":"泰山新村","name:en":"Taishanxincun","public_transport":"stop_position","railway":"stop","subway":"yes"}},{"type":"node","id":3323162304,"lat":32.1562359,"lon":118.713989,"tags":{"name":"泰冯路","name:en":"Taifenglu","public_transport":"stop_position","railway":"stop","subway":"yes"}},{"type":"node","id":3484181599,"lat":31.7324566,"lon":118.8687048,"tags":{"name":"禄口机场","name:en":"Lukou Airport","name:ko":"루커우 공항","public_transport":"stop_position","railway":"stop","subway":"yes"}},{"type":"node","id":3484203015,"lat":31.971833,"lon":118.7927441,"tags":{"name":"南京南站","name:en":"Nanjing South Railway Station","name:zh-Latn-pinyin":"Nánjīng Nán Zhàn","public_transport":"stop_position","railway":"stop","subway":"yes"}},{"type":"node","id":3781657792,"lat":32.204665,"lon":118.7217067,"tags":{"name":"信息工程大学","name:en":"NUIST","public_transport":"stop_position","railway":"stop","subway":"yes","wheelchair":"no"}},{"type":"node","id":3781884284,"lat":32.3366516,"lon":118.8316074,"tags":{"name":"雄州","name:en":"Xiongzhou","public_transport":"stop_position","railway":"stop","subway":"yes"}},{"type":"node","id":3781903370,"lat":32.2875991,"lon":118.7803307,"tags":{"name":"化工园","name:en":"Huagongyuan","public_transport":"stop_position","railway":"stop","subway":"yes"}},{"type":"node","id":3781903371,"lat":32.3073284,"lon":118.8000513,"tags":{"name":"六合开发区","name:en":"Luhe Development Zone","public_transport":"stop_position","railway":"stop","subway":"yes"}},{"type":"node","id":3781909589,"lat":32.3213497,"lon":118.815258,"tags":{"name":"龙池","name:en":"Longchi","public_transport":"stop_position","railway":"stop","subway":"yes"}},{"type":"node","id":3803662204,"lat":31.6425237,"lon":118.902349,"tags":{"name":"石湫","name:en":"Shiqiu","public_transport":"stop_position","railway":"stop","subway":"yes"}},{"type":"node","id":4226771705,"lat":32.008882,"lon":118.76942,"tags":{"name":"中华门","name:en":"Zhonghuamen","public_transport":"stop_position","railway":"stop","subway":"yes"}},{"type":"node","id":5116356440,"lat":31.9774788,"lon":118.6881666,"tags":{"name":"吴侯街","name:en":"Wuhoujie","public_transport":"stop_position","railway":"stop","subway":"yes"}},{"type":"node","id":5116356442,"lat":31.9708706,"lon":118.683221,"tags":{"name":"高庙路","name:en":"Gaomiaolu","public_transport":"stop_position","railway":"stop","subway":"yes"}},{"type":"node","id":5116356463,"lat":31.9665649,"lon":118.7590555,"tags":{"name":"铁心桥","name:en":"Tiexinqiao","name:zh-Hans":"铁心桥","name:zh-Hant":"鐵心橋","public_transport":"stop_position","railway":"stop","subway":"yes"}},{"type":"node","id":5116356476,"lat":31.9733209,"lon":118.7920439,"tags":{"name":"南京南站","name:en":"Nanjing South Railway Station","name:zh-Latn-pinyin":"Nánjīng Nán Zhàn","public_transport":"stop_position","railway":"stop","station":"subway","subway":"yes"}},{"type":"node","id":5116431320,"lat":31.6982046,"lon":118.8766217,"tags":{"name":"铜山","name:en":"Tongshan","public_transport":"stop_position","railway":"stop","subway":"yes"}},{"type":"node","id":5116432223,"lat":31.5485589,"lon":118.8972428,"tags":{"name":"明觉","name:en":"Mingjue","public_transport":"stop_position","railway":"stop","subway":"yes"}},{"type":"node","id":5116432226,"lat":31.3979762,"lon":118.8827403,"tags":{"name":"团结圩","name:en":"Tuanjiewei","name:zh":"团结圩","name:zh-Hans":"团结圩","public_transport":"stop_position","railway":"stop","subway":"yes"}},{"type":"node","id":5116432228,"lat":31.3431772,"lon":118.8721678,"tags":{"name":"高淳","name:en":"Gaochun","name:zh":"高淳","name:zh-Hans":"高淳","public_transport":"stop_position","railway":"stop","subway":"yes"}},{"type":"node","id":5124536631,"lat":31.6103096,"lon":119.0414233,"tags":{"name":"无想山","name:en":"Wuxiangshan","public_transport":"stop_position","railway":"stop","subway":"yes"}},{"type":"node","id":5124536637,"lat":31.6884057,"lon":119.0378654,"tags":{"name":"卧龙湖","name:en":"Wolonghu","public_transport":"stop_position","railway":"stop","subway":"yes"}},{"type":"node","id":5124536664,"lat":31.6640024,"lon":119.0392438,"tags":{"name":"溧水","name:en":"Lishui","public_transport":"stop_position","railway":"stop","subway":"yes"}},{"type":"node","id":5124536665,"lat":31.6487289,"lon":119.0398651,"tags":{"name":"中山湖","name:en":"Zhongshanhu","public_transport":"stop_position","railway":"stop","subway":"yes"}},{"type":"node","id":5124536666,"lat":31.6264846,"lon":119.0407731,"tags":{"name":"幸庄","name:en":"Xingzhuang","public_transport":"stop_position","railway":"stop","subway":"yes"}},{"type":"node","id":5124536667,"lat":31.7230297,"lon":119.0090907,"tags":{"name":"群力","name:en":"Qunli","public_transport":"stop_position","railway":"stop","subway":"yes"}},{"type":"node","id":5124536668,"lat":31.7357644,"lon":118.9844254,"tags":{"name":"空港新城溧水","name:en":"Konggangxinchenglishui","public_transport":"stop_position","railway":"stop","subway":"yes"}},{"type":"node","id":5124536669,"lat":31.7588208,"lon":118.9328609,"tags":{"name":"柘塘","name:en":"Zhetang","public_transport":"stop_position","railway":"stop","subway":"yes"}},{"type":"node","id":5124587787,"lat":31.9690388,"lon":118.6646081,"tags":{"name":"鱼嘴","name:en":"Yuzui","name:zh-Hans":"鱼嘴","name:zh-Hant":"魚嘴","public_transport":"stop_position","railway":"stop","station":"subway","subway":"yes"}},{"type":"node","id":5124587791,"lat":31.9679857,"lon":118.6741099,"tags":{"name":"天保街","name:en":"Tianbaojie","public_transport":"stop_position","railway":"stop","station":"subway","subway":"yes"}},{"type":"node","id":5124587792,"lat":31.9644491,"lon":118.6867567,"tags":{"name":"青莲街","name:en":"Qinglainjie","name:zh-Hans":"青莲街","name:zh-Hant":"青蓮街","public_transport":"stop_position","railway":"stop","station":"subway","subway":"yes"}},{"type":"node","id":5124587796,"lat":31.9629061,"lon":118.6960591,"tags":{"name":"螺塘路","name:en":"Luotanglu","public_transport":"stop_position","railway":"stop","station":"subway","subway":"yes"}},{"type":"node","id":5347334274,"lat":31.9553032,"lon":118.6721864,"tags":{"name":"天保","name:en":"Tianbao","public_transport":"stop_position","railway":"stop","subway":"yes"}},{"type":"node","id":5347334275,"lat":31.9752661,"lon":118.5833523,"tags":{"name":"马骡圩","name:en":"Maluowei","name:zh-Hans":"马骡圩","name:zh-Hant":"馬騾圩","public_transport":"stop_position","railway":"stop","subway":"yes"}},{"type":"node","id":5347334276,"lat":31.9604242,"lon":118.5697333,"tags":{"name":"兰花塘","name:en":"Lanhuatang","public_transport":"stop_position","railway":"stop","subway":"yes"}},{"type":"node","id":5347334277,"lat":31.9504337,"lon":118.5624065,"tags":{"name":"双垅","name:en":"Shuanglong","public_transport":"stop_position","railway":"stop","subway":"yes"}},{"type":"node","id":5347334278,"lat":31.9402238,"lon":118.5529874,"tags":{"name":"石碛河","name:en":"Shiqihe","public_transport":"stop_position","railway":"stop","subway":"yes"}},{"type":"node","id":5347334279,"lat":31.9320433,"lon":118.5423902,"tags":{"name":"桥林新城","name:en":"Qiaolinxincheng","public_transport":"stop_position","railway":"stop","subway":"yes"}},{"type":"node","id":5347334280,"lat":31.91124,"lon":118.5120294,"tags":{"name":"高家冲","name:en":"Gaojiachong","public_transport":"stop_position","railway":"stop","subway":"yes"}},{"type":"node","id":5347334281,"lat":31.9209121,"lon":118.5259746,"tags":{"name":"林山","name:en":"Linshan","public_transport":"stop_position","railway":"stop","subway":"yes"}},{"type":"node","id":5347334290,"lat":31.9465598,"lon":118.660016,"tags":{"name":"刘村","name:en":"Liucun","name:zh-Hans":"刘村","name:zh-Hant":"劉村","public_transport":"stop_position","railway":"stop","subway":"yes"}},{"type":"node","id":5347334291,"lat":31.9464466,"lon":118.6600323,"tags":{"name":"刘村","name:en":"Liucun","name:zh-Hans":"刘村","name:zh-Hant":"劉村","public_transport":"stop_position","railway":"stop","subway":"yes"}},{"type":"node","id":5674267290,"lat":31.7398937,"lon":118.882539,"tags":{"name":"空港新城江宁","name:en":"Konggangxinchengjiangning","public_transport":"stop_position","railway":"stop","subway":"yes"}},{"type":"node","id":5912000575,"lat":31.732565,"lon":118.8686401,"tags":{"name":"禄口机场","name:en":"Lukou Airport","name:ko":"루커우 공항","public_transport":"stop_position","railway":"stop","subway":"yes"}},{"type":"node","id":5912000579,"lat":31.6640046,"lon":119.0392979,"tags":{"name":"溧水","name:en":"Lishui","public_transport":"stop_position","railway":"stop","subway":"yes"}},{"type":"node","id":5912000581,"lat":31.6487305,"lon":119.0399192,"tags":{"name":"中山湖","name:en":"Zhongshanhu","public_transport":"stop_position","railway":"stop","subway":"yes"}},{"type":"node","id":5912000585,"lat":31.6264862,"lon":119.0408273,"tags":{"name":"幸庄","name:en":"Xingzhuang","public_transport":"stop_position","railway":"stop","subway":"yes"}},{"type":"node","id":5912000595,"lat":31.7588768,"lon":118.9329699,"tags":{"name":"柘塘","name:en":"Zhetang","public_transport":"stop_position","railway":"stop","subway":"yes"}},{"type":"node","id":5912000597,"lat":31.7358587,"lon":118.9844786,"tags":{"name":"空港新城溧水","name:en":"Konggangxinchenglishui","public_transport":"stop_position","railway":"stop","subway":"yes"}},{"type":"node","id":5912000603,"lat":31.7230313,"lon":119.0091854,"tags":{"name":"群力","name:en":"Qunli","public_transport":"stop_position","railway":"stop","subway":"yes"}},{"type":"node","id":5912000613,"lat":31.6884074,"lon":119.0379705,"tags":{"name":"卧龙湖","name:en":"Wolonghu","public_transport":"stop_position","railway":"stop","subway":"yes"}},{"type":"node","id":5912000619,"lat":31.6103112,"lon":119.0414774,"tags":{"name":"无想山","name:en":"Wuxiangshan","public_transport":"stop_position","railway":"stop","subway":"yes"}},{"type":"node","id":6153208955,"lat":32.1798582,"lon":118.7143403,"tags":{"name":"高新开发区","name:en":"Gaoxin Development Zone","public_transport":"stop_position","railway":"stop","subway":"yes"}},{"type":"node","id":6469532241,"lat":31.7569944,"lon":118.824239,"tags":{"name":"翔宇路南","name:en":"Xiangyulunan","public_transport":"stop_position","subway":"yes"}},{"type":"node","id":6469532242,"lat":31.7569194,"lon":118.8241522,"tags":{"name":"翔宇路南","name:en":"Xiangyulunan","public_transport":"stop_position","subway":"yes"}},{"type":"node","id":6469532243,"lat":31.7568822,"lon":118.8241058,"tags":{"name":"翔宇路南","name:en":"Xiangyulunan","public_transport":"stop_position","subway":"yes"}},{"type":"node","id":6469532244,"lat":31.7568114,"lon":118.8239965,"tags":{"name":"翔宇路南","name:en":"Xiangyulunan","public_transport":"stop_position","subway":"yes"}},{"type":"node","id":6472932438,"lat":32.23108,"lon":118.7350121,"tags":{"name":"大厂","name:en":"Dachang","public_transport":"stop_position","railway":"stop","subway":"yes"}},{"type":"node","id":6472932439,"lat":32.2466611,"lon":118.7484872,"tags":{"name":"葛塘","name:en":"Getang","public_transport":"stop_position","railway":"stop","subway":"yes"}},{"type":"node","id":6472932440,"lat":32.2466008,"lon":118.7485916,"tags":{"name":"葛塘","name:en":"Getang","public_transport":"stop_position","railway":"stop","subway":"yes"}},{"type":"node","id":6472932474,"lat":32.2875453,"lon":118.7804648,"tags":{"name":"化工园","name:en":"Huagongyuan","public_transport":"stop_position","railway":"stop","subway":"yes"}},{"type":"node","id":6472932481,"lat":32.275731,"lon":118.7714498,"tags":{"name":"长芦","name:en":"Changlu","public_transport":"stop_position","railway":"stop","subway":"yes"}},{"type":"node","id":6472932785,"lat":32.2756811,"lon":118.7715679,"tags":{"name":"长芦","name:en":"Changlu","public_transport":"stop_position","railway":"stop","subway":"yes"}},{"type":"node","id":6485309836,"lat":31.7397832,"lon":118.882613,"tags":{"name":"空港新城江宁","name:en":"Konggangxinchengjiangning","public_transport":"stop_position","railway":"stop","subway":"yes"}},{"type":"node","id":6898440532,"lat":32.1121889,"lon":118.7720892,"tags":{"name":"五塘广场","name:en":"Wutangguangchang","public_transport":"stop_position","railway":"stop","subway":"yes"}},{"type":"node","id":6898440542,"lat":32.0504865,"lon":118.7547418,"tags":{"name":"清凉山","name:en":"Qingliangshan","public_transport":"stop_position","railway":"stop","subway":"yes"}},{"type":"node","id":6898440548,"lat":32.0627576,"lon":118.7505099,"tags":{"name":"草场门·南艺·二师","name:en":"Caochangmen - NUA - JSSNU","public_transport":"stop_position","railway":"stop","subway":"yes"}},{"type":"node","id":6898440649,"lat":31.963718,"lon":118.6966301,"tags":{"name":"螺塘路","name:en":"Luotanglu","public_transport":"stop_position","railway":"stop","subway":"yes"}},{"type":"node","id":6898440657,"lat":32.0337442,"lon":118.7521278,"tags":{"name":"大士茶亭","name:en":"Dashichating","public_transport":"stop_position","railway":"stop","subway":"yes"}},{"type":"node","id":6898440770,"lat":32.0394176,"lon":118.7544392,"tags":{"name":"莫愁湖","name:en":"Mochouhu","public_transport":"stop_position","railway":"stop","subway":"yes"}},{"type":"node","id":6898440831,"lat":32.1063011,"lon":118.7652354,"tags":{"name":"幕府西路","name:en":"Mufuxilu","public_transport":"stop_position","railway":"stop","subway":"yes"}},{"type":"node","id":7278220684,"lat":31.9111347,"lon":118.5121351,"tags":{"name":"高家冲","name:en":"Gaojiachong","public_transport":"stop_position","railway":"stop","subway":"yes"}},{"type":"node","id":7278227504,"lat":31.920811,"lon":118.5260287,"tags":{"name":"林山","name:en":"Linshan","public_transport":"stop_position","railway":"stop","subway":"yes"}},{"type":"node","id":7278227519,"lat":31.9319755,"lon":118.542468,"tags":{"name":"桥林新城","name:en":"Qiaolinxincheng","public_transport":"stop_position","railway":"stop","subway":"yes"}},{"type":"node","id":7278227528,"lat":31.9401369,"lon":118.5530716,"tags":{"name":"石碛河","name:en":"Shiqihe","public_transport":"stop_position","railway":"stop","subway":"yes"}},{"type":"node","id":7278227545,"lat":31.9503939,"lon":118.5625098,"tags":{"name":"双垅","name:en":"Shuanglong","public_transport":"stop_position","railway":"stop","subway":"yes"}},{"type":"node","id":7278227564,"lat":31.960354,"lon":118.5698516,"tags":{"name":"兰花塘","name:en":"Lanhuatang","public_transport":"stop_position","railway":"stop","subway":"yes"}},{"type":"node","id":7284614795,"lat":31.9751864,"lon":118.583478,"tags":{"name":"马骡圩","name:en":"Maluowei","name:zh-Hans":"马骡圩","name:zh-Hant":"馬騾圩","public_transport":"stop_position","railway":"stop","subway":"yes"}},{"type":"node","id":7492111312,"lat":32.0351487,"lon":119.0466715,"tags":{"name":"泉都大街","operator":"南京地铁","public_transport":"stop_position","railway":"stop","subway":"yes"}},{"type":"node","id":7492111322,"lat":32.0500953,"lon":119.0626086,"tags":{"name":"汤山","operator":"南京地铁","public_transport":"stop_position","railway":"stop","subway":"yes"}},{"type":"node","id":7492111412,"lat":32.0551504,"lon":118.9225458,"tags":{"name":"麒麟门","operator":"南京地铁","public_transport":"stop_position","railway":"stop","subway":"yes"}},{"type":"node","id":7492140924,"lat":31.9449186,"lon":119.1731716,"tags":{"name":"崇明","operator":"南京地铁","public_transport":"stop_position","railway":"stop","subway":"yes"}},{"type":"node","id":7492140925,"lat":31.9744447,"lon":119.1749312,"tags":{"name":"华阳","operator":"南京地铁","public_transport":"stop_position","railway":"stop","subway":"yes"}},{"type":"node","id":7495779394,"lat":31.9936634,"lon":119.1584716,"tags":{"name":"童世界","operator":"南京地铁","public_transport":"stop_position","railway":"stop","subway":"yes"}},{"type":"node","id":7495779396,"lat":32.0633716,"lon":119.0469407,"tags":{"name":"南京猿人洞","operator":"南京地铁","public_transport":"stop_position","railway":"stop","subway":"yes"}},{"type":"node","id":7495779397,"lat":32.051227,"lon":119.0038816,"tags":{"name":"古泉","operator":"南京地铁","public_transport":"stop_position","railway":"stop","subway":"yes"}},{"type":"node","id":7495779398,"lat":32.0538362,"lon":118.9477079,"tags":{"name":"东郊小镇","operator":"南京地铁","public_transport":"stop_position","railway":"stop","subway":"yes"}},{"type":"node","id":7495779399,"lat":32.0554125,"lon":118.9097441,"tags":{"name":"百水桥","operator":"南京地铁","public_transport":"stop_position","railway":"stop","subway":"yes"}},{"type":"node","id":7495779400,"lat":32.0514761,"lon":118.8897684,"tags":{"name":"马群","name:en":"Maqun","operator":"南京地铁","public_transport":"stop_position","railway":"stop","subway":"yes"}},{"type":"node","id":7947456512,"lat":32.1183752,"lon":118.971472,"tags":{"name":"经天路","name:en":"Jingtianlu","public_transport":"stop_position","railway":"stop","subway":"yes"}},{"type":"node","id":7947456519,"lat":32.1182568,"lon":118.9715033,"tags":{"name":"经天路","name:en":"Jingtianlu","public_transport":"stop_position","railway":"stop","subway":"yes"}},{"type":"node","id":7996685228,"lat":32.1049224,"lon":118.8043879,"tags":{"name":"迈皋桥","name:en":"Maigaoqiao","public_transport":"stop_position","railway":"stop","subway":"yes"}},{"type":"node","id":7996685255,"lat":32.0979278,"lon":118.7969249,"tags":{"name":"红山动物园","name:en":"Hongshan Zoo","public_transport":"stop_position","subway":"yes"}},{"type":"node","id":7996685279,"lat":32.1048884,"lon":118.8045337,"tags":{"name":"迈皋桥","name:en":"Maigaoqiao","public_transport":"stop_position","railway":"stop","subway":"yes"}},{"type":"node","id":7996694628,"lat":32.081934,"lon":118.7784446,"tags":{"name":"新模范马路","name:en":"Xinmofanmalu","public_transport":"stop_position","railway":"stop","subway":"yes"}},{"type":"node","id":7996694649,"lat":32.0819401,"lon":118.7786502,"tags":{"name":"新模范马路","name:en":"Xinmofanmalu","public_transport":"stop_position","railway":"stop","subway":"yes"}},{"type":"node","id":7996694669,"lat":32.0890359,"lon":118.7914897,"tags":{"name":"南京站","name:en":"Nanjing Railway Station","public_transport":"stop_position","railway":"stop","subway":"yes"}},{"type":"node","id":7996694750,"lat":32.0723287,"lon":118.7790794,"tags":{"name":"玄武门","name:en":"Xuanwumen","name:zh-Hans":"玄武门","name:zh-Hant":"玄武門","public_transport":"stop_position","railway":"stop","subway":"yes"}},{"type":"node","id":7996694763,"lat":32.0607715,"lon":118.7783154,"tags":{"name":"鼓楼","name:en":"Gulou","name:zh-Hans":"鼓楼","name:zh-Hant":"鼓樓","public_transport":"stop_position","railway":"stop","subway":"yes"}},{"type":"node","id":7996694793,"lat":32.0607564,"lon":118.7785202,"tags":{"name":"鼓楼","name:en":"Gulou","name:zh-Hans":"鼓楼","name:zh-Hant":"鼓樓","public_transport":"stop_position","railway":"stop","subway":"yes"}},{"type":"node","id":7996788886,"lat":32.0328688,"lon":118.7786148,"tags":{"name":"张府园","name:en":"Zhangfuyuan","public_transport":"stop_position","railway":"stop","subway":"yes"}},{"type":"node","id":7996788918,"lat":32.0328541,"lon":118.7787677,"tags":{"name":"张府园","name:en":"Zhangfuyuan","public_transport":"stop_position","railway":"stop","subway":"yes"}},{"type":"node","id":7996788931,"lat":32.0250124,"lon":118.7762553,"tags":{"name":"三山街","name:en":"Sanshanjie","public_transport":"stop_position","railway":"stop","subway":"yes"}},{"type":"node","id":7996788965,"lat":32.0249894,"lon":118.7763458,"tags":{"name":"三山街","name:en":"Sanshanjie","public_transport":"stop_position","railway":"stop","subway":"yes"}},{"type":"node","id":7996789052,"lat":31.9937322,"lon":118.7564483,"tags":{"name":"安德门","name:en":"Andemen","public_transport":"stop_position","railway":"stop","subway":"yes"}},{"type":"node","id":7996789054,"lat":31.9937652,"lon":118.7566388,"tags":{"name":"安德门","name:en":"Andemen","public_transport":"stop_position","railway":"stop","subway":"yes"}},{"type":"node","id":7996789102,"lat":31.981157,"lon":118.7580042,"tags":{"name":"天隆寺","name:en":"Tianlongsi","public_transport":"stop_position","railway":"stop","subway":"yes"}},{"type":"node","id":7996789192,"lat":31.9788849,"lon":118.7693902,"tags":{"name":"软件大道","name:en":"Ruanjiandadao","public_transport":"stop_position","railway":"stop","subway":"yes"}},{"type":"node","id":7996789213,"lat":31.9799255,"lon":118.7804905,"tags":{"name":"花神庙","name:en":"Huashenmiao","public_transport":"stop_position","railway":"stop","subway":"yes"}},{"type":"node","id":7996789245,"lat":31.9715564,"lon":118.7921432,"tags":{"name":"南京南站","name:en":"Nanjing South Railway Station","name:zh-Latn-pinyin":"Nánjīng Nán Zhàn","public_transport":"stop_position","railway":"stop","subway":"yes"}},{"type":"node","id":7996902471,"lat":31.9657809,"lon":118.8120599,"tags":{"name":"双龙大道","name:en":"Shuanglongdadao","public_transport":"stop_position","railway":"stop","subway":"yes"}},{"type":"node","id":7996982387,"lat":31.9535048,"lon":118.8147087,"tags":{"name":"河定桥","name:en":"Hedingqiao","public_transport":"stop_position","subway":"yes"}},{"type":"node","id":7996982467,"lat":31.9535217,"lon":118.8148692,"tags":{"name":"河定桥","name:en":"Hedingqiao","public_transport":"stop_position","subway":"yes"}},{"type":"node","id":7996982687,"lat":31.9356648,"lon":118.8852075,"tags":{"name":"南医大·江苏经贸学院","name:en":"NMU-JIETT","public_transport":"stop_position","subway":"yes"}},{"type":"node","id":7996982817,"lat":31.9151419,"lon":118.8998343,"tags":{"name":"南京交院","name:en":"NJCI","public_transport":"stop_position","railway":"stop","subway":"yes"}},{"type":"node","id":7998496315,"lat":32.3616227,"lon":118.8450379,"tags":{"name":"方洲广场","name:en":"Fangzhou­guangchang","public_transport":"stop_position","railway":"stop","subway":"yes"}},{"type":"node","id":7998496327,"lat":32.3212701,"lon":118.8153684,"tags":{"name":"龙池","name:en":"Longchi","public_transport":"stop_position","railway":"stop","subway":"yes"}},{"type":"node","id":7998496335,"lat":32.3072465,"lon":118.8001522,"tags":{"name":"六合开发区","name:en":"Luhe Development Zone","public_transport":"stop_position","railway":"stop","subway":"yes"}},{"type":"node","id":7998496366,"lat":32.1798408,"lon":118.7144168,"tags":{"name":"高新开发区","name:en":"Gaoxin Development Zone","public_transport":"stop_position","railway":"stop","subway":"yes"}},{"type":"node","id":7998496375,"lat":32.2046515,"lon":118.7217633,"tags":{"name":"信息工程大学","name:en":"NUIST","public_transport":"stop_position","railway":"stop","subway":"yes"}},{"type":"node","id":7998501056,"lat":32.3491564,"lon":118.8401075,"tags":{"name":"凤凰山公园","name:en":"Fenghuangshan­gongyuan","public_transport":"stop_position","railway":"stop","subway":"yes"}},{"type":"node","id":7998501057,"lat":32.3365912,"lon":118.8317031,"tags":{"name":"雄州","name:en":"Xiongzhou","public_transport":"stop_position","railway":"stop","subway":"yes"}},{"type":"node","id":7998501058,"lat":32.2168404,"lon":118.7254017,"tags":{"name":"卸甲甸","name:en":"Xiejiadian","public_transport":"stop_position","railway":"stop","subway":"yes"}},{"type":"node","id":7998501059,"lat":32.1561564,"lon":118.7140936,"tags":{"name":"泰冯路","name:en":"Taifenglu","public_transport":"stop_position","railway":"stop","subway":"yes"}},{"type":"node","id":7998501060,"lat":32.1464779,"lon":118.7110466,"tags":{"name":"泰山新村","name:en":"Taishanxincun","public_transport":"stop_position","railway":"stop","subway":"yes"}},{"type":"node","id":7998501062,"lat":32.4675175,"lon":118.9595935,"tags":{"name":"金牛湖","name:en":"Jinniuhu","public_transport":"stop_position","railway":"stop","subway":"yes"}},{"type":"node","id":7998512501,"lat":32.4293218,"lon":118.9281499,"tags":{"name":"八百桥","name:en":"Babaiqiao","public_transport":"stop_position","railway":"stop","subway":"yes"}},{"type":"node","id":7998512532,"lat":32.4022004,"lon":118.8868707,"tags":{"name":"沈桥","name:en":"Shenqiao","public_transport":"stop_position","railway":"stop","subway":"yes"}},{"type":"node","id":7998884354,"lat":31.9420966,"lon":118.8720988,"tags":{"name":"龙眠大道","name:en":"Longmiandadao","public_transport":"stop_position","subway":"yes"}},{"type":"node","id":7998884355,"lat":31.942133,"lon":118.8720916,"tags":{"name":"龙眠大道","name:en":"Longmiandadao","public_transport":"stop_position","subway":"yes"}},{"type":"node","id":7998884356,"lat":31.9357045,"lon":118.8852658,"tags":{"name":"南医大·江苏经贸学院","name:en":"NMU-JIETT","public_transport":"stop_position","subway":"yes"}},{"type":"node","id":7998884359,"lat":31.9151085,"lon":118.899786,"tags":{"name":"南京交院","name:en":"NJCI","public_transport":"stop_position","railway":"stop","subway":"yes"}},{"type":"node","id":7998884360,"lat":31.8998775,"lon":118.909055,"tags":{"name":"中国药科大学","name:en":"China Pharmaceutical University","name:zh-Hant":"中國藥科大學","public_transport":"stop_position","railway":"stop","short_name:en":"CPU","subway":"yes"}},{"type":"node","id":7998884361,"lat":31.8998394,"lon":118.9090229,"tags":{"name":"中国药科大学","name:en":"China Pharmaceutical University","name:zh-Hant":"中國藥科大學","public_transport":"stop_position","railway":"stop","short_name:en":"CPU","subway":"yes"}},{"type":"node","id":7999063766,"lat":31.9787553,"lon":118.7694086,"tags":{"name":"软件大道","name:en":"Ruanjiandadao","public_transport":"stop_position","railway":"stop","subway":"yes"}},{"type":"node","id":7999063769,"lat":31.9798239,"lon":118.7805387,"tags":{"name":"花神庙","name:en":"Huashenmiao","public_transport":"stop_position","railway":"stop","subway":"yes"}},{"type":"node","id":7999063771,"lat":31.9657502,"lon":118.8119325,"tags":{"name":"双龙大道","name:en":"Shuanglongdadao","public_transport":"stop_position","subway":"yes"}},{"type":"node","id":7999063772,"lat":31.9458534,"lon":118.816216,"tags":{"name":"胜太路","name:en":"Shengtailu","public_transport":"stop_position","subway":"yes"}},{"type":"node","id":7999063773,"lat":31.9458512,"lon":118.8160685,"tags":{"name":"胜太路","name:en":"Shengtailu","public_transport":"stop_position","subway":"yes"}},{"type":"node","id":7999063774,"lat":31.9339925,"lon":118.8158043,"tags":{"name":"百家湖","name:en":"Baijiahu","public_transport":"stop_position","subway":"yes"}},{"type":"node","id":7999063775,"lat":31.9339971,"lon":118.8156588,"tags":{"name":"百家湖","name:en":"Baijiahu","public_transport":"stop_position","subway":"yes"}},{"type":"node","id":7999063776,"lat":31.9318199,"lon":118.8276956,"tags":{"name":"小龙湾","name:en":"Xiaolongwan","public_transport":"stop_position","railway":"stop","subway":"yes"}},{"type":"node","id":7999063777,"lat":31.9318524,"lon":118.8276816,"tags":{"name":"小龙湾","name:en":"Xiaolongwan","public_transport":"stop_position","railway":"stop","subway":"yes"}},{"type":"node","id":7999063778,"lat":31.9341751,"lon":118.8394434,"tags":{"name":"竹山路","name:en":"Zhushanlu","public_transport":"stop_position","subway":"yes"}},{"type":"node","id":7999063779,"lat":31.934136,"lon":118.8394615,"tags":{"name":"竹山路","name:en":"Zhushanlu","public_transport":"stop_position","subway":"yes"}},{"type":"node","id":7999063780,"lat":31.9398456,"lon":118.8584877,"tags":{"name":"天印大道","name:en":"Tianyindadao","public_transport":"stop_position","subway":"yes"}},{"type":"node","id":7999063781,"lat":31.9398844,"lon":118.8584759,"tags":{"name":"天印大道","name:en":"Tianyindadao","public_transport":"stop_position","subway":"yes"}},{"type":"node","id":7999205734,"lat":32.0979891,"lon":118.7968114,"tags":{"name":"红山动物园","name:en":"Hongshan Zoo","public_transport":"stop_position","subway":"yes"}},{"type":"node","id":7999205735,"lat":32.0890944,"lon":118.7913144,"tags":{"name":"南京站","name:en":"Nanjing Railway Station","public_transport":"stop_position","railway":"stop","subway":"yes"}},{"type":"node","id":7999205741,"lat":32.0723268,"lon":118.7789276,"tags":{"name":"玄武门","name:en":"Xuanwumen","name:zh-Hant":"玄武門","public_transport":"stop_position","railway":"stop","subway":"yes"}},{"type":"node","id":7999205742,"lat":32.0529624,"lon":118.7791068,"tags":{"name":"珠江路","name:en":"Zhujianglu","public_transport":"stop_position","railway":"stop","subway":"yes"}},{"type":"node","id":7999205743,"lat":32.052967,"lon":118.7789475,"tags":{"name":"珠江路","name:en":"Zhujianglu","public_transport":"stop_position","railway":"stop","subway":"yes"}},{"type":"node","id":7999205744,"lat":32.0435788,"lon":118.7789993,"tags":{"name":"新街口","name:en":"Xinjiekou","public_transport":"stop_position","railway":"stop","subway":"yes"}},{"type":"node","id":7999205745,"lat":32.0435822,"lon":118.7788059,"tags":{"name":"新街口","name:en":"Xinjiekou","public_transport":"stop_position","railway":"stop","subway":"yes"}},{"type":"node","id":7999205746,"lat":32.0089485,"lon":118.769294,"tags":{"name":"中华门","name:en":"Zhonghuamen","public_transport":"stop_position","railway":"stop","subway":"yes"}},{"type":"node","id":7999205747,"lat":31.9811483,"lon":118.7579471,"tags":{"name":"天隆寺","name:en":"Tianlongsi","public_transport":"stop_position","railway":"stop","subway":"yes"}},{"type":"node","id":8002523279,"lat":32.0799067,"lon":118.9388685,"tags":{"name":"灵山","name:en":"Lingshan","public_transport":"stop_position","railway":"stop","station":"subway","subway":"yes"}},{"type":"node","id":8018553445,"lat":32.0601856,"lon":118.7343663,"tags":{"name":"龙江","name:en":"Liongjiang","public_transport":"stop_position","railway":"stop","subway":"yes"}},{"type":"node","id":8018553446,"lat":32.0600309,"lon":118.7343759,"tags":{"name":"龙江","name:en":"Liongjiang","public_transport":"stop_position","railway":"stop","subway":"yes"}},{"type":"node","id":8018570694,"lat":32.062445,"lon":118.7503103,"tags":{"name":"草场门·南艺·二师","name:en":"Caochangmen - NUA - JSSNU","public_transport":"stop_position","railway":"stop","subway":"yes"}},{"type":"node","id":8018570695,"lat":32.0622815,"lon":118.750388,"tags":{"name":"草场门·南艺·二师","name:en":"Caochangmen - NUA - JSSNU","public_transport":"stop_position","railway":"stop","subway":"yes"}},{"type":"node","id":8018570722,"lat":32.0612704,"lon":118.7693884,"tags":{"name":"云南路","name:en":"Yunnanlu","public_transport":"stop_position","railway":"stop","subway":"yes"}},{"type":"node","id":8018570723,"lat":32.0611329,"lon":118.7693709,"tags":{"name":"云南路","name:en":"Yunnanlu","public_transport":"stop_position","railway":"stop","subway":"yes"}},{"type":"node","id":8018570784,"lat":32.06081,"lon":118.777939,"tags":{"name":"鼓楼","name:zh-Hans":"鼓楼","name:zh-Hant":"鼓樓","public_transport":"stop_position","railway":"stop","subway":"yes"}},{"type":"node","id":8018570785,"lat":32.060984,"lon":118.7779797,"tags":{"name":"鼓楼","name:zh-Hans":"鼓楼","name:zh-Hant":"鼓樓","public_transport":"stop_position","railway":"stop","subway":"yes"}},{"type":"node","id":8018570812,"lat":32.0597938,"lon":118.7922014,"tags":{"name":"鸡鸣寺","name:zh-Hans":"鸡鸣寺","name:zh-Hant":"雞鳴寺","public_transport":"stop_position","railway":"stop","subway":"yes"}},{"type":"node","id":8018570813,"lat":32.0596422,"lon":118.7921996,"tags":{"name":"鸡鸣寺","name:zh-Hans":"鸡鸣寺","name:zh-Hant":"雞鳴寺","public_transport":"stop_position","railway":"stop","subway":"yes"}},{"type":"node","id":8018570855,"lat":32.0595292,"lon":118.8006317,"tags":{"name":"九华山","name:zh-Hans":"九华山","name:zh-Hant":"九華山","public_transport":"stop_position","railway":"stop","subway":"yes"}},{"type":"node","id":8018570856,"lat":32.0593836,"lon":118.8006187,"tags":{"name":"九华山","name:zh-Hans":"九华山","name:zh-Hant":"九華山","public_transport":"stop_position","railway":"stop","subway":"yes"}},{"type":"node","id":8018570896,"lat":32.0673988,"lon":118.810852,"tags":{"name":"岗子村","public_transport":"stop_position","railway":"stop","subway":"yes"}},{"type":"node","id":8018570897,"lat":32.0674745,"lon":118.8107151,"tags":{"name":"岗子村","public_transport":"stop_position","railway":"stop","subway":"yes"}},{"type":"node","id":8018570922,"lat":32.0796594,"lon":118.8261291,"tags":{"name":"蒋王庙","public_transport":"stop_position","railway":"stop","subway":"yes"}},{"type":"node","id":8018570936,"lat":32.0797292,"lon":118.8259874,"tags":{"name":"蒋王庙","public_transport":"stop_position","railway":"stop","subway":"yes"}},{"type":"node","id":8018687813,"lat":32.0874595,"lon":118.8331303,"tags":{"name":"王家湾","public_transport":"stop_position","railway":"stop","subway":"yes"}},{"type":"node","id":8018687829,"lat":32.0876246,"lon":118.8330846,"tags":{"name":"王家湾","public_transport":"stop_position","railway":"stop","subway":"yes"}},{"type":"node","id":8018687855,"lat":32.0960124,"lon":118.8597619,"tags":{"name":"聚宝山","public_transport":"stop_position","railway":"stop","subway":"yes"}},{"type":"node","id":8018687877,"lat":32.0961612,"lon":118.8597465,"tags":{"name":"聚宝山","public_transport":"stop_position","railway":"stop","subway":"yes"}},{"type":"node","id":8018689008,"lat":32.0875174,"lon":118.8833322,"tags":{"name":"徐庄·苏宁总部","public_transport":"stop_position","railway":"stop","subway":"yes"}},{"type":"node","id":8018689009,"lat":32.0873776,"lon":118.8832876,"tags":{"name":"徐庄·苏宁总部","public_transport":"stop_position","railway":"stop","subway":"yes"}},{"type":"node","id":8018689069,"lat":32.0740838,"lon":118.9011523,"tags":{"name":"金马路","public_transport":"stop_position","railway":"stop","subway":"yes"}},{"type":"node","id":8018689070,"lat":32.0740951,"lon":118.9013154,"tags":{"name":"金马路","public_transport":"stop_position","railway":"stop","subway":"yes"}},{"type":"node","id":8018689113,"lat":32.0802175,"lon":118.9265665,"tags":{"name":"汇通路","public_transport":"stop_position","railway":"stop","subway":"yes"}},{"type":"node","id":8018689141,"lat":32.0803155,"lon":118.9265572,"tags":{"name":"汇通路","public_transport":"stop_position","railway":"stop","subway":"yes"}},{"type":"node","id":8018689162,"lat":32.0800338,"lon":118.9388671,"tags":{"name":"灵山","public_transport":"stop_position","railway":"stop","subway":"yes"}},{"type":"node","id":8018689190,"lat":32.0792912,"lon":118.9597256,"tags":{"name":"东流","public_transport":"stop_position","railway":"stop","subway":"yes"}},{"type":"node","id":8018689205,"lat":32.0794395,"lon":118.9597316,"tags":{"name":"东流","public_transport":"stop_position","railway":"stop","subway":"yes"}},{"type":"node","id":8018689241,"lat":32.0865285,"lon":118.9821907,"tags":{"name":"孟北","public_transport":"stop_position","railway":"stop","subway":"yes"}},{"type":"node","id":8018689242,"lat":32.0866174,"lon":118.9821345,"tags":{"name":"孟北","public_transport":"stop_position","railway":"stop","subway":"yes"}},{"type":"node","id":8018689270,"lat":32.1010565,"lon":118.9911674,"tags":{"name":"西岗桦墅","public_transport":"stop_position","railway":"stop","subway":"yes"}},{"type":"node","id":8018689271,"lat":32.1010623,"lon":118.9913264,"tags":{"name":"西岗桦墅","public_transport":"stop_position","railway":"stop","subway":"yes"}},{"type":"node","id":8018689336,"lat":32.1275807,"lon":118.9874964,"tags":{"name":"仙林湖","public_transport":"stop_position","railway":"stop","subway":"yes"}},{"type":"node","id":8018689337,"lat":32.1275755,"lon":118.9874177,"tags":{"name":"仙林湖","public_transport":"stop_position","railway":"stop","subway":"yes"}},{"type":"node","id":8039937757,"lat":31.9683888,"lon":118.7163542,"tags":{"name":"油坊桥","name:zh-Hans":"油坊桥","name:zh-Hant":"油坊橋","public_transport":"stop_position","railway":"stop","subway":"yes"}},{"type":"node","id":8039975195,"lat":31.9858418,"lon":118.7173715,"tags":{"name":"雨润大街","name:zh-Hans":"雨润大街","name:zh-Hant":"雨潤大街","public_transport":"stop_position","railway":"stop","subway":"yes"}},{"type":"node","id":8039975258,"lat":31.9977081,"lon":118.7165111,"tags":{"name":"元通","public_transport":"stop_position","railway":"stop","subway":"yes"}},{"type":"node","id":8039975259,"lat":31.9978053,"lon":118.7163598,"tags":{"name":"元通","public_transport":"stop_position","railway":"stop","subway":"yes"}},{"type":"node","id":8039975290,"lat":32.0065728,"lon":118.7239359,"tags":{"name":"奥体东","name:zh-Hans":"奥体东","name:zh-Hant":"奧體東","public_transport":"stop_position","railway":"stop","subway":"yes"}},{"type":"node","id":8039975291,"lat":32.0066457,"lon":118.7237612,"tags":{"name":"奥体东","name:zh-Hans":"奥体东","name:zh-Hant":"奧體東","public_transport":"stop_position","railway":"stop","subway":"yes"}},{"type":"node","id":8039975311,"lat":32.0173599,"lon":118.7309408,"tags":{"name":"兴隆大街","name:zh-Hans":"兴隆大街","name:zh-Hant":"興隆大街","public_transport":"stop_position","railway":"stop","subway":"yes"}},{"type":"node","id":8039975312,"lat":32.0174086,"lon":118.7307798,"tags":{"name":"兴隆大街","name:zh-Hans":"兴隆大街","name:zh-Hant":"興隆大街","public_transport":"stop_position","railway":"stop","subway":"yes"}},{"type":"node","id":8039975339,"lat":32.030263,"lon":118.734577,"tags":{"name":"集庆门大街","name:zh-Hans":"集庆门大街","name:zh-Hant":"集慶門大街","public_transport":"stop_position","railway":"stop","subway":"yes"}},{"type":"node","id":8039975340,"lat":32.0303185,"lon":118.7342033,"tags":{"name":"集庆门大街","name:zh-Hans":"集庆门大街","name:zh-Hant":"集慶門大街","public_transport":"stop_position","railway":"stop","subway":"yes"}},{"type":"node","id":8039975397,"lat":32.0369462,"lon":118.7423586,"tags":{"name":"云锦路","name:zh-Hans":"云锦路","name:zh-Hant":"雲錦路","public_transport":"stop_position","railway":"stop","subway":"yes"}},{"type":"node","id":8039975398,"lat":32.037087,"lon":118.7423684,"tags":{"name":"云锦路","name:zh-Hans":"云锦路","name:zh-Hant":"雲錦路","public_transport":"stop_position","railway":"stop","subway":"yes"}},{"type":"node","id":8039975442,"lat":32.0391729,"lon":118.7537167,"tags":{"name":"莫愁湖","name:en":"Mochouhu","public_transport":"stop_position","railway":"stop","subway":"yes"}},{"type":"node","id":8039975443,"lat":32.0392372,"lon":118.7535258,"tags":{"name":"莫愁湖","name:en":"Mochouhu","public_transport":"stop_position","railway":"stop","subway":"yes"}},{"type":"node","id":8039975477,"lat":32.0446932,"lon":118.761797,"tags":{"name":"汉中门","name:zh-Hans":"汉中门","name:zh-Hant":"漢中門","public_transport":"stop_position","railway":"stop","subway":"yes"}},{"type":"node","id":8039975478,"lat":32.0448702,"lon":118.7617821,"tags":{"name":"汉中门","name:zh-Hans":"汉中门","name:zh-Hant":"漢中門","public_transport":"stop_position","railway":"stop","subway":"yes"}},{"type":"node","id":8039975501,"lat":32.0442175,"lon":118.7708088,"tags":{"name":"上海路","name:en":"Shanghailu","public_transport":"stop_position","railway":"stop","subway":"yes"}},{"type":"node","id":8039975502,"lat":32.0443504,"lon":118.7708167,"tags":{"name":"上海路","name:en":"Shanghailu","public_transport":"stop_position","railway":"stop","subway":"yes"}},{"type":"node","id":8039975518,"lat":32.043777,"lon":118.7786931,"tags":{"name":"新街口","public_transport":"stop_position","railway":"stop","subway":"yes"}},{"type":"node","id":8039975519,"lat":32.0439143,"lon":118.7786912,"tags":{"name":"新街口","public_transport":"stop_position","railway":"stop","subway":"yes"}},{"type":"node","id":8040230683,"lat":32.0430704,"lon":118.7896318,"tags":{"name":"大行宫","name:zh":"大行宫","name:zh-Hans":"大行宫","name:zh-Hant":"大行宮","public_transport":"stop_position","railway":"stop","subway":"yes"}},{"type":"node","id":8040230684,"lat":32.043208,"lon":118.7896395,"tags":{"name":"大行宫","name:zh":"大行宫","name:zh-Hans":"大行宫","name:zh-Hant":"大行宮","public_transport":"stop_position","railway":"stop","subway":"yes"}},{"type":"node","id":8040236513,"lat":32.0421158,"lon":118.8003916,"tags":{"name":"西安门","name:zh":"西安门","name:zh-Hans":"西安门","name:zh-Hant":"西安門","public_transport":"stop_position","railway":"stop","subway":"yes"}},{"type":"node","id":8040236514,"lat":32.042269,"lon":118.8003935,"tags":{"name":"西安门","name:zh":"西安门","name:zh-Hans":"西安门","name:zh-Hant":"西安門","public_transport":"stop_position","railway":"stop","subway":"yes"}},{"type":"node","id":8040236536,"lat":32.0413135,"lon":118.8144829,"tags":{"name":"明故宫","name:zh":"明故宫","name:zh-Hans":"明故宫","name:zh-Hant":"明故宮","public_transport":"stop_position","railway":"stop","subway":"yes"}},{"type":"node","id":8040236537,"lat":32.0414319,"lon":118.8144844,"tags":{"name":"明故宫","name:zh":"明故宫","name:zh-Hans":"明故宫","name:zh-Hant":"明故宮","public_transport":"stop_position","railway":"stop","subway":"yes"}},{"type":"node","id":8040236572,"lat":32.0423083,"lon":118.8299717,"tags":{"name":"苜蓿园","public_transport":"stop_position","railway":"stop","subway":"yes"}},{"type":"node","id":8040236573,"lat":32.0424481,"lon":118.8299782,"tags":{"name":"苜蓿园","public_transport":"stop_position","railway":"stop","subway":"yes"}},{"type":"node","id":8040236605,"lat":32.0397907,"lon":118.8433532,"tags":{"name":"下马坊","public_transport":"stop_position","railway":"stop","subway":"yes"}},{"type":"node","id":8040236606,"lat":32.0399475,"lon":118.8433946,"tags":{"name":"下马坊","public_transport":"stop_position","railway":"stop","subway":"yes"}},{"type":"node","id":8040236642,"lat":32.0376466,"lon":118.8527385,"tags":{"name":"孝陵卫","public_transport":"stop_position","railway":"stop","subway":"yes"}},{"type":"node","id":8040236643,"lat":32.0377819,"lon":118.8527145,"tags":{"name":"孝陵卫","public_transport":"stop_position","railway":"stop","subway":"yes"}},{"type":"node","id":8040236671,"lat":32.0416292,"lon":118.8639081,"tags":{"name":"钟灵街","public_transport":"stop_position","railway":"stop","subway":"yes"}},{"type":"node","id":8040236681,"lat":32.0417105,"lon":118.8638073,"tags":{"name":"钟灵街","public_transport":"stop_position","railway":"stop","subway":"yes"}},{"type":"node","id":8040236751,"lat":32.0518849,"lon":118.8896937,"tags":{"name":"马群","name:en":"Maqun","public_transport":"stop_position","railway":"stop","subway":"yes"}},{"type":"node","id":8040236752,"lat":32.0519255,"lon":118.8896872,"tags":{"name":"马群","name:en":"Maqun","public_transport":"stop_position","railway":"stop","subway":"yes"}},{"type":"node","id":8040236832,"lat":32.0739758,"lon":118.9009689,"tags":{"name":"金马路","public_transport":"stop_position","railway":"stop","subway":"yes"}},{"type":"node","id":8040236833,"lat":32.0739476,"lon":118.9008213,"tags":{"name":"金马路","public_transport":"stop_position","railway":"stop","subway":"yes"}},{"type":"node","id":8040236888,"lat":32.0871685,"lon":118.8999595,"tags":{"name":"仙鹤门","public_transport":"stop_position","railway":"stop","subway":"yes"}},{"type":"node","id":8040236889,"lat":32.0872826,"lon":118.8998567,"tags":{"name":"仙鹤门","public_transport":"stop_position","railway":"stop","subway":"yes"}},{"type":"node","id":8040236914,"lat":32.0935423,"lon":118.9118471,"tags":{"name":"学则路","public_transport":"stop_position","railway":"stop","subway":"yes"}},{"type":"node","id":8040236915,"lat":32.0936998,"lon":118.9117458,"tags":{"name":"学则路","public_transport":"stop_position","railway":"stop","subway":"yes"}},{"type":"node","id":8040236938,"lat":32.1010597,"lon":118.925349,"tags":{"name":"仙林中心","public_transport":"stop_position","railway":"stop","subway":"yes"}},{"type":"node","id":8040236945,"lat":32.1009246,"lon":118.9254336,"tags":{"name":"仙林中心","public_transport":"stop_position","railway":"stop","subway":"yes"}},{"type":"node","id":8040236972,"lat":32.1060597,"lon":118.9350736,"tags":{"name":"羊山公园","public_transport":"stop_position","railway":"stop","subway":"yes"}},{"type":"node","id":8040236973,"lat":32.1061641,"lon":118.9350184,"tags":{"name":"羊山公园","public_transport":"stop_position","railway":"stop","subway":"yes"}},{"type":"node","id":8040237018,"lat":32.11091,"lon":118.9544771,"tags":{"name":"南大仙林校区","public_transport":"stop_position","railway":"stop","subway":"yes"}},{"type":"node","id":8040237019,"lat":32.1110527,"lon":118.9544513,"tags":{"name":"南大仙林校区","public_transport":"stop_position","railway":"stop","subway":"yes"}},{"type":"node","id":8042202204,"lat":32.1658194,"lon":118.6662364,"tags":{"name":"林场","name:zh-Hans":"林场","name:zh-Hant":"林場","public_transport":"stop_position","railway":"stop","subway":"yes"}},{"type":"node","id":8042202212,"lat":32.1656943,"lon":118.6662486,"tags":{"name":"林场","name:zh-Hans":"林场","name:zh-Hant":"林場","public_transport":"stop_position","railway":"stop","subway":"yes"}},{"type":"node","id":8042210212,"lat":32.1594027,"lon":118.6916829,"tags":{"name":"星火路","public_transport":"stop_position","railway":"stop","subway":"yes"}},{"type":"node","id":8042210213,"lat":32.1595816,"lon":118.6916871,"tags":{"name":"星火路","public_transport":"stop_position","railway":"stop","subway":"yes"}},{"type":"node","id":8042210252,"lat":32.1584295,"lon":118.7022979,"tags":{"name":"东大成贤学院","name:zh-Hans":"东大成贤学院","name:zh-Hant":"東大成賢學院","public_transport":"stop_position","railway":"stop","subway":"yes"}},{"type":"node","id":8042210253,"lat":32.1585583,"lon":118.7023528,"tags":{"name":"东大成贤学院","name:zh-Hans":"东大成贤学院","name:zh-Hant":"東大成賢學院","public_transport":"stop_position","railway":"stop","subway":"yes"}},{"type":"node","id":8042210297,"lat":32.1557283,"lon":118.7132076,"tags":{"name":"泰冯路","name:zh-Hans":"泰冯路","name:zh-Hant":"泰馮路","public_transport":"stop_position","railway":"stop","subway":"yes"}},{"type":"node","id":8042210298,"lat":32.1558764,"lon":118.7132391,"tags":{"name":"泰冯路","name:zh-Hans":"泰冯路","name:zh-Hant":"泰馮路","public_transport":"stop_position","railway":"stop","subway":"yes"}},{"type":"node","id":8042210328,"lat":32.1529916,"lon":118.728718,"tags":{"name":"天润城","public_transport":"stop_position","railway":"stop","subway":"yes"}},{"type":"node","id":8042210329,"lat":32.1531478,"lon":118.728751,"tags":{"name":"天润城","public_transport":"stop_position","railway":"stop","subway":"yes"}},{"type":"node","id":8042210383,"lat":32.1419312,"lon":118.7410533,"tags":{"name":"柳洲东路","public_transport":"stop_position","railway":"stop","subway":"yes"}},{"type":"node","id":8042210384,"lat":32.1419388,"lon":118.7410844,"tags":{"name":"柳洲东路","public_transport":"stop_position","railway":"stop","subway":"yes"}},{"type":"node","id":8042210406,"lat":32.1175597,"lon":118.7646869,"tags":{"name":"上元门","name:zh-Hans":"上元门","name:zh-Hant":"上元門","public_transport":"stop_position","railway":"stop","subway":"yes"}},{"type":"node","id":8042210407,"lat":32.1175689,"lon":118.764698,"tags":{"name":"上元门","name:zh-Hans":"上元门","name:zh-Hant":"上元門","public_transport":"stop_position","railway":"stop","subway":"yes"}},{"type":"node","id":8042210456,"lat":32.1125376,"lon":118.7724358,"tags":{"name":"五塘广场","name:en":"Wutangguangchang","public_transport":"stop_position","railway":"stop","subway":"yes"}},{"type":"node","id":8042210457,"lat":32.1126004,"lon":118.7725855,"tags":{"name":"五塘广场","name:en":"Wutangguangchang","public_transport":"stop_position","railway":"stop","subway":"yes"}},{"type":"node","id":8042210504,"lat":32.0970739,"lon":118.7804004,"tags":{"name":"小市","public_transport":"stop_position","railway":"stop","subway":"yes"}},{"type":"node","id":8042210505,"lat":32.0971075,"lon":118.7805574,"tags":{"name":"小市","public_transport":"stop_position","railway":"stop","subway":"yes"}},{"type":"node","id":8042210545,"lat":32.0912566,"lon":118.7913358,"tags":{"name":"南京站","public_transport":"stop_position","railway":"stop","subway":"yes"}},{"type":"node","id":8042210546,"lat":32.0913463,"lon":118.7913774,"tags":{"name":"南京站","public_transport":"stop_position","railway":"stop","subway":"yes"}},{"type":"node","id":8042210592,"lat":32.0786701,"lon":118.8051636,"tags":{"name":"南京林业大学·新庄","public_transport":"stop_position","railway":"stop","subway":"yes"}},{"type":"node","id":8042210593,"lat":32.0787017,"lon":118.8053311,"tags":{"name":"南京林业大学·新庄","public_transport":"stop_position","railway":"stop","subway":"yes"}},{"type":"node","id":8042210639,"lat":32.0592036,"lon":118.792625,"tags":{"name":"鸡鸣寺","name:zh-Hans":"鸡鸣寺","name:zh-Hant":"雞鳴寺","public_transport":"stop_position","railway":"stop","subway":"yes"}},{"type":"node","id":8042210640,"lat":32.0591975,"lon":118.792836,"tags":{"name":"鸡鸣寺","name:zh-Hans":"鸡鸣寺","name:zh-Hant":"雞鳴寺","public_transport":"stop_position","railway":"stop","subway":"yes"}},{"type":"node","id":8042210650,"lat":32.0514404,"lon":118.7909492,"tags":{"name":"浮桥","public_transport":"stop_position","railway":"stop","subway":"yes"}},{"type":"node","id":8042210651,"lat":32.0514084,"lon":118.7911076,"tags":{"name":"浮桥","public_transport":"stop_position","railway":"stop","subway":"yes"}},{"type":"node","id":8042210670,"lat":32.0441326,"lon":118.7893357,"tags":{"name":"大行宫","name:zh":"大行宫","name:zh-Hans":"大行宫","name:zh-Hant":"大行宮","public_transport":"stop_position","railway":"stop","subway":"yes"}},{"type":"node","id":8042210671,"lat":32.0441111,"lon":118.7895234,"tags":{"name":"大行宫","name:zh":"大行宫","name:zh-Hans":"大行宫","name:zh-Hant":"大行宮","public_transport":"stop_position","railway":"stop","subway":"yes"}},{"type":"node","id":8042375361,"lat":32.0354197,"lon":118.7869308,"tags":{"name":"常府街","name:zh":"常府街","name:zh-Hans":"常府街","name:zh-Hant":"常府街","public_transport":"stop_position","railway":"stop","subway":"yes"}},{"type":"node","id":8042375362,"lat":32.0354009,"lon":118.7870635,"tags":{"name":"常府街","name:zh":"常府街","name:zh-Hans":"常府街","name:zh-Hant":"常府街","public_transport":"stop_position","railway":"stop","subway":"yes"}},{"type":"node","id":8042405492,"lat":32.026261,"lon":118.7856414,"tags":{"name":"夫子庙","name:en":"Fuzimiao","name:zh":"夫子庙","name:zh-Hans":"夫子庙","name:zh-Hant":"夫子廟","public_transport":"stop_position","railway":"stop","subway":"yes"}},{"type":"node","id":8042405493,"lat":32.026271,"lon":118.7858414,"tags":{"name":"夫子庙","name:en":"Fuzimiao","name:zh":"夫子庙","name:zh-Hans":"夫子庙","name:zh-Hant":"夫子廟","public_transport":"stop_position","railway":"stop","subway":"yes"}},{"type":"node","id":8042405537,"lat":32.0156423,"lon":118.7892213,"tags":{"name":"武定门","name:en":"Wudingmen","name:zh":"武定门","name:zh-Hans":"武定门","name:zh-Hant":"武定門","public_transport":"stop_position","railway":"stop","subway":"yes"}},{"type":"node","id":8042405538,"lat":32.0156207,"lon":118.7893687,"tags":{"name":"武定门","name:en":"Wudingmen","name:zh":"武定门","name:zh-Hans":"武定门","name:zh-Hant":"武定門","public_transport":"stop_position","railway":"stop","subway":"yes"}},{"type":"node","id":8042405569,"lat":32.005763,"lon":118.7873051,"tags":{"name":"雨花门","name:zh":"雨花门","name:zh-Hans":"雨花门","name:zh-Hant":"雨花門","public_transport":"stop_position","railway":"stop","subway":"yes"}},{"type":"node","id":8042405570,"lat":32.0057811,"lon":118.7874859,"tags":{"name":"雨花门","name:zh":"雨花门","name:zh-Hans":"雨花门","name:zh-Hant":"雨花門","public_transport":"stop_position","railway":"stop","subway":"yes"}},{"type":"node","id":8042405596,"lat":31.9974039,"lon":118.7901634,"tags":{"name":"卡子门","name:zh":"卡子门","name:zh-Hans":"卡子门","name:zh-Hant":"卡子門","public_transport":"stop_position","railway":"stop","subway":"yes"}},{"type":"node","id":8042405597,"lat":31.9974333,"lon":118.7903202,"tags":{"name":"卡子门","name:zh":"卡子门","name:zh-Hans":"卡子门","name:zh-Hant":"卡子門","public_transport":"stop_position","railway":"stop","subway":"yes"}},{"type":"node","id":8042405628,"lat":31.9880478,"lon":118.7948412,"tags":{"name":"大明路","name:zh":"大明路","name:zh-Hans":"大明路","name:zh-Hant":"大明路","public_transport":"stop_position","railway":"stop","subway":"yes"}},{"type":"node","id":8042405629,"lat":31.9881042,"lon":118.7950003,"tags":{"name":"大明路","name:zh":"大明路","name:zh-Hans":"大明路","name:zh-Hant":"大明路","public_transport":"stop_position","railway":"stop","subway":"yes"}},{"type":"node","id":8042405660,"lat":31.9792942,"lon":118.7953512,"tags":{"name":"明发广场","name:zh":"明发广场","name:zh-Hans":"明发广场","name:zh-Hant":"明發廣場","public_transport":"stop_position","railway":"stop","subway":"yes"}},{"type":"node","id":8042405661,"lat":31.9792006,"lon":118.7954661,"tags":{"name":"明发广场","name:zh":"明发广场","name:zh-Hans":"明发广场","name:zh-Hant":"明發廣場","public_transport":"stop_position","railway":"stop","subway":"yes"}},{"type":"node","id":8042405690,"lat":31.97168,"lon":118.7924116,"tags":{"name":"南京南站","public_transport":"stop_position","railway":"stop","subway":"yes"}},{"type":"node","id":8042405691,"lat":31.9717217,"lon":118.7925023,"tags":{"name":"南京南站","public_transport":"stop_position","railway":"stop","subway":"yes"}},{"type":"node","id":8042405709,"lat":31.9610892,"lon":118.7987889,"tags":{"name":"宏运大道","public_transport":"stop_position","railway":"stop","subway":"yes"}},{"type":"node","id":8042405710,"lat":31.9611341,"lon":118.7989149,"tags":{"name":"宏运大道","public_transport":"stop_position","railway":"stop","subway":"yes"}},{"type":"node","id":8042405738,"lat":31.9456855,"lon":118.8021351,"tags":{"name":"胜太西路","public_transport":"stop_position","railway":"stop","subway":"yes"}},{"type":"node","id":8042405739,"lat":31.9456651,"lon":118.8022992,"tags":{"name":"胜太西路","public_transport":"stop_position","railway":"stop","subway":"yes"}},{"type":"node","id":8042405787,"lat":31.9295888,"lon":118.8034757,"tags":{"name":"天元西路","public_transport":"stop_position","railway":"stop","subway":"yes"}},{"type":"node","id":8042405788,"lat":31.9295774,"lon":118.8036119,"tags":{"name":"天元西路","public_transport":"stop_position","railway":"stop","subway":"yes"}},{"type":"node","id":8042405830,"lat":31.9178559,"lon":118.8157589,"tags":{"name":"九龙湖","name:zh-Hans":"九龙湖","name:zh-Hant":"九龍湖","public_transport":"stop_position","railway":"stop","subway":"yes"}},{"type":"node","id":8042405831,"lat":31.9179778,"lon":118.8157174,"tags":{"name":"九龙湖","name:zh-Hans":"九龙湖","name:zh-Hant":"九龍湖","public_transport":"stop_position","railway":"stop","subway":"yes"}},{"type":"node","id":8042405880,"lat":31.9101761,"lon":118.8247217,"tags":{"name":"诚信大道","name:en":"Chengxin­dadao","public_transport":"stop_position","railway":"stop","subway":"yes"}},{"type":"node","id":8042405881,"lat":31.9101715,"lon":118.8248593,"tags":{"name":"诚信大道","name:en":"Chengxin­dadao","public_transport":"stop_position","railway":"stop","subway":"yes"}},{"type":"node","id":8042405906,"lat":31.897977,"lon":118.8251386,"tags":{"name":"东大九龙湖校区","public_transport":"stop_position","railway":"stop","subway":"yes"}},{"type":"node","id":8042405907,"lat":31.8979669,"lon":118.8253185,"tags":{"name":"东大九龙湖校区","public_transport":"stop_position","railway":"stop","subway":"yes"}},{"type":"node","id":8042405947,"lat":31.8710452,"lon":118.8259752,"tags":{"name":"秣周东路","public_transport":"stop_position","railway":"stop","subway":"yes"}},{"type":"node","id":8042405948,"lat":31.8710049,"lon":118.8261559,"tags":{"name":"秣周东路","public_transport":"stop_position","railway":"stop","subway":"yes"}},{"type":"node","id":8044327060,"lat":31.9928933,"lon":118.7568014,"tags":{"name":"安德门","name:en":"Andemen","public_transport":"stop_position","railway":"stop","subway":"yes"}},{"type":"node","id":8044327061,"lat":31.9928733,"lon":118.7569201,"tags":{"name":"安德门","name:en":"Andemen","public_transport":"stop_position","railway":"stop","subway":"yes"}},{"type":"node","id":8044345097,"lat":31.9844826,"lon":118.7394882,"tags":{"name":"小行","public_transport":"stop_position","railway":"stop","subway":"yes"}},{"type":"node","id":8044345132,"lat":31.9899582,"lon":118.7279637,"tags":{"name":"中胜","name:en":"Zhongsheng","name:zh-Hans":"中胜","name:zh-Hant":"中勝","public_transport":"stop_position","railway":"stop","subway":"yes"}},{"type":"node","id":8044345133,"lat":31.9899346,"lon":118.7279405,"tags":{"name":"中胜","name:en":"Zhongsheng","name:zh-Hans":"中胜","name:zh-Hant":"中勝","public_transport":"stop_position","railway":"stop","subway":"yes"}},{"type":"node","id":8044345142,"lat":31.9975343,"lon":118.7161674,"tags":{"name":"元通","public_transport":"stop_position","railway":"stop","subway":"yes"}},{"type":"node","id":8044345143,"lat":31.9975085,"lon":118.716148,"tags":{"name":"元通","public_transport":"stop_position","railway":"stop","subway":"yes"}},{"type":"node","id":8044345171,"lat":32.0112243,"lon":118.7127628,"tags":{"name":"奥体中心","name:zh-Hans":"奥体中心","name:zh-Hant":"奧體中心","public_transport":"stop_position","railway":"stop","subway":"yes"}},{"type":"node","id":8044345172,"lat":32.011233,"lon":118.7127339,"tags":{"name":"奥体中心","name:zh-Hans":"奥体中心","name:zh-Hant":"奧體中心","public_transport":"stop_position","railway":"stop","subway":"yes"}},{"type":"node","id":8044345203,"lat":32.0176664,"lon":118.7167378,"tags":{"name":"梦都大街","public_transport":"stop_position","railway":"stop","subway":"yes"}},{"type":"node","id":8044345204,"lat":32.0177078,"lon":118.7165861,"tags":{"name":"梦都大街","public_transport":"stop_position","railway":"stop","subway":"yes"}},{"type":"node","id":8044345269,"lat":32.0269174,"lon":118.7102931,"tags":{"name":"绿博园","public_transport":"stop_position","railway":"stop","subway":"yes"}},{"type":"node","id":8044345270,"lat":32.0267728,"lon":118.7102368,"tags":{"name":"绿博园","public_transport":"stop_position","railway":"stop","subway":"yes"}},{"type":"node","id":8044345305,"lat":32.0343493,"lon":118.6987407,"tags":{"name":"江心洲","public_transport":"stop_position","railway":"stop","subway":"yes"}},{"type":"node","id":8044345306,"lat":32.0342484,"lon":118.6986656,"tags":{"name":"江心洲","public_transport":"stop_position","railway":"stop","subway":"yes"}},{"type":"node","id":8044345354,"lat":32.0636258,"lon":118.6527763,"tags":{"name":"浦口万汇城","name:zh-Hans":"浦口万汇城","name:zh-Hant":"浦口萬匯城","public_transport":"stop_position","railway":"stop","subway":"yes"}},{"type":"node","id":8044345355,"lat":32.0634985,"lon":118.652713,"tags":{"name":"浦口万汇城","name:zh-Hans":"浦口万汇城","name:zh-Hant":"浦口萬匯城","public_transport":"stop_position","railway":"stop","subway":"yes"}},{"type":"node","id":8044345384,"lat":32.0691136,"lon":118.6430394,"tags":{"name":"南京工业大学","public_transport":"stop_position","railway":"stop","subway":"yes"}},{"type":"node","id":8044345385,"lat":32.0689972,"lon":118.6429389,"tags":{"name":"南京工业大学","public_transport":"stop_position","railway":"stop","subway":"yes"}},{"type":"node","id":8044345418,"lat":32.0669697,"lon":118.6301515,"tags":{"name":"龙华路","public_transport":"stop_position","railway":"stop","subway":"yes"}},{"type":"node","id":8044345419,"lat":32.0668701,"lon":118.6302435,"tags":{"name":"龙华路","public_transport":"stop_position","railway":"stop","subway":"yes"}},{"type":"node","id":8044345440,"lat":32.0595249,"lon":118.6215248,"tags":{"name":"文德路","public_transport":"stop_position","railway":"stop","subway":"yes"}},{"type":"node","id":8044345441,"lat":32.0594414,"lon":118.6216335,"tags":{"name":"文德路","public_transport":"stop_position","railway":"stop","subway":"yes"}},{"type":"node","id":8044345481,"lat":32.0480565,"lon":118.6113874,"tags":{"name":"雨山路","name:en":"Yushanlu","public_transport":"stop_position","railway":"stop","subway":"yes"}},{"type":"node","id":8044345482,"lat":32.0479476,"lon":118.6115298,"tags":{"name":"雨山路","name:en":"Yushanlu","public_transport":"stop_position","railway":"stop","subway":"yes"}},{"type":"node","id":8219856499,"lat":32.0981545,"lon":118.736307,"tags":{"name":"南京西站","name:en":"Nanjingxi Railway Station","public_transport":"stop_position","railway":"stop","subway":"yes"}},{"type":"node","id":8222979626,"lat":32.1476636,"lon":118.8374014,"tags":{"name":"八卦洲大桥南","name:en":"Baguazhoudaqiaonan","name:zh-Hans":"八卦洲大桥南","name:zh-Hant":"八卦洲大橋南","public_transport":"stop_position","railway":"stop","subway":"yes"}},{"type":"node","id":8227318637,"lat":31.9957413,"lon":118.7329103,"tags":{"name":"新城科技园","name:en":"Xinchengkejiyuan","public_transport":"stop_position","railway":"stop","subway":"yes"}},{"type":"node","id":8227318700,"lat":32.1165072,"lon":118.7934699,"tags":{"name":"幕府山","name:en":"Mufushan","public_transport":"stop_position","railway":"stop","subway":"yes"}},{"type":"node","id":8227318769,"lat":32.1220834,"lon":118.8297677,"tags":{"name":"万寿","name:en":"Wanshou","public_transport":"stop_position","railway":"stop","subway":"yes"}},{"type":"node","id":8227318804,"lat":32.1246951,"lon":118.8826749,"tags":{"name":"尧化门","name:en":"Yaohuamen","public_transport":"stop_position","railway":"stop","subway":"yes"}},{"type":"node","id":8228234393,"lat":32.0074318,"lon":118.8371332,"tags":{"name":"高桥门","name:en":"Gaoqiaomen","name:zh":"高桥门","public_transport":"stop_position","railway":"stop","subway":"yes"}},{"type":"node","id":8395929001,"lat":32.1097484,"lon":118.8550018,"tags":{"name":"丁家庄南","name:en":"Dingjiazhuangnan","public_transport":"stop_position","railway":"stop","subway":"yes"}},{"type":"node","id":8395929002,"lat":32.1137119,"lon":118.844867,"tags":{"name":"丁家庄","name:en":"Dingjiazhuang","name:zh-Hans":"丁家庄","name:zh-Hant":"丁家莊","public_transport":"stop_position","railway":"stop","subway":"yes"}},{"type":"node","id":8395950852,"lat":32.1202457,"lon":118.8136354,"tags":{"name":"晓庄","name:en":"Xiaozhuang","network":"南京地铁","public_transport":"stop_position","railway":"stop","subway":"yes"}},{"type":"node","id":8512941133,"lat":31.8090402,"lon":118.5501851,"tags":{"name":"铜井","name:en":"Tongjing","public_transport":"stop_position","subway":"yes"}},{"type":"node","id":9085187395,"lat":31.9239851,"lon":119.1646182,"tags":{"name":"句容","operator":"南京地铁","public_transport":"stop_position","railway":"stop","subway":"yes"}},{"type":"node","id":9085187397,"lat":31.9448645,"lon":119.1732918,"tags":{"name":"崇明","operator":"南京地铁","public_transport":"stop_position","railway":"stop","subway":"yes"}},{"type":"node","id":9085196995,"lat":32.0516337,"lon":118.8897501,"tags":{"name":"马群","name:en":"Maqun","operator":"南京地铁","public_transport":"stop_position","railway":"stop","subway":"yes"}},{"type":"node","id":9085197021,"lat":32.0553028,"lon":118.922524,"tags":{"name":"麒麟门","operator":"南京地铁","public_transport":"stop_position","railway":"stop","subway":"yes"}},{"type":"node","id":9085197070,"lat":32.055562,"lon":118.9096735,"tags":{"name":"百水桥","operator":"南京地铁","public_transport":"stop_position","railway":"stop","subway":"yes"}},{"type":"node","id":9085197108,"lat":32.0539695,"lon":118.9477247,"tags":{"name":"东郊小镇","operator":"南京地铁","public_transport":"stop_position","railway":"stop","subway":"yes"}},{"type":"node","id":9085197180,"lat":32.0634116,"lon":119.0469372,"tags":{"name":"南京猿人洞","operator":"南京地铁","public_transport":"stop_position","railway":"stop","subway":"yes"}},{"type":"node","id":9085197191,"lat":32.0513626,"lon":119.0039371,"tags":{"name":"古泉","operator":"南京地铁","public_transport":"stop_position","railway":"stop","subway":"yes"}},{"type":"node","id":9085197268,"lat":32.0499895,"lon":119.0627814,"tags":{"name":"汤山","operator":"南京地铁","public_transport":"stop_position","railway":"stop","subway":"yes"}},{"type":"node","id":9085197308,"lat":32.0351083,"lon":119.0468484,"tags":{"name":"泉都大街","operator":"南京地铁","public_transport":"stop_position","railway":"stop","subway":"yes"}},{"type":"node","id":9085197390,"lat":32.0099683,"lon":119.11063,"tags":{"name":"黄梅","operator":"南京地铁","public_transport":"stop_position","railway":"stop","subway":"yes"}},{"type":"node","id":9085197391,"lat":32.0100877,"lon":119.1107292,"tags":{"name":"黄梅","operator":"南京地铁","public_transport":"stop_position","railway":"stop","subway":"yes"}},{"type":"node","id":9085197621,"lat":31.993805,"lon":119.1584719,"tags":{"name":"童世界","operator":"南京地铁","public_transport":"stop_position","railway":"stop","subway":"yes"}},{"type":"node","id":9085197794,"lat":31.9744405,"lon":119.1749661,"tags":{"name":"华阳","operator":"南京地铁","public_transport":"stop_position","railway":"stop","subway":"yes"}},{"type":"node","id":9085198216,"lat":31.9239914,"lon":119.1644458,"tags":{"name":"句容","operator":"南京地铁","public_transport":"stop_position","railway":"stop","subway":"yes"}},{"type":"node","id":9085349307,"lat":31.9627704,"lon":118.6960329,"tags":{"name":"螺塘路","name:en":"Luotanglu","public_transport":"stop_position","railway":"stop","station":"subway","subway":"yes"}},{"type":"node","id":9085349312,"lat":31.9643087,"lon":118.6867189,"tags":{"name":"青莲街","name:en":"Qinglainjie","name:zh-Hans":"青莲街","name:zh-Hant":"青蓮街","public_transport":"stop_position","railway":"stop","station":"subway","subway":"yes"}},{"type":"node","id":9085367280,"lat":31.9690087,"lon":118.6646028,"tags":{"name":"鱼嘴","name:en":"Yuzui","name:zh-Hans":"鱼嘴","name:zh-Hant":"魚嘴","public_transport":"stop_position","railway":"stop","station":"subway","subway":"yes"}},{"type":"node","id":9085367287,"lat":31.9678539,"lon":118.674075,"tags":{"name":"天保街","name:en":"Tianbaojie","public_transport":"stop_position","railway":"stop","station":"subway","subway":"yes"}},{"type":"node","id":9163767714,"lat":32.1193786,"lon":118.8146335,"tags":{"name":"晓庄","name:en":"Xiaozhuang","public_transport":"stop_position","railway":"stop","subway":"yes"}},{"type":"node","id":9699928484,"lat":32.0706366,"lon":118.7677095,"tags":{"name":"青春广场","name:en":"Qinchunguangchang","public_transport":"stop_position","railway":"stop","subway":"yes"}},{"type":"node","id":9719626714,"lat":31.6982504,"lon":118.876658,"tags":{"name":"铜山","name:en":"Tongshan","public_transport":"stop_position","railway":"stop","subway":"yes"}},{"type":"node","id":9719658432,"lat":31.3431909,"lon":118.8722241,"tags":{"name":"高淳","name:en":"Gaochun","name:zh":"高淳","name:zh-Hans":"高淳","public_transport":"stop_position","railway":"stop","subway":"yes"}},{"type":"node","id":9719658899,"lat":31.6425171,"lon":118.9024058,"tags":{"name":"石湫","name:en":"Shiqiu","public_transport":"stop_position","railway":"stop","subway":"yes"}},{"type":"node","id":9719785663,"lat":31.39796,"lon":118.8827784,"tags":{"name":"团结圩","name:en":"Tuanjiewei","name:zh":"团结圩","name:zh-Hans":"团结圩","public_transport":"stop_position","railway":"stop","subway":"yes"}},{"type":"node","id":9719785707,"lat":31.5485558,"lon":118.8972905,"tags":{"name":"明觉","name:en":"Mingjue","public_transport":"stop_position","railway":"stop","subway":"yes"}},{"type":"node","id":10064297523,"lat":32.1308635,"lon":118.7247393,"tags":{"name":"长江大桥北","name:en":"Changjiangdaqiaobei","name:zh":"长江大桥北","name:zh-Hans":"长江大桥北","name:zh-Hant":"長江大橋北","public_transport":"stop_position","railway":"stop","subway":"yes"}},{"type":"node","id":10064297524,"lat":32.130818,"lon":118.7245703,"tags":{"name":"长江大桥北","name:en":"Changjiangdaqiaobei","name:zh":"长江大桥北","name:zh-Hans":"长江大桥北","name:zh-Hant":"長江大橋北","public_transport":"stop_position","railway":"stop","subway":"yes"}},{"type":"node","id":10064297527,"lat":32.1366212,"lon":118.7213664,"tags":{"name":"毛纺厂路","name:zh":"毛纺厂路","name:zh-Hans":"毛纺厂路","name:zh-Hant":"毛紡廠路","public_transport":"stop_position","railway":"stop","subway":"yes"}},{"type":"node","id":10064297528,"lat":32.1366962,"lon":118.7214656,"tags":{"name":"毛纺厂路","name:zh":"毛纺厂路","name:zh-Hans":"毛纺厂路","name:zh-Hant":"毛紡廠路","public_transport":"stop_position","railway":"stop","subway":"yes"}},{"type":"node","id":10312389829,"lat":32.1202662,"lon":118.8135275,"tags":{"name":"晓庄","name:en":"Xiaozhuang","network":"南京地铁","public_transport":"stop_position","railway":"stop","subway":"yes"}},{"type":"node","id":10312389870,"lat":32.1477029,"lon":118.8373387,"tags":{"name":"八卦洲大桥南","name:en":"Baguazhoudaqiaonan","name:zh":"八卦洲大桥南","name:zh-Hans":"八卦洲大桥南","name:zh-Hant":"八卦洲大橋南","public_transport":"stop_position","railway":"stop","subway":"yes"}},{"type":"node","id":10553755837,"lat":32.1383061,"lon":118.8168447,"tags":{"name":"燕子矶","name:en":"Yanziji","public_transport":"stop_position","railway":"stop","subway":"yes"}},{"type":"node","id":10553755838,"lat":32.1382559,"lon":118.8167548,"tags":{"name":"燕子矶","name:en":"Yanziji","public_transport":"stop_position","railway":"stop","subway":"yes"}},{"type":"node","id":10553755839,"lat":32.1288584,"lon":118.816401,"tags":{"name":"吉祥庵","name:en":"Jixiang'an","public_transport":"stop_position","railway":"stop","subway":"yes"}},{"type":"node","id":10553755840,"lat":32.1288341,"lon":118.8164836,"tags":{"name":"吉祥庵","name:en":"Jixiang'an","public_transport":"stop_position","railway":"stop","subway":"yes"}},{"type":"node","id":10553755842,"lat":32.1456596,"lon":118.8247035,"tags":{"name":"笆斗山","name:en":"Badoushan","public_transport":"stop_position","railway":"stop","subway":"yes"}},{"type":"node","id":10553755843,"lat":32.1455916,"lon":118.8247291,"tags":{"name":"笆斗山","name:en":"Badoushan","public_transport":"stop_position","railway":"stop","subway":"yes"}},{"type":"node","id":10566749899,"lat":32.1290775,"lon":118.890316,"tags":{"name":"仙新路","name:en":"Xianxinlu","public_transport":"stop_position","railway":"stop","subway":"yes"}},{"type":"node","id":10566749901,"lat":32.1290097,"lon":118.8903536,"tags":{"name":"仙新路","name:en":"Xianxinlu","public_transport":"stop_position","railway":"stop","subway":"yes"}},{"type":"node","id":10566749904,"lat":32.1247512,"lon":118.8826081,"tags":{"name":"尧化门","name:en":"Yaohuamen","public_transport":"stop_position","railway":"stop","subway":"yes"}},{"type":"node","id":10566749907,"lat":32.1175672,"lon":118.870627,"tags":{"name":"尧化新村","name:en":"Yaohuaxincun","public_transport":"stop_position","railway":"stop","subway":"yes"}},{"type":"node","id":10566749908,"lat":32.1174802,"lon":118.8707187,"tags":{"name":"尧化新村","name:en":"Yaohuaxincun","public_transport":"stop_position","railway":"stop","subway":"yes"}},{"type":"node","id":10566785116,"lat":32.1098028,"lon":118.8549286,"tags":{"name":"丁家庄南","name:en":"Dingjiazhuangnan","public_transport":"stop_position","railway":"stop","subway":"yes"}},{"type":"node","id":10566785127,"lat":32.1137747,"lon":118.8449604,"tags":{"name":"丁家庄","name:en":"Dingjiazhuang","name:zh":"丁家庄","name:zh-Hans":"丁家庄","name:zh-Hant":"丁家莊","public_transport":"stop_position","railway":"stop","subway":"yes"}},{"type":"node","id":10566785139,"lat":32.1221602,"lon":118.8297689,"tags":{"name":"万寿","name:en":"Wanshou","public_transport":"stop_position","railway":"stop","subway":"yes"}},{"type":"node","id":10566816510,"lat":32.1194086,"lon":118.81463,"tags":{"name":"晓庄","name:en":"Xiaozhuang","public_transport":"stop_position","railway":"stop","subway":"yes"}},{"type":"node","id":10566816515,"lat":32.1165883,"lon":118.7934444,"tags":{"name":"幕府山","name:en":"Mufushan","public_transport":"stop_position","railway":"stop","subway":"yes"}},{"type":"node","id":10566816523,"lat":32.1122471,"lon":118.7720624,"tags":{"name":"五塘广场","name:en":"Wutangguangchang","public_transport":"stop_position","railway":"stop","subway":"yes"}},{"type":"node","id":10566816528,"lat":32.1063652,"lon":118.7651232,"tags":{"name":"幕府西路","name:en":"Mufuxilu","public_transport":"stop_position","railway":"stop","subway":"yes"}},{"type":"node","id":11465668631,"lat":32.0337577,"lon":118.7520513,"tags":{"name":"大士茶亭","name:en":"Dashichating","public_transport":"stop_position","railway":"stop","subway":"yes"}},{"type":"node","id":11465668635,"lat":32.0394601,"lon":118.7543151,"tags":{"name":"莫愁湖","name:en":"Mochouhu","public_transport":"stop_position","railway":"stop","subway":"yes"}},{"type":"node","id":11465668646,"lat":32.0503867,"lon":118.754637,"tags":{"name":"清凉山","name:en":"Qingliangshan","public_transport":"stop_position","railway":"stop","subway":"yes"}},{"type":"node","id":11465668652,"lat":32.0627577,"lon":118.7503937,"tags":{"name":"草场门·南艺·二师","name:en":"Caochangmen - NUA - JSSNU","public_transport":"stop_position","railway":"stop","subway":"yes"}},{"type":"node","id":11511302599,"lat":32.0185938,"lon":118.7439578,"tags":{"name":"应天大街","name:en":"Yingtiandajie","public_transport":"stop_position","railway":"stop","subway":"yes"}},{"type":"node","id":11511302600,"lat":32.0185375,"lon":118.744071,"tags":{"name":"应天大街","name:en":"Yingtiandajie","public_transport":"stop_position","railway":"stop","subway":"yes"}},{"type":"node","id":11511311815,"lat":31.9958056,"lon":118.732803,"tags":{"name":"新城科技园","name:en":"Xinchengkejiyuan","public_transport":"stop_position","railway":"stop","subway":"yes"}},{"type":"node","id":11511311816,"lat":31.9899984,"lon":118.7278701,"tags":{"name":"中胜","name:en":"Zhongsheng","name:zh-Hans":"中胜","name:zh-Hant":"中勝","public_transport":"stop_position","railway":"stop","subway":"yes"}},{"type":"node","id":11511311817,"lat":31.9900852,"lon":118.7277431,"tags":{"name":"中胜","name:en":"Zhongsheng","name:zh-Hans":"中胜","name:zh-Hant":"中勝","public_transport":"stop_position","railway":"stop","subway":"yes"}},{"type":"node","id":11511333766,"lat":32.0059758,"lon":118.741056,"tags":{"name":"梦都大街东","name:en":"Mengdudajiedong","public_transport":"stop_position","railway":"stop","subway":"yes"}},{"type":"node","id":11511333767,"lat":32.0059245,"lon":118.7411714,"tags":{"name":"梦都大街东","name:en":"Mengdudajiedong","public_transport":"stop_position","railway":"stop","subway":"yes"}},{"type":"node","id":11511348407,"lat":31.968756,"lon":118.697966,"tags":{"name":"太清路","name:en":"Taiqinglu","public_transport":"stop_position","railway":"stop","subway":"yes"}},{"type":"node","id":11511348408,"lat":31.9687317,"lon":118.6980899,"tags":{"name":"太清路","name:en":"Taiqinglu","public_transport":"stop_position","railway":"stop","subway":"yes"}},{"type":"node","id":11511348409,"lat":31.9637391,"lon":118.696519,"tags":{"name":"螺塘路","name:en":"Luotanglu","public_transport":"stop_position","railway":"stop","subway":"yes"}},{"type":"node","id":11511348411,"lat":31.948913,"lon":118.6857268,"tags":{"name":"西善桥","name:en":"Xishanqiao","public_transport":"stop_position","railway":"stop","subway":"yes"}},{"type":"node","id":11511348412,"lat":31.9490113,"lon":118.6856782,"tags":{"name":"西善桥","name:en":"Xishanqiao","public_transport":"stop_position","railway":"stop","subway":"yes"}},{"type":"node","id":11511349162,"lat":31.9841332,"lon":118.7226897,"tags":{"name":"嘉陵江东街","name:en":"Jialingjiangdongjie","public_transport":"stop_position","railway":"stop","subway":"yes"}},{"type":"node","id":11511349163,"lat":31.9842107,"lon":118.7225621,"tags":{"name":"嘉陵江东街","name:en":"Jialingjiangdongjie","public_transport":"stop_position","railway":"stop","subway":"yes"}},{"type":"node","id":11511349164,"lat":31.9772472,"lon":118.707887,"tags":{"name":"永初路","name:en":"Yongchulu","public_transport":"stop_position","railway":"stop","subway":"yes"}},{"type":"node","id":11511349165,"lat":31.9772001,"lon":118.7079944,"tags":{"name":"永初路","name:en":"Yongchulu","public_transport":"stop_position","railway":"stop","subway":"yes"}},{"type":"node","id":11774761616,"lat":31.8950712,"lon":118.8047832,"tags":{"name":"九龙湖南","name:en":"Jiulonghunan","public_transport":"stop_position","railway":"stop","subway":"yes"}},{"type":"node","id":11774761617,"lat":31.8950198,"lon":118.804786,"tags":{"name":"九龙湖南","name:en":"Jiulonghunan","public_transport":"stop_position","railway":"stop","subway":"yes"}},{"type":"node","id":11774794812,"lat":31.888011,"lon":118.7898088,"tags":{"name":"吉印大道","name:en":"Jiyindadao","public_transport":"stop_position","railway":"stop","subway":"yes"}},{"type":"node","id":11774794813,"lat":31.8879276,"lon":118.7899262,"tags":{"name":"吉印大道","name:en":"Jiyindadao","public_transport":"stop_position","railway":"stop","subway":"yes"}},{"type":"node","id":11774794814,"lat":31.9113658,"lon":118.8264282,"tags":{"name":"诚信大道","name:en":"Chengxin­dadao","public_transport":"stop_position","railway":"stop","subway":"yes"}},{"type":"node","id":11774794815,"lat":31.9114696,"lon":118.826428,"tags":{"name":"诚信大道","name:en":"Chengxin­dadao","public_transport":"stop_position","railway":"stop","subway":"yes"}},{"type":"node","id":11775093288,"lat":31.9604095,"lon":118.8365567,"tags":{"name":"文靖路","name:en":"Wenjinglu","public_transport":"stop_position","railway":"stop","subway":"yes"}},{"type":"node","id":11775093289,"lat":31.9604529,"lon":118.8367003,"tags":{"name":"文靖路","name:en":"Wenjinglu","public_transport":"stop_position","railway":"stop","subway":"yes"}},{"type":"node","id":11775093290,"lat":31.9556031,"lon":118.8385634,"tags":{"name":"东山","name:en":"Dongshan","public_transport":"stop_position","railway":"stop","subway":"yes"}},{"type":"node","id":11775093291,"lat":31.9556269,"lon":118.8386811,"tags":{"name":"东山","name:en":"Dongshan","public_transport":"stop_position","railway":"stop","subway":"yes"}},{"type":"node","id":11775093292,"lat":31.9445028,"lon":118.8403941,"tags":{"name":"新亭路","name:en":"Xintinglu","public_transport":"stop_position","railway":"stop","subway":"yes"}},{"type":"node","id":11775093293,"lat":31.9444994,"lon":118.8405264,"tags":{"name":"新亭路","name:en":"Xintinglu","public_transport":"stop_position","railway":"stop","subway":"yes"}},{"type":"node","id":11775093294,"lat":31.9335955,"lon":118.8405625,"tags":{"name":"竹山路","name:en":"Zhushanlu","public_transport":"stop_position","railway":"stop","subway":"yes"}},{"type":"node","id":11775093295,"lat":31.9335956,"lon":118.8406865,"tags":{"name":"竹山路","name:en":"Zhushanlu","public_transport":"stop_position","railway":"stop","subway":"yes"}},{"type":"node","id":11775143006,"lat":31.9263592,"lon":118.8442902,"tags":{"name":"科宁路","name:en":"Keninglu","public_transport":"stop_position","railway":"stop","subway":"yes"}},{"type":"node","id":11775143007,"lat":31.9263834,"lon":118.8443473,"tags":{"name":"科宁路","name:en":"Keninglu","public_transport":"stop_position","railway":"stop","subway":"yes"}},{"type":"node","id":11775143008,"lat":31.9123856,"lon":118.8388053,"tags":{"name":"前庄","name:en":"Qianzhuang","public_transport":"stop_position","railway":"stop","subway":"yes"}},{"type":"node","id":11775143009,"lat":31.9125102,"lon":118.8387735,"tags":{"name":"前庄","name:en":"Qianzhuang","public_transport":"stop_position","railway":"stop","subway":"yes"}},{"type":"node","id":11775180447,"lat":32.0006267,"lon":118.8175262,"tags":{"name":"大校场","name:en":"Dajiaochang","public_transport":"stop_position","railway":"stop","subway":"yes"}},{"type":"node","id":11775221114,"lat":32.0440834,"lon":118.7708463,"tags":{"name":"上海路","name:en":"Shanghailu","public_transport":"stop_position","railway":"stop","subway":"yes"}},{"type":"node","id":11775221115,"lat":32.0440684,"lon":118.7709009,"tags":{"name":"上海路","name:en":"Shanghailu","public_transport":"stop_position","railway":"stop","subway":"yes"}},{"type":"node","id":12461754368,"lat":32.0257812,"lon":118.7490551,"tags":{"name":"南湖","name:en":"Nanhu","public_transport":"stop_position","railway":"stop","subway":"yes"}},{"type":"node","id":12461754369,"lat":32.0258062,"lon":118.7489934,"tags":{"name":"南湖","name:en":"Nanhu","public_transport":"stop_position","railway":"stop","subway":"yes"}},{"type":"node","id":12462545487,"lat":32.073125,"lon":118.7526844,"tags":{"name":"古平岗","name:en":"Gupinggang","public_transport":"stop_position","railway":"stop","subway":"yes"}},{"type":"node","id":12462545488,"lat":32.0731277,"lon":118.7527886,"tags":{"name":"古平岗","name:en":"Gupinggang","public_transport":"stop_position","railway":"stop","subway":"yes"}},{"type":"node","id":12462545490,"lat":32.0821024,"lon":118.7543007,"tags":{"name":"福建路","name:en":"Fujianlu","public_transport":"stop_position","railway":"stop","subway":"yes"}},{"type":"node","id":12462545491,"lat":32.0821507,"lon":118.7542352,"tags":{"name":"福建路","name:en":"Fujianlu","public_transport":"stop_position","railway":"stop","subway":"yes"}},{"type":"node","id":12462545493,"lat":32.0932496,"lon":118.7664018,"tags":{"name":"钟阜路","name:en":"Zhongfulu","public_transport":"stop_position","railway":"stop","subway":"yes"}},{"type":"node","id":12462545494,"lat":32.0932341,"lon":118.7664756,"tags":{"name":"钟阜路","name:en":"Zhongfulu","public_transport":"stop_position","railway":"stop","subway":"yes"}},{"type":"node","id":13057948203,"lat":32.0619487,"lon":118.76937,"tags":{"name":"云南路","name:en":"Yunnanlu","public_transport":"stop_position","railway":"stop","subway":"yes"}},{"type":"node","id":13057948204,"lat":32.0619508,"lon":118.7692518,"tags":{"name":"云南路","name:en":"Yunnanlu","public_transport":"stop_position","railway":"stop","subway":"yes"}},{"type":"node","id":13057948206,"lat":32.0772536,"lon":118.7600075,"tags":{"name":"虹桥","name:en":"Hongqiao","public_transport":"stop_position","railway":"stop","subway":"yes"}},{"type":"node","id":13057948207,"lat":32.0771763,"lon":118.7599237,"tags":{"name":"虹桥","name:en":"Hongqiao","public_transport":"stop_position","railway":"stop","subway":"yes"}},{"type":"node","id":13057948209,"lat":32.0705707,"lon":118.7676386,"tags":{"name":"青春广场","name:en":"Qinchunguangchang","public_transport":"stop_position","railway":"stop","subway":"yes"}},{"type":"node","id":13057948210,"lat":32.0822511,"lon":118.7544268,"tags":{"name":"福建路","name:en":"Fujianlu","public_transport":"stop_position","railway":"stop","subway":"yes"}},{"type":"node","id":13057948211,"lat":32.0821811,"lon":118.7543284,"tags":{"name":"福建路","name:en":"Fujianlu","public_transport":"stop_position","railway":"stop","subway":"yes"}},{"type":"node","id":13057948213,"lat":31.973825,"lon":118.8343149,"tags":{"name":"东山香樟园","name:en":"Dongshanxiangzhangyuan","public_transport":"stop_position","railway":"stop","subway":"yes"}},{"type":"node","id":13057948214,"lat":31.9738328,"lon":118.8341767,"tags":{"name":"东山香樟园","name:en":"Dongshanxiangzhangyuan","public_transport":"stop_position","railway":"stop","subway":"yes"}},{"type":"node","id":13057948215,"lat":31.9917549,"lon":118.8196935,"tags":{"name":"神机营","name:en":"Shenjiying","public_transport":"stop_position","railway":"stop","subway":"yes"}},{"type":"node","id":13057948216,"lat":31.9916967,"lon":118.8195815,"tags":{"name":"神机营","name:en":"Shenjiying","public_transport":"stop_position","railway":"stop","subway":"yes"}},{"type":"node","id":13057948218,"lat":32.1064242,"lon":118.7423168,"tags":{"name":"方家营","name:en":"Fangjiaying","public_transport":"stop_position","railway":"stop","subway":"yes"}},{"type":"node","id":13057948219,"lat":32.1064875,"lon":118.742213,"tags":{"name":"方家营","name:en":"Fangjiaying","public_transport":"stop_position","railway":"stop","subway":"yes"}},{"type":"node","id":13059454864,"lat":32.0005101,"lon":118.817748,"tags":{"name":"大校场","name:en":"Dajiaochang","public_transport":"stop_position","railway":"stop","subway":"yes"}},{"type":"node","id":13059454866,"lat":32.0109139,"lon":118.8202604,"tags":{"name":"七桥瓮","name:en":"Qiqiaoweng","public_transport":"stop_position","railway":"stop","subway":"yes"}},{"type":"node","id":13059454867,"lat":32.0109127,"lon":118.8201649,"tags":{"name":"七桥瓮","name:en":"Qiqiaoweng","public_transport":"stop_position","railway":"stop","subway":"yes"}},{"type":"node","id":13059454869,"lat":32.0982012,"lon":118.736263,"tags":{"name":"南京西站","name:en":"Nanjingxi Railway Station","public_transport":"stop_position","railway":"stop","subway":"yes"}},{"type":"node","id":13059454871,"lat":32.0940635,"lon":118.7328788,"tags":{"name":"静海寺","name:en":"Jinghaisi","public_transport":"stop_position","railway":"stop","subway":"yes"}},{"type":"node","id":13059454872,"lat":32.0940684,"lon":118.7328092,"tags":{"name":"静海寺","name:en":"Jinghaisi","public_transport":"stop_position","railway":"stop","subway":"yes"}},{"type":"node","id":13059454874,"lat":32.08766,"lon":118.7475831,"tags":{"name":"盐仓桥","name:en":"Yancangqiao","public_transport":"stop_position","railway":"stop","subway":"yes"}},{"type":"node","id":13059454875,"lat":32.0876113,"lon":118.7475584,"tags":{"name":"盐仓桥","name:en":"Yancangqiao","public_transport":"stop_position","railway":"stop","subway":"yes"}},{"type":"node","id":13059454877,"lat":32.0888691,"lon":118.7364822,"tags":{"name":"下关","name:en":"Xiaguan","public_transport":"stop_position","railway":"stop","subway":"yes"}},{"type":"node","id":13059454878,"lat":32.0889078,"lon":118.7364964,"tags":{"name":"下关","name:en":"Xiaguan","public_transport":"stop_position","railway":"stop","subway":"yes"}},{"type":"node","id":13059514803,"lat":32.0255762,"lon":118.8096801,"tags":{"name":"光华门","name:en":"Guanghuamen","public_transport":"stop_position","railway":"stop","subway":"yes"}},{"type":"node","id":13059514804,"lat":32.0256391,"lon":118.8096848,"tags":{"name":"光华门","name:en":"Guanghuamen","public_transport":"stop_position","railway":"stop","subway":"yes"}},{"type":"node","id":13059514806,"lat":32.0195818,"lon":118.8196068,"tags":{"name":"石门坎","name:en":"Shimenkan","public_transport":"stop_position","railway":"stop","subway":"yes"}},{"type":"node","id":13059514807,"lat":32.0195794,"lon":118.8196775,"tags":{"name":"石门坎","name:en":"Shimenkan","public_transport":"stop_position","railway":"stop","subway":"yes"}},{"type":"node","id":13059514809,"lat":32.0277722,"lon":118.7993357,"tags":{"name":"通济门","name:en":"Tongjimen","public_transport":"stop_position","railway":"stop","subway":"yes"}},{"type":"node","id":13059514810,"lat":32.0276935,"lon":118.7993147,"tags":{"name":"通济门","name:en":"Tongjimen","public_transport":"stop_position","railway":"stop","subway":"yes"}},{"type":"node","id":13059514812,"lat":32.0255981,"lon":118.7858117,"tags":{"name":"夫子庙","name:en":"Fuzimiao","name:zh":"夫子庙","name:zh-Hans":"夫子庙","name:zh-Hant":"夫子廟","public_transport":"stop_position","railway":"stop","subway":"yes"}},{"type":"node","id":13059514813,"lat":32.0255105,"lon":118.7858288,"tags":{"name":"夫子庙","name:en":"Fuzimiao","name:zh":"夫子庙","name:zh-Hans":"夫子庙","name:zh-Hant":"夫子廟","public_transport":"stop_position","railway":"stop","subway":"yes"}},{"type":"node","id":13059514814,"lat":32.0256304,"lon":118.7778896,"tags":{"name":"三山街","name:en":"Sanshanjie","public_transport":"stop_position","railway":"stop","subway":"yes"}},{"type":"node","id":13059514815,"lat":32.025542,"lon":118.7778507,"tags":{"name":"三山街","name:en":"Sanshanjie","public_transport":"stop_position","railway":"stop","subway":"yes"}},{"type":"node","id":13059514816,"lat":32.0346908,"lon":118.7674767,"tags":{"name":"朝天宫","name:en":"Chaotiangong","public_transport":"stop_position","railway":"stop","subway":"yes"}},{"type":"node","id":13059514817,"lat":32.034727,"lon":118.7673887,"tags":{"name":"朝天宫","name:en":"Chaotiangong","public_transport":"stop_position","railway":"stop","subway":"yes"}},{"type":"node","id":13059514819,"lat":32.0522091,"lon":118.7712879,"tags":{"name":"五台山","name:en":"Wutaishan","public_transport":"stop_position","railway":"stop","subway":"yes"}},{"type":"node","id":13059514820,"lat":32.0522285,"lon":118.7713314,"tags":{"name":"五台山","name:en":"Wutaishan","public_transport":"stop_position","railway":"stop","subway":"yes"}},{"type":"node","id":13387798997,"lat":31.8521123,"lon":118.8312241,"tags":{"name":"上秦淮西","name:en":"Shangqinhuaixi","public_transport":"stop_position","railway":"stop","subway":"yes"}},{"type":"node","id":13387798998,"lat":31.8520981,"lon":118.8313914,"tags":{"name":"上秦淮西","name:en":"Shangqinhuaixi","name:zh":"上秦淮西","public_transport":"stop_position","railway":"stop","subway":"yes"}},{"type":"node","id":13387799000,"lat":31.8432368,"lon":118.8298757,"tags":{"name":"秣陵","name:en":"Moling","public_transport":"stop_position","railway":"stop","subway":"yes"}},{"type":"node","id":13387803601,"lat":31.8431982,"lon":118.8301448,"tags":{"name":"秣陵","name:en":"Moling","public_transport":"stop_position","railway":"stop","subway":"yes"}},{"type":"node","id":13388329380,"lat":32.0074832,"lon":118.8370777,"tags":{"name":"高桥门","name:en":"Gaoqiaomen","name:zh":"高桥门","public_transport":"stop_position","railway":"stop","subway":"yes"}},{"type":"node","id":13388500475,"lat":31.5600938,"lon":118.5194069,"tags":{"name":"姑孰","name:en":"Gushu","public_transport":"stop_position","subway":"yes"}},{"type":"node","id":13388500476,"lat":31.5270531,"lon":118.5101974,"tags":{"name":"太白","name:en":"Taibai","public_transport":"stop_position","subway":"yes"}},{"type":"node","id":13388500478,"lat":31.6522045,"lon":118.5183815,"tags":{"name":"阳湖","name:en":"Yanghu","public_transport":"stop_position","subway":"yes"}},{"type":"node","id":13388500479,"lat":31.6732813,"lon":118.5183743,"tags":{"name":"雨山东路","name:en":"Yushandonglu","public_transport":"stop_position","subway":"yes"}},{"type":"node","id":13388500480,"lat":31.6839117,"lon":118.518423,"tags":{"name":"湖南路・安工大","name:en":"Hunanlu / Angongda","public_transport":"stop_position","subway":"yes"}},{"type":"node","id":13388500481,"lat":31.7019186,"lon":118.518385,"tags":{"name":"湖北路・二中","name:en":"Hubeilu / Erzhong","public_transport":"stop_position","subway":"yes"}},{"type":"node","id":13388500482,"lat":31.753447,"lon":118.5177503,"tags":{"name":"慈湖高新区","name:en":"Cihugaoxinqu","public_transport":"stop_position","subway":"yes"}},{"type":"node","id":13391860591,"lat":32.0016324,"lon":118.8837971,"tags":{"name":"东麒路","name:en":"Dongqilu","name:zh":"东麒路","public_transport":"stop_position","railway":"stop","subway":"yes"}},{"type":"node","id":13391860592,"lat":32.0015265,"lon":118.8837479,"tags":{"name":"东麒路","name:en":"Dongqilu","name:zh":"东麒路","public_transport":"stop_position","railway":"stop","subway":"yes"}},{"type":"node","id":13391860593,"lat":32.0075324,"lon":118.8691692,"tags":{"name":"石杨路","name:en":"Shiyanglu","name:zh":"石杨路","public_transport":"stop_position","railway":"stop","subway":"yes"}},{"type":"node","id":13391860594,"lat":32.0074191,"lon":118.8691385,"tags":{"name":"石杨路","name:en":"Shiyanglu","name:zh":"石杨路","public_transport":"stop_position","railway":"stop","subway":"yes"}},{"type":"node","id":13391860595,"lat":32.0088948,"lon":118.8576809,"tags":{"name":"杨庄","name:en":"Yangzhuang","name:zh":"杨庄","public_transport":"stop_position","railway":"stop","subway":"yes"}},{"type":"node","id":13391860596,"lat":32.0087821,"lon":118.8576477,"tags":{"name":"杨庄","name:en":"Yangzhuang","name:zh":"杨庄","public_transport":"stop_position","railway":"stop","subway":"yes"}},{"type":"node","id":13391860597,"lat":32.0032641,"lon":118.823797,"tags":{"name":"承天大道","name:en":"Chengtiandadao","name:zh":"承天大道","public_transport":"stop_position","railway":"stop","subway":"yes"}},{"type":"node","id":13391860598,"lat":32.0033583,"lon":118.8237184,"tags":{"name":"承天大道","name:en":"Chengtiandadao","name:zh":"承天大道","public_transport":"stop_position","railway":"stop","subway":"yes"}},{"type":"node","id":13391860599,"lat":32.0000772,"lon":118.8183792,"tags":{"name":"大校场","name:en":"Dajiaochang","network":"南京地铁","public_transport":"stop_position","railway":"stop","subway":"yes"}},{"type":"node","id":13391860600,"lat":32.000148,"lon":118.8183093,"tags":{"name":"大校场","name:en":"Dajiaochang","network":"南京地铁","public_transport":"stop_position","railway":"stop","subway":"yes"}},{"type":"node","id":13392038401,"lat":31.9942726,"lon":118.8086404,"tags":{"name":"机场跑道旧址","name:en":"Jichangpaodaojiuzhi","name:zh":"机场跑道旧址","public_transport":"stop_position","railway":"stop","subway":"yes"}},{"type":"node","id":13392038402,"lat":31.9943277,"lon":118.808594,"tags":{"name":"机场跑道旧址","name:en":"Jichangpaodaojiuzhi","name:zh":"机场跑道旧址","public_transport":"stop_position","railway":"stop","subway":"yes"}},{"type":"node","id":13392038403,"lat":31.9967834,"lon":118.7912188,"tags":{"name":"卡子门","name:en":"Kazimen","name:zh":"卡子门","name:zh-Hans":"卡子门","name:zh-Hant":"卡子門","public_transport":"stop_position","railway":"stop","subway":"yes"}},{"type":"node","id":13392038404,"lat":31.9969349,"lon":118.7912273,"tags":{"name":"卡子门","name:en":"Kazimen","name:zh":"卡子门","name:zh-Hans":"卡子门","name:zh-Hant":"卡子門","public_transport":"stop_position","railway":"stop","subway":"yes"}},{"type":"node","id":13392038405,"lat":31.99471,"lon":118.775925,"tags":{"name":"雨花台","name:en":"Yuhuatai","name:zh":"雨花台","public_transport":"stop_position","railway":"stop","subway":"yes"}},{"type":"node","id":13392038406,"lat":31.9948297,"lon":118.7759215,"tags":{"name":"雨花台","name:en":"Yuhuatai","name:zh":"雨花台","public_transport":"stop_position","railway":"stop","subway":"yes"}},{"type":"node","id":13392038407,"lat":31.9955509,"lon":118.7688902,"tags":{"name":"共青团路","name:en":"Gongqingtuanlu","name:zh":"共青团路","public_transport":"stop_position","railway":"stop","subway":"yes"}},{"type":"node","id":13392038408,"lat":31.9956539,"lon":118.7689228,"tags":{"name":"共青团路","name:en":"Gongqingtuanlu","name:zh":"共青团路","public_transport":"stop_position","railway":"stop","subway":"yes"}},{"type":"node","id":13397732223,"lat":31.9732839,"lon":118.7924231,"tags":{"name":"南京南站","name:en":"Nanjing South Railway Station","name:zh-Latn-pinyin":"Nánjīng Nán Zhàn","public_transport":"stop_position","railway":"stop","station":"subway","subway":"yes"}},{"type":"node","id":13397732233,"lat":31.9644582,"lon":118.773443,"tags":{"name":"景明佳园","name:en":"Jingmingjiayuan","public_transport":"stop_position","railway":"stop","subway":"yes"}},{"type":"node","id":13397732250,"lat":31.9642679,"lon":118.7426501,"tags":{"name":"春江路","name:en":"Chunjianglu","public_transport":"stop_position","railway":"stop","subway":"yes"}},{"type":"node","id":13397732259,"lat":31.9613226,"lon":118.729027,"tags":{"name":"贾西","name:en":"Jiaxi","public_transport":"stop_position","railway":"stop","subway":"yes"}},{"type":"node","id":13397732270,"lat":31.96783,"lon":118.7143121,"tags":{"name":"油坊桥","name:en":"Youfangqiao","name:zh-Hans":"油坊桥","name:zh-Hant":"油坊橋","public_transport":"stop_position","railway":"stop","subway":"yes"}},{"type":"node","id":13397732272,"lat":31.9761824,"lon":118.7070983,"tags":{"name":"永初路","name:en":"Yongchulu","public_transport":"stop_position","railway":"stop","subway":"yes"}},{"type":"node","id":13397732279,"lat":31.9797141,"lon":118.6974093,"tags":{"name":"平良大街","name:en":"Pingliangdajie","public_transport":"stop_position","railway":"stop","subway":"yes"}},{"type":"node","id":13397737005,"lat":31.9731855,"lon":118.7924888,"tags":{"name":"南京南站","name:en":"Nanjing South Railway Station","name:zh-Latn-pinyin":"Nánjīng Nán Zhàn","public_transport":"stop_position","railway":"stop","station":"subway","subway":"yes"}},{"type":"node","id":13397737015,"lat":31.9643856,"lon":118.7734849,"tags":{"name":"景明佳园","name:en":"Jingmingjiayuan","public_transport":"stop_position","railway":"stop","subway":"yes"}},{"type":"node","id":13397737023,"lat":31.9664851,"lon":118.75904,"tags":{"name":"铁心桥","name:en":"Tiexinqiao","name:zh-Hans":"铁心桥","name:zh-Hant":"鐵心橋","public_transport":"stop_position","railway":"stop","subway":"yes"}},{"type":"node","id":13397737033,"lat":31.9641873,"lon":118.7426572,"tags":{"name":"春江路","name:en":"Chunjianglu","public_transport":"stop_position","railway":"stop","subway":"yes"}},{"type":"node","id":13397737042,"lat":31.9612425,"lon":118.7290135,"tags":{"name":"贾西","name:en":"Jiaxi","public_transport":"stop_position","railway":"stop","subway":"yes"}},{"type":"node","id":13397737053,"lat":31.9677821,"lon":118.7142354,"tags":{"name":"油坊桥","name:en":"Youfangqiao","name:zh-Hans":"油坊桥","name:zh-Hant":"油坊橋","public_transport":"stop_position","railway":"stop","subway":"yes"}},{"type":"node","id":13397737055,"lat":31.9761353,"lon":118.7070209,"tags":{"name":"永初路","name:en":"Yongchulu","public_transport":"stop_position","railway":"stop","subway":"yes"}},{"type":"node","id":13397737062,"lat":31.9796425,"lon":118.6974534,"tags":{"name":"平良大街","name:en":"Pingliangdajie","public_transport":"stop_position","railway":"stop","subway":"yes"}},{"type":"node","id":13397737067,"lat":31.9773987,"lon":118.6881788,"tags":{"name":"吴侯街","name:en":"Wuhoujie","public_transport":"stop_position","railway":"stop","subway":"yes"}},{"type":"node","id":13397737075,"lat":31.9708599,"lon":118.6833155,"tags":{"name":"高庙路","name:en":"Gaomiaolu","public_transport":"stop_position","railway":"stop","subway":"yes"}},{"type":"node","id":13397737086,"lat":31.9552193,"lon":118.6722662,"tags":{"name":"天保","name:en":"Tianbao","public_transport":"stop_position","railway":"stop","subway":"yes"}},{"type":"node","id":13505925750,"lat":31.847209,"lon":118.8007192,"tags":{"name":"正方中路","name:en":"Zhengfang­zhonglu","public_transport":"stop_position","railway":"stop","subway":"yes"}},{"type":"node","id":13505925796,"lat":31.79336,"lon":118.8165569,"tags":{"name":"翔宇路北","name:en":"Xiangyulubei","public_transport":"stop_position","railway":"stop","subway":"yes"}},{"type":"node","id":13505925847,"lat":31.8884516,"lon":118.7902982,"tags":{"name":"吉印大道","name:en":"Jiyindadao","public_transport":"stop_position","railway":"stop","subway":"yes"}},{"type":"node","id":13505925868,"lat":31.9158187,"lon":118.7864816,"tags":{"name":"河海大学·佛城西路","name:en":"Hohai University / Fochengxilu","public_transport":"stop_position","railway":"stop","subway":"yes"}},{"type":"node","id":13505925877,"lat":31.9446661,"lon":118.7796372,"tags":{"name":"翠屏山","name:en":"Cuipingshan","public_transport":"stop_position","railway":"stop","subway":"yes"}},{"type":"node","id":13505925913,"lat":31.97323,"lon":118.7921018,"tags":{"name":"南京南站","name:en":"Nanjing South Railway Station","name:zh-Latn-pinyin":"Nánjīng Nán Zhàn","public_transport":"stop_position","railway":"stop","station":"subway","subway":"yes"}},{"type":"node","id":13767169203,"lat":31.8928424,"lon":118.618472,"tags":{"name":"板桥南","name:en":"Banqiaonan","public_transport":"stop_position","subway":"yes"}},{"type":"node","id":13767169204,"lat":31.9491436,"lon":118.6856037,"tags":{"name":"西善桥","name:en":"Xishanqiao","public_transport":"stop_position","railway":"stop","subway":"yes"}},{"type":"node","id":13767169205,"lat":31.9296573,"lon":118.661412,"tags":{"name":"雨花经济开发区","name:en":"Yuhua Jingji Development Zone","public_transport":"stop_position","subway":"yes"}},{"type":"node","id":13767169206,"lat":31.9097282,"lon":118.6354551,"tags":{"name":"板桥","name:en":"Banqiao","public_transport":"stop_position","subway":"yes"}},{"type":"node","id":13770664543,"lat":31.6282057,"lon":118.5179157,"tags":{"name":"马鞍山经开区","name:en":"Ma'anshanjingkaiqu","public_transport":"stop_position","subway":"yes"}},{"type":"node","id":13770664544,"lat":31.8422295,"lon":118.5733592,"tags":{"name":"牧龙","name:en":"Mulong","public_transport":"stop_position","subway":"yes"}},{"type":"node","id":13770664554,"lat":31.9296834,"lon":118.6613452,"tags":{"name":"雨花经济开发区","name:en":"Yuhua Jingji Development Zone","public_transport":"stop_position","subway":"yes"}},