{"elements":[{"type":"node","id":486769924,"lat":42.8808255,"lon":-78.8759834,"tags":{"light_rail":"yes","name":"Seneca","network:wikidata":"Q15114900","operator:wikidata":"Q15114900","public_transport":"stop_position","railway":"stop","wikidata":"Q7450267"}},{"type":"node","id":5844253030,"lat":42.8816663,"lon":-78.8756583,"tags":{"light_rail":"yes","name":"Seneca","network:wikidata":"Q15114900","operator:wikidata":"Q15114900","public_transport":"stop_position","railway":"stop","wikidata":"Q7450267"}},{"type":"node","id":7768180667,"lat":42.8869783,"lon":-78.8739409,"tags":{"light_rail":"yes","name":"Lafayette Square","network:wikidata":"Q15114900","operator":"Niagara Frontier Transportation Authority","operator:wikidata":"Q15114900","public_transport":"stop_position","railway":"stop","wikidata":"Q6471526"}},{"type":"node","id":7768180668,"lat":42.8862581,"lon":-78.8742305,"tags":{"light_rail":"yes","name":"Lafayette Square","network:wikidata":"Q15114900","operator":"Niagara Frontier Transportation Authority","operator:wikidata":"Q15114900","public_transport":"stop_position","railway":"stop","wikidata":"Q6471526"}},{"type":"node","id":7768180669,"lat":42.8834232,"lon":-78.8751511,"tags":{"light_rail":"yes","name":"Church","network:wikidata":"Q15114900","operator":"Niagara Frontier Transportation Authority","operator:wikidata":"Q15114900","public_transport":"stop_position","railway":"stop","wikidata":"Q5116538"}},{"type":"node","id":7768180670,"lat":42.8841751,"lon":-78.8748514,"tags":{"light_rail":"yes","name":"Church","network:wikidata":"Q15114900","operator":"Niagara Frontier Transportation Authority","operator:wikidata":"Q15114900","public_transport":"stop_position","railway":"stop","wikidata":"Q5116538"}},{"type":"node","id":7768180671,"lat":42.878133,"lon":-78.8768704,"tags":{"light_rail":"yes","name":"Canalside","network:wikidata":"Q15114900","operator":"Niagara Frontier Transportation Authority","operator:wikidata":"Q15114900","public_transport":"stop_position","railway":"stop","wikidata":"Q5388277"}},{"type":"node","id":7768180672,"lat":42.878124,"lon":-78.8768192,"tags":{"light_rail":"yes","name":"Canalside","network:wikidata":"Q15114900","operator":"Niagara Frontier Transportation Authority","operator:wikidata":"Q15114900","public_transport":"stop_position","railway":"stop","wikidata":"Q5388277"}},{"type":"node","id":7768216387,"lat":42.8890239,"lon":-78.8733348,"tags":{"light_rail":"yes","name":"Fountain Plaza","network":"NFTA","network:wikidata":"Q15114900","operator:wikidata":"Q15114900","public_transport":"stop_position","railway":"stop","wikidata":"Q5474753"}},{"type":"node","id":7768216388,"lat":42.8899125,"lon":-78.8729881,"tags":{"light_rail":"yes","name":"Fountain Plaza","network":"NFTA","network:wikidata":"Q15114900","operator:wikidata":"Q15114900","public_transport":"stop_position","railway":"stop","wikidata":"Q5474753"}},{"type":"node","id":7768318474,"lat":42.9546542,"lon":-78.8199968,"tags":{"light_rail":"yes","name":"University","network":"NFTA","network:wikidata":"Q15114900","operator":"Niagara Frontier Transportation Authority","operator:wikidata":"Q15114900","public_transport":"stop_position","railway":"stop","wikidata":"Q7894489"}},{"type":"node","id":7768366086,"lat":42.8994181,"lon":-78.8699183,"tags":{"light_rail":"yes","name":"Allen/Medical Campus","network":"NFTA","network:wikidata":"Q15114900","operator":"Niagara Frontier Transportation Authority","operator:wikidata":"Q15114900","public_transport":"stop_position","railway":"stop","wikidata":"Q4731483"}},{"type":"node","id":7768366087,"lat":42.8994087,"lon":-78.8698637,"tags":{"light_rail":"yes","name":"Allen/Medical Campus","network":"NFTA","network:wikidata":"Q15114900","operator":"Niagara Frontier Transportation Authority","operator:wikidata":"Q15114900","public_transport":"stop_position","railway":"stop","wikidata":"Q4731483"}},{"type":"node","id":7768366088,"lat":42.9047374,"lon":-78.8681609,"tags":{"light_rail":"yes","name":"Summer–Best","network":"NFTA","operator":"Niagara Frontier Transportation Authority","operator:wikidata":"Q15114900","public_transport":"stop_position","railway":"stop","wikidata":"Q7637729"}},{"type":"node","id":7768366089,"lat":42.904728,"lon":-78.8681063,"tags":{"light_rail":"yes","name":"Summer–Best","network":"NFTA","operator":"Niagara Frontier Transportation Authority","operator:wikidata":"Q15114900","public_transport":"stop_position","railway":"stop","wikidata":"Q7637729"}},{"type":"node","id":7768366090,"lat":42.9115378,"lon":-78.8658612,"tags":{"light_rail":"yes","name":"Utica","network":"NFTA","network:wikidata":"Q15114900","operator":"Niagara Frontier Transportation Authority","operator:wikidata":"Q15114900","public_transport":"stop_position","railway":"stop","wikidata":"Q7902770"}},{"type":"node","id":7768366091,"lat":42.9115285,"lon":-78.8658066,"tags":{"light_rail":"yes","name":"Utica","network":"NFTA","network:wikidata":"Q15114900","operator":"Niagara Frontier Transportation Authority","operator:wikidata":"Q15114900","public_transport":"stop_position","railway":"stop","wikidata":"Q7902770"}},{"type":"node","id":7768366092,"lat":42.9225645,"lon":-78.8569437,"tags":{"light_rail":"yes","name":"Delavan/Canisius College","network":"NFTA","network:wikidata":"Q15114900","operator":"Niagara Frontier Transportation Authority","operator:wikidata":"Q15114900","public_transport":"stop_position","railway":"stop"}},{"type":"node","id":7768366093,"lat":42.9225392,"lon":-78.8568995,"tags":{"light_rail":"yes","name":"Delavan/Canisius College","network":"NFTA","network:wikidata":"Q15114900","operator":"Niagara Frontier Transportation Authority","operator:wikidata":"Q15114900","public_transport":"stop_position","railway":"stop"}},{"type":"node","id":7768366096,"lat":42.927575,"lon":-78.8516543,"tags":{"light_rail":"yes","name":"Humboldt–Hospital","network":"NFTA","network:wikidata":"Q15114900","operator":"Niagara Frontier Transportation Authority","operator:wikidata":"Q15114900","public_transport":"stop_position","railway":"stop"}},{"type":"node","id":7768366097,"lat":42.9275497,"lon":-78.8516101,"tags":{"light_rail":"yes","name":"Humboldt–Hospital","network":"NFTA","network:wikidata":"Q15114900","operator":"Niagara Frontier Transportation Authority","operator:wikidata":"Q15114900","public_transport":"stop_position","railway":"stop"}},{"type":"node","id":7768366103,"lat":42.9399357,"lon":-78.8383858,"tags":{"light_rail":"yes","name":"Amherst Street","network":"NFTA","network:wikidata":"Q15114900","operator":"Niagara Frontier Transportation Authority","operator:wikidata":"Q15114900","public_transport":"stop_position","railway":"stop","wikidata":"Q4746047"}},{"type":"node","id":7768366104,"lat":42.9399108,"lon":-78.8383412,"tags":{"light_rail":"yes","name":"Amherst Street","network":"NFTA","network:wikidata":"Q15114900","operator":"Niagara Frontier Transportation Authority","operator:wikidata":"Q15114900","public_transport":"stop_position","railway":"stop","wikidata":"Q4746047"}},{"type":"node","id":7768366110,"lat":42.9477247,"lon":-78.8297233,"tags":{"light_rail":"yes","name":"LaSalle","network":"NFTA","network:wikidata":"Q15114900","operator":"Niagara Frontier Transportation Authority","operator:wikidata":"Q15114900","public_transport":"stop_position","railway":"stop","wikidata":"Q6460860"}},{"type":"node","id":7768366111,"lat":42.947752,"lon":-78.8297653,"tags":{"light_rail":"yes","name":"LaSalle","network":"NFTA","network:wikidata":"Q15114900","operator":"Niagara Frontier Transportation Authority","operator:wikidata":"Q15114900","public_transport":"stop_position","railway":"stop","wikidata":"Q6460860"}},{"type":"node","id":10226066694,"lat":42.9546753,"lon":-78.8200245,"tags":{"light_rail":"yes","name":"University","network":"NFTA","network:wikidata":"Q15114900","operator":"Niagara Frontier Transportation Authority","operator:wikidata":"Q15114900","public_transport":"stop_position","railway":"stop","wikidata":"Q7894489"}},{"type":"node","id":13362479298,"lat":42.873974,"lon":-78.8768633,"tags":{"fixme":"Position is roughly drawn in, please redraw accurately if possible","light_rail":"yes","name":"DL&W","network:wikidata":"Q15114900","operator":"Niagara Frontier Transportation Authority","operator:wikidata":"Q15114900","public_transport":"stop_position","railway":"stop","wikidata":"Q5388277"}},{"type":"node","id":13362479299,"lat":42.873292,"lon":-78.8756487,"tags":{"fixme":"Position is roughly drawn in, please redraw accurately if possible","light_rail":"yes","name":"DL&W","network:wikidata":"Q15114900","operator":"Niagara Frontier Transportation Authority","operator:wikidata":"Q15114900","public_transport":"stop_position","railway":"stop","wikidata":"Q5388277"}},{"type":"node","id":111456195,"lat":42.8778439,"lon":-78.8769451,"tags":{"light_rail":"yes","name":"Canalside","network":"NFTA","network:wikidata":"Q15114900","old_name":"Auditorium;Erie Canal Harbor","operator":"Niagara Frontier Transportation Authority","operator:wikidata":"Q15114900","public_transport":"station","railway":"station","station":"light_rail","wheelchair":"yes","wikidata":"Q5388277"}},{"type":"node","id":111582022,"lat":42.8866182,"lon":-78.8740857,"tags":{"light_rail":"yes","name":"Lafayette Square","network":"NFTA","network:wikidata":"Q15114900","operator":"Niagara Frontier Transportation Authority","operator:wikidata":"Q15114900","public_transport":"station","railway":"station","station":"light_rail","wikidata":"Q6471526"}},{"type":"node","id":111582398,"lat":42.8894682,"lon":-78.8731615,"tags":{"light_rail":"yes","name":"Fountain Plaza","network":"NFTA","network:wikidata":"Q15114900","operator":"Niagara Frontier Transportation Authority","operator:wikidata":"Q15114900","public_transport":"station","railway":"station","station":"light_rail","wikidata":"Q5474753"}},{"type":"node","id":256821989,"lat":42.9545956,"lon":-78.8201959,"tags":{"light_rail":"yes","name":"University","network":"NFTA","network:wikidata":"Q15114900","old_name":"South Campus","operator":"Niagara Frontier Transportation Authority","operator:wikidata":"Q15114900","public_transport":"station","railway":"station","station":"light_rail","wikidata":"Q7894489"}},{"type":"node","id":304893295,"lat":42.9047141,"lon":-78.8680902,"tags":{"light_rail":"yes","name":"Summer–Best","network":"NFTA","operator":"Niagara Frontier Transportation Authority","operator:wikidata":"Q15114900","public_transport":"station","railway":"station","station":"light_rail","wikidata":"Q7637729"}},{"type":"node","id":306391081,"lat":42.8994055,"lon":-78.8698774,"tags":{"light_rail":"yes","name":"Allen/Medical Campus","network":"NFTA","network:wikidata":"Q15114900","operator":"Niagara Frontier Transportation Authority","operator:wikidata":"Q15114900","public_transport":"station","railway":"station","station":"light_rail","wikidata":"Q4731483"}},{"type":"node","id":306394201,"lat":42.9225352,"lon":-78.8568809,"tags":{"light_rail":"yes","name":"Delavan/Canisius College","network":"NFTA","network:wikidata":"Q15114900","operator":"Niagara Frontier Transportation Authority","operator:wikidata":"Q15114900","public_transport":"station","railway":"station","station":"light_rail","wikidata":"Q5253190"}},{"type":"node","id":347412733,"lat":42.9115398,"lon":-78.8657932,"tags":{"light_rail":"yes","name":"Utica","network":"NFTA","network:wikidata":"Q15114900","operator":"Niagara Frontier Transportation Authority","operator:wikidata":"Q15114900","public_transport":"station","railway":"station","station":"light_rail","wikidata":"Q7902770"}},{"type":"node","id":347412806,"lat":42.9275497,"lon":-78.8515839,"tags":{"light_rail":"yes","name":"Humboldt–Hospital","network":"NFTA","network:wikidata":"Q15114900","operator":"Niagara Frontier Transportation Authority","operator:wikidata":"Q15114900","public_transport":"station","railway":"station","station":"light_rail","wikidata":"Q5940467"}},{"type":"node","id":347412808,"lat":42.9399438,"lon":-78.8383516,"tags":{"light_rail":"yes","name":"Amherst Street","network":"NFTA","network:wikidata":"Q15114900","operator":"Niagara Frontier Transportation Authority","operator:wikidata":"Q15114900","public_transport":"station","railway":"station","station":"light_rail","wikidata":"Q4746047"}},{"type":"node","id":347412810,"lat":42.9477411,"lon":-78.8297514,"tags":{"light_rail":"yes","name":"LaSalle","network":"NFTA","network:wikidata":"Q15114900","operator":"Niagara Frontier Transportation Authority","operator:wikidata":"Q15114900","public_transport":"station","railway":"station","station":"light_rail","wikidata":"Q6460860"}},{"type":"node","id":486769916,"lat":42.8837992,"lon":-78.8750013,"tags":{"light_rail":"yes","name":"Church","network":"NFTA","network:wikidata":"Q15114900","operator":"Niagara Frontier Transportation Authority","operator:wikidata":"Q15114900","public_transport":"station","railway":"station","station":"light_rail","wheelchair":"yes","wikidata":"Q5116538"}},{"type":"node","id":5844253031,"lat":42.8812459,"lon":-78.8758209,"tags":{"light_rail":"yes","name":"Seneca","network":"NFTA","network:wikidata":"Q15114900","operator":"Niagara Frontier Transportation Authority","operator:wikidata":"Q15114900","public_transport":"station","railway":"station","station":"light_rail","wheelchair":"yes","wikidata":"Q7450267"}},{"type":"node","id":8188103726,"lat":43.0027922,"lon":-78.7858135,"tags":{"level":"0","light_rail":"yes","name":"Lee","network":"NFTA","network:wikidata":"Q15114900","operator":"Niagra Frontier Transportation Authority","operator:wikidata":"Q15114900","proposed:public_transport":"station","proposed:railway":"station","short_name":"Lee","station":"light_rail"}},{"type":"node","id":13362479300,"lat":42.8736336,"lon":-78.8762555,"tags":{"fixme":"Position is roughly drawn in, please redraw accurately if possible","light_rail":"yes","name":"DL&W","network":"NFTA","network:wikidata":"Q15114900","operator":"Niagara Frontier Transportation Authority","operator:wikidata":"Q15114900","public_transport":"station","railway":"station","station":"light_rail","wheelchair":"yes","wikidata":"Q106899305"}},{"type":"node","id":13935752379,"lat":42.9692323,"lon":-78.8234155,"tags":{"level":"0","light_rail":"yes","name":"Decatur","network":"NFTA","network:wikidata":"Q15114900","operator":"Niagra Frontier Transportation Authority","operator:wikidata":"Q15114900","proposed:public_transport":"station","proposed:railway":"station","short_name":"Decatur","station":"light_rail"}},{"type":"node","id":13935752380,"lat":42.9801299,"lon":-78.8229971,"tags":{"level":"0","light_rail":"yes","name":"Eggert","network":"NFTA","network:wikidata":"Q15114900","operator":"Niagra Frontier Transportation Authority","operator:wikidata":"Q15114900","proposed:public_transport":"station","proposed:railway":"station","station":"light_rail"}},{"type":"node","id":13935752381,"lat":42.9877015,"lon":-78.822694,"tags":{"level":"0","light_rail":"yes","name":"Boulevard Mall (Park & Ride)","network":"NFTA","network:wikidata":"Q15114900","operator":"Niagra Frontier Transportation Authority","operator:wikidata":"Q15114900","proposed:public_transport":"station","proposed:railway":"station","short_name":"Boulevard Mall","station":"light_rail"}},{"type":"node","id":13935752382,"lat":42.9908092,"lon":-78.8096295,"tags":{"level":"0","light_rail":"yes","name":"Maple","network":"NFTA","network:wikidata":"Q15114900","operator":"Niagra Frontier Transportation Authority","operator:wikidata":"Q15114900","proposed:public_transport":"station","proposed:railway":"station","short_name":"Maple","station":"light_rail"}},{"type":"node","id":13935752383,"lat":42.9973349,"lon":-78.7991737,"tags":{"level":"0","light_rail":"yes","name":"Sweet Home","network":"NFTA","network:wikidata":"Q15114900","operator":"Niagra Frontier Transportation Authority","operator:wikidata":"Q15114900","proposed:public_transport":"station","proposed:railway":"station","short_name":"Sweet Home","station":"light_rail"}},{"type":"node","id":13935752384,"lat":42.9992604,"lon":-78.7892535,"tags":{"level":"0","light_rail":"yes","name":"Flint","network":"NFTA","network:wikidata":"Q15114900","operator":"Niagra Frontier Transportation Authority","operator:wikidata":"Q15114900","proposed:public_transport":"station","proposed:railway":"station","short_name":"Flint","station":"light_rail"}},{"type":"node","id":13935752385,"lat":43.0057084,"lon":-78.7844011,"tags":{"level":"0","light_rail":"yes","name":"Ellicott Complex","network":"NFTA","network:wikidata":"Q15114900","operator":"Niagra Frontier Transportation Authority","operator:wikidata":"Q15114900","proposed:public_transport":"station","proposed:railway":"station","short_name":"Ellicott Complex","station":"light_rail"}},{"type":"node","id":13935752386,"lat":43.0155544,"lon":-78.7817337,"tags":{"level":"0","light_rail":"yes","name":"Audubon Town Center","network":"NFTA","network:wikidata":"Q15114900","operator":"Niagra Frontier Transportation Authority","operator:wikidata":"Q15114900","proposed:public_transport":"station","proposed:railway":"station","short_name":"Audubon","station":"light_rail"}},{"type":"node","id":13935752387,"lat":43.0269078,"lon":-78.7828199,"tags":{"level":"0","light_rail":"yes","name":"I-990 (Park & Ride)","network":"NFTA","network:wikidata":"Q15114900","operator":"Niagra Frontier Transportation Authority","operator:wikidata":"Q15114900","proposed:public_transport":"station","proposed:railway":"station","short_name":"I-990","station":"light_rail"}}]}