{"elements":[{"type":"node","id":5573156998,"lat":18.5214219,"lon":73.8595565,"tags":{"name":"कसबा पेठ","name:en":"Kasba Peth","name:mr":"कसबा पेठ","operator":"MahaMetro","public_transport":"stop_position","railway":"stop","subway":"yes"}},{"type":"node","id":5573167932,"lat":18.5072121,"lon":73.805226,"tags":{"layer":"2","name":"Vanaz","name:mr":"वनाज","operator":"MahaMetro","public_transport":"stop_position","railway":"stop","subway":"yes"}},{"type":"node","id":5573167958,"lat":18.5088937,"lon":73.8221601,"tags":{"layer":"2","name":"Paud Phata","name:mr":"पौड फाटा","operator":"MahaMetro","public_transport":"stop_position","railway":"stop","subway":"yes"}},{"type":"node","id":5573167970,"lat":18.507373,"lon":73.8287717,"tags":{"layer":"2","name":"SNDT College","name:mr":"एसएनडीटी कॉलेज","operator":"MahaMetro","public_transport":"stop_position","railway":"stop","subway":"yes"}},{"type":"node","id":5573167974,"lat":18.5120038,"lon":73.8380406,"tags":{"layer":"2","name":"Garware College","name:mr":"गरवारे महाविद्यालय","operator":"MahaMetro","public_transport":"stop_position","railway":"stop","subway":"yes"}},{"type":"node","id":5573167997,"lat":18.5095883,"lon":73.8140732,"tags":{"layer":"2","name":"Anandnagar","name:mr":"आनंदनगर","operator":"MahaMetro","public_transport":"stop_position","railway":"stop","subway":"yes"}},{"type":"node","id":7944584968,"lat":18.5164257,"lon":73.844458,"tags":{"layer":"2","name":"Deccan Gymkhana","name:mr":"डेक्कन जिमखाना","operator":"MahaMetro","public_transport":"stop_position","railway":"stop","subway":"yes"}},{"type":"node","id":9572608811,"lat":18.5119737,"lon":73.8380616,"tags":{"layer":"2","name":"Garware College","name:mr":"गरवारे महाविद्यालय","operator":"MahaMetro","public_transport":"stop_position","railway":"stop","subway":"yes"}},{"type":"node","id":9572650829,"lat":18.5071744,"lon":73.8052269,"tags":{"layer":"2","name":"Vanaz","name:mr":"वनाज","operator":"MahaMetro","public_transport":"stop_position","railway":"stop","subway":"yes"}},{"type":"node","id":9572650850,"lat":18.5095528,"lon":73.8140793,"tags":{"layer":"2","name":"Anandnagar","name:mr":"आनंदनगर","operator":"MahaMetro","public_transport":"stop_position","railway":"stop","subway":"yes"}},{"type":"node","id":9572650877,"lat":18.5088771,"lon":73.8221254,"tags":{"layer":"2","name":"Paud Phata","name:mr":"पौड फाटा","operator":"MahaMetro","public_transport":"stop_position","railway":"stop","subway":"yes"}},{"type":"node","id":9572650936,"lat":18.507341,"lon":73.8287889,"tags":{"layer":"2","name":"SNDT College","name:mr":"एसएनडीटी कॉलेज","operator":"MahaMetro","public_transport":"stop_position","railway":"stop","subway":"yes"}},{"type":"node","id":9572921031,"lat":18.629303,"lon":73.8032748,"tags":{"layer":"2","name":"PCMC Bhavan","name:mr":"पिंपरी-चिंचवड मनपा भवन","operator":"MahaMetro","public_transport":"stop_position","railway":"stop","subway":"yes"}},{"type":"node","id":9572921032,"lat":18.6293297,"lon":73.8033009,"tags":{"layer":"2","name":"PCMC Bhavan","name:mr":"पिंपरी-चिंचवड मनपा भवन","operator":"MahaMetro","public_transport":"stop_position","railway":"stop","subway":"yes"}},{"type":"node","id":9572921037,"lat":18.5911009,"lon":73.831128,"tags":{"layer":"4","name":"Phugewadi","name:mr":"फुगेवाडी","operator":"MahaMetro","public_transport":"stop_position","railway":"stop","subway":"yes"}},{"type":"node","id":9572921040,"lat":18.614536,"lon":73.8157578,"tags":{"layer":"2","name":"Sant Tukaram Nagar","name:mr":"संत तुकाराम नगर","operator":"MahaMetro","public_transport":"stop_position","railway":"stop","subway":"yes"}},{"type":"node","id":9572921043,"lat":18.5996141,"lon":73.8272445,"tags":{"layer":"2","name":"Kasarwadi","name:mr":"कासारवाडी","operator":"MahaMetro","public_transport":"stop_position","railway":"stop","subway":"yes"}},{"type":"node","id":9572921058,"lat":18.591112,"lon":73.8311642,"tags":{"layer":"4","name":"Phugewadi","name:mr":"फुगेवाडी","operator":"MahaMetro","public_transport":"stop_position","railway":"stop","subway":"yes"}},{"type":"node","id":9572921062,"lat":18.5996273,"lon":73.8272797,"tags":{"layer":"2","name":"Kasarwadi","name:mr":"कासारवाडी","operator":"MahaMetro","public_transport":"stop_position","railway":"stop","subway":"yes"}},{"type":"node","id":9572921098,"lat":18.6092941,"lon":73.8200813,"tags":{"layer":"2","name":"Nashik Phata","name:mr":"नाशिक फाटा","operator":"MahaMetro","public_transport":"stop_position","railway":"stop","subway":"yes"}},{"type":"node","id":9572921112,"lat":18.614512,"lon":73.8157295,"tags":{"layer":"2","name":"Sant Tukaram Nagar","name:mr":"संत तुकाराम नगर","operator":"MahaMetro","public_transport":"stop_position","railway":"stop","subway":"yes"}},{"type":"node","id":9572921115,"lat":18.6093152,"lon":73.8201121,"tags":{"layer":"2","name":"Nashik Phata","name:mr":"नाशिक फाटा","operator":"MahaMetro","public_transport":"stop_position","railway":"stop","subway":"yes"}},{"type":"node","id":11097510270,"lat":18.5321548,"lon":73.8496014,"tags":{"layer":"-2","name":"Shivaji Nagar","name:en":"Shivaji Nagar","name:hi":"शिवाजी नगर","name:mr":"शिवाजी नगर","network":"Pune Metro","network:wikidata":"Q3595697","operator":"Maha Metro","public_transport":"stop_position","railway":"stop","subway":"yes"}},{"type":"node","id":11097510272,"lat":18.5321825,"lon":73.849726,"tags":{"layer":"-2","name":"Shivaji Nagar","name:en":"Shivaji Nagar","name:hi":"शिवाजी नगर","name:mr":"शिवाजी नगर","network":"Pune Metro","network:wikidata":"Q3595697","operator":"Maha Metro","public_transport":"stop_position","railway":"stop","subway":"yes"}},{"type":"node","id":11097510273,"lat":18.5267307,"lon":73.856888,"tags":{"layer":"2","name":"District Court","name:fr":"Cour civile","name:mr":"जिल्हा न्यायालय","operator":"MahaMetro","public_transport":"stop_position","railway":"stop","subway":"yes"}},{"type":"node","id":11097510275,"lat":18.5268495,"lon":73.8569149,"tags":{"layer":"2","name":"District Court","name:en":"District Court","name:mr":"जिल्हा न्यायालय","operator":"MahaMetro","public_transport":"stop_position","railway":"stop","subway":"yes"}},{"type":"node","id":11097527711,"lat":18.5327068,"lon":73.8777633,"tags":{"layer":"2","name":"Ruby Hall Clinic","name:mr":"रुबी हॉल क्लिनिक","operator":"MahaMetro","public_transport":"stop_position","railway":"stop","subway":"yes"}},{"type":"node","id":11097527712,"lat":18.5327359,"lon":73.8777309,"tags":{"layer":"2","name":"Ruby Hall Clinic","name:mr":"रुबी हॉल क्लिनिक","operator":"MahaMetro","public_transport":"stop_position","railway":"stop","subway":"yes"}},{"type":"node","id":11097527713,"lat":18.5297234,"lon":73.872597,"tags":{"name":"Pune Railway Station","name:mr":"पुणे रेल्वे स्टेशन","operator":"MahaMetro","public_transport":"stop_position","railway":"stop","subway":"yes"}},{"type":"node","id":11097527714,"lat":18.5297781,"lon":73.8725976,"tags":{"name":"Pune Railway Station","name:mr":"पुणे रेल्वे स्टेशन","operator":"MahaMetro","public_transport":"stop_position","railway":"stop","subway":"yes"}},{"type":"node","id":11097527715,"lat":18.5301041,"lon":73.8650537,"tags":{"layer":"2","name":"Mangalwar Peth","name:en":"Mangalwar Peth","name:mr":"मंगळवार पेठ","operator":"MahaMetro","public_transport":"stop_position","railway":"stop","subway":"yes"}},{"type":"node","id":11097527716,"lat":18.530052,"lon":73.8650583,"tags":{"layer":"2","name":"Mangalwar Peth","name:en":"Mangalwar Peth","name:mr":"मंगळवार पेठ","operator":"MahaMetro","public_transport":"stop_position","railway":"stop","subway":"yes"}},{"type":"node","id":11097527717,"lat":18.5196592,"lon":73.8469712,"tags":{"layer":"2","name":"Chhatrapati Sambhaji Udyan","name:mr":"छत्रपती संभाजी उद्यान","operator":"MahaMetro","public_transport":"stop_position","railway":"stop","subway":"yes"}},{"type":"node","id":11097527719,"lat":18.5205306,"lon":73.847813,"tags":{"layer":"2","name":"Chhatrapati Sambhaji Udyan","name:mr":"छत्रपती संभाजी उद्यान","operator":"MahaMetro","public_transport":"stop_position","railway":"stop","subway":"yes"}},{"type":"node","id":11097527720,"lat":18.5264139,"lon":73.8575569,"tags":{"layer":"2","name":"District Court (Aqua Line)","name:fr":"Cour civile","name:mr":"जिल्हा न्यायालय","operator":"MahaMetro","public_transport":"stop_position","railway":"stop","subway":"yes"}},{"type":"node","id":11097527721,"lat":18.5272205,"lon":73.8580784,"tags":{"layer":"2","name":"District Court (Aqua Line)","name:mr":"जिल्हा न्यायालय","operator":"MahaMetro","public_transport":"stop_position","railway":"stop","subway":"yes"}},{"type":"node","id":11097527722,"lat":18.5224972,"lon":73.8528226,"tags":{"layer":"2","name":"PMC Bhavan","name:mr":"पुणे मनपा स्थानक","operator":"MahaMetro","public_transport":"stop_position","railway":"stop","subway":"yes"}},{"type":"node","id":11097527723,"lat":18.5229358,"lon":73.8537626,"tags":{"layer":"2","name":"PMC Bhavan","name:mr":"पुणे मनपा स्थानक","operator":"MahaMetro","public_transport":"stop_position","railway":"stop","subway":"yes"}},{"type":"node","id":11097527724,"lat":18.5164682,"lon":73.8444257,"tags":{"layer":"2","name":"Deccan Gymkhana","name:mr":"डेक्कन जिमखाना","operator":"MahaMetro","public_transport":"stop_position","railway":"stop","subway":"yes"}},{"type":"node","id":11098847799,"lat":18.5837471,"lon":73.8337957,"tags":{"name":"Dapodi","name:mr":"दापोडी","public_transport":"stop_position","railway":"stop","subway":"yes"}},{"type":"node","id":11098847804,"lat":18.5691669,"lon":73.8383146,"tags":{"name":"Bopodi","name:mr":"बोपोडी","public_transport":"stop_position","railway":"stop","subway":"yes"}},{"type":"node","id":11098863084,"lat":18.5701403,"lon":73.8378981,"tags":{"name":"Bopodi","name:mr":"बोपोडी","public_transport":"stop_position","railway":"stop","subway":"yes"}},{"type":"node","id":11098863102,"lat":18.5837325,"lon":73.8337538,"tags":{"name":"Dapodi","name:mr":"दापोडी","public_transport":"stop_position","railway":"stop","subway":"yes"}},{"type":"node","id":11699340494,"lat":18.5573419,"lon":73.9089798,"tags":{"layer":"2","name":"Ramwadi","name:en":"Ramwadi","name:mr":"रामवाडी","operator":"MahaMetro","public_transport":"stop_position","railway":"stop","subway":"yes"}},{"type":"node","id":11699340647,"lat":18.540599,"lon":73.8834176,"tags":{"layer":"2","name":"Bund Garden","name:mr":"बंड गार्डन","operator":"MahaMetro","public_transport":"stop_position","railway":"stop","subway":"yes"}},{"type":"node","id":11699340648,"lat":18.5405802,"lon":73.8834544,"tags":{"layer":"2","name":"Bund Garden","name:mr":"बंड गार्डन","operator":"MahaMetro","public_transport":"stop_position","railway":"stop","subway":"yes"}},{"type":"node","id":11699340650,"lat":18.5453203,"lon":73.8866176,"tags":{"layer":"2","name":"Yerwada","name:hi":"येरवडा","name:mr":"येरवडा","operator":"MahaMetro","public_transport":"stop_position","railway":"stop","subway":"yes"}},{"type":"node","id":11699340651,"lat":18.5452822,"lon":73.8866239,"tags":{"layer":"2","name":"Yerwada","name:hi":"येरवडा","name:mr":"येरवडा","operator":"MahaMetro","public_transport":"stop_position","railway":"stop","subway":"yes"}},{"type":"node","id":11699340653,"lat":18.5444651,"lon":73.9056677,"tags":{"layer":"2","name":"Kalyani Nagar","name:mr":"कल्याणी नगर","operator":"MahaMetro","public_transport":"stop_position","railway":"stop","subway":"yes"}},{"type":"node","id":11699340654,"lat":18.5444493,"lon":73.9057122,"tags":{"layer":"2","name":"Kalyani Nagar","name:mr":"कल्याणी नगर","operator":"MahaMetro","public_transport":"stop_position","railway":"stop","subway":"yes"}},{"type":"node","id":11699340656,"lat":18.5567271,"lon":73.9081249,"tags":{"layer":"2","name":"Ramwadi","name:mr":"रामवाडी","operator":"MahaMetro","public_transport":"stop_position","railway":"stop","subway":"yes"}},{"type":"node","id":12211960101,"lat":18.5129189,"lon":73.8570796,"tags":{"name":"महात्मा फुले मंदाई","name:en":"Mahatma Phule Mandai","name:mr":"मंडई","operator":"MahaMetro","public_transport":"stop_position","railway":"stop","subway":"yes"}},{"type":"node","id":12211960102,"lat":18.5129035,"lon":73.8569526,"tags":{"name":"महात्मा फुले मंदाई","name:en":"Mahatma Phule Mandai","name:mr":"मंडई","operator":"MahaMetro","public_transport":"stop_position","railway":"stop","subway":"yes"}},{"type":"node","id":12211960112,"lat":18.5213628,"lon":73.8596827,"tags":{"name":"कसबा पेठ","name:en":"Kasba Peth","name:mr":"कसबा पेठ","operator":"MahaMetro","public_transport":"stop_position","railway":"stop","subway":"yes"}},{"type":"node","id":12211960136,"lat":18.4997302,"lon":73.8575193,"tags":{"name":"Swargate","name:en":"Swargate","name:hi":"स्वारगेट","name:mr":"स्वारगेट","operator":"MahaMetro","public_transport":"stop_position","railway":"stop","subway":"yes"}},{"type":"node","id":12211960138,"lat":18.49975,"lon":73.8574064,"tags":{"name":"Swargate","name:en":"Swargate","name:hi":"स्वारगेट","name:mr":"स्वारगेट","operator":"MahaMetro","public_transport":"stop_position","railway":"stop","subway":"yes"}},{"type":"node","id":13658400784,"lat":18.5502871,"lon":73.8457857,"tags":{"name":"Range Hills","public_transport":"stop_position","subway":"yes"}},{"type":"node","id":13658400785,"lat":18.5502975,"lon":73.8458355,"tags":{"name":"Range Hills","public_transport":"stop_position","subway":"yes"}},{"type":"node","id":13658400786,"lat":18.5622512,"lon":73.8420645,"tags":{"name":"Khadki","public_transport":"stop_position","subway":"yes"}},{"type":"node","id":13658400787,"lat":18.5622741,"lon":73.8421051,"tags":{"name":"Khadki","public_transport":"stop_position","subway":"yes"}}]}