{"version":0.6,"generator":"Overpass API 0.7.62.11 87bfad18","osm3s":{"timestamp_osm_base":"2026-07-10T13:41:38Z","copyright":"The data included in this document is from www.openstreetmap.org. The data is made available under ODbL."},"elements":[{"type":"node","id":5421528426,"lat":22.5724857,"lon":88.3587427,"tags":{"name":"Central","name:bn":"সেন্ট্রাল","name:en":"Central","name:hi":"सेंट्रल","network":"Kolkata Metro","network:wikidata":"Q1048849","operator":"Metro Railway, Kolkata","public_transport":"station","railway":"station","ref":"KCEN","station":"subway","subway":"yes","wikidata":"Q5061425","wikipedia":"en:Central metro station (Kolkata)"}},{"type":"node","id":5421528503,"lat":22.5551591,"lon":88.3501171,"tags":{"name":"Park Street","name:bn":"পার্ক স্ট্রীট","name:hi":"पार्क स्ट्रीट","network":"Kolkata Metro","network:wikidata":"Q1048849","operator":"Metro Railway, Kolkata","public_transport":"station","railway":"station","ref":"KPSK","station":"subway","subway":"yes","wikidata":"Q7138060","wikipedia":"en:Park Street metro station (Kolkata)"}},{"type":"node","id":5421533465,"lat":22.4642505,"lon":88.3804604,"tags":{"name":"Kavi Nazrul","name:bn":"কবি নজরুল","network":"Kolkata Metro","network:wikidata":"Q1048849","operator":"Metro Railway, Kolkata","public_transport":"station","railway":"station","ref":"KKNZ","station":"subway","subway":"yes","wikidata":"Q6379214","wikipedia":"en:Kavi Nazrul metro station"}},{"type":"node","id":5421533466,"lat":22.4659847,"lon":88.3915408,"tags":{"name":"Shahid Khudiram","name:bn":"শহিদ ক্ষুদিরাম","name:hi":"शहीद खुदीराम","network":"Kolkata Metro","network:wikidata":"Q1048849","operator":"Metro Railway, Kolkata","public_transport":"station","railway":"station","ref":"KSKD","station":"subway","subway":"yes","wikidata":"Q7461685","wikipedia":"en:Shahid Khudiram metro station"}},{"type":"node","id":5421533467,"lat":22.4721697,"lon":88.397961,"tags":{"alt_name":"New Garia","name":"Kavi Subhash (Blue Line)","name:bn":"কবি সুভাষ","network":"Kolkata Metro","network:wikidata":"Q1048849","operator":"Metro Railway, Kolkata","public_transport":"station","railway":"station","ref":"KKVS","station":"subway","subway":"yes","wikidata":"Q6379216","wikipedia":"en:Kavi Subhash metro station"}},{"type":"node","id":5421533468,"lat":22.4809928,"lon":88.3460002,"tags":{"name":"Netaji","name:bn":"নেতাজি","name:hi":"नेताजी","network":"Kolkata Metro","network:wikidata":"Q1048849","operator":"Metro Railway, Kolkata","public_transport":"station","railway":"station","ref":"KNTJ","station":"subway","subway":"yes","wikidata":"Q6998636","wikipedia":"en:Netaji metro station"}},{"type":"node","id":5421536497,"lat":22.4947692,"lon":88.3450879,"tags":{"name":"Mahanayak Uttam Kumar","name:bn":"মহানায়ক উত্তমকুমার","name:hi":"महानायक उत्तम कुमार","network":"Kolkata Metro","network:wikidata":"Q1048849","operator":"Metro Railway, Kolkata","public_transport":"station","railway":"station","ref":"KMUK","station":"subway","subway":"yes","wikidata":"Q6733119","wikipedia":"en:Mahanayak Uttam Kumar metro station"}},{"type":"node","id":5421537963,"lat":22.6211141,"lon":88.3928973,"tags":{"name":"Dum Dum","name:bn":"দমদম","network":"Kolkata Metro","network:wikidata":"Q1048849","operator":"Metro Railway, Kolkata","public_transport":"station","railway":"station","ref":"KDUM","station":"subway","subway":"yes","wheelchair":"limited","wikidata":"Q5313576","wikipedia":"en:Dum Dum metro station"}},{"type":"node","id":5421538365,"lat":22.5072216,"lon":88.3454936,"tags":{"name":"Rabindra Sarobar","name:bn":"রবীন্দ্র সরোবর","name:hi":"रविन्द्र सरोवर","network":"Kolkata Metro","network:wikidata":"Q1048849","operator":"Metro Railway, Kolkata","public_transport":"station","railway":"station","ref":"KRSB","station":"subway","subway":"yes","wikidata":"Q7278757","wikipedia":"en:Rabindra Sarobar metro station"}},{"type":"node","id":5421539684,"lat":22.5168752,"lon":88.3458448,"tags":{"name":"Kalighat","name:bn":"কালীঘাট","network":"Kolkata Metro","network:wikidata":"Q1048849","operator":"Metro Railway, Kolkata","public_transport":"station","railway":"station","ref":"KKHG","station":"subway","subway":"yes","wikidata":"Q15041932","wikipedia":"en:Kalighat metro station"}},{"type":"node","id":5421540159,"lat":22.5241535,"lon":88.3464729,"tags":{"name":"Jatin Das Park","name:bn":"যতীন দাস পার্ক","name:hi":"जतिन दास पार्क","network":"Kolkata Metro","network:wikidata":"Q1048849","operator":"Metro Railway, Kolkata","public_transport":"station","railway":"station","ref":"KJPK","station":"subway","subway":"yes","wikidata":"Q6164578","wikipedia":"en:Jatin Das Park metro station"}},{"type":"node","id":5421541284,"lat":22.5331821,"lon":88.3459269,"tags":{"name":"Netaji Bhavan","name:bn":"নেতাজি ভবন","name:hi":"नेताजी भवन","network":"Kolkata Metro","network:wikidata":"Q1048849","operator":"Metro Railway, Kolkata","public_transport":"station","railway":"station","ref":"KNBN","station":"subway","subway":"yes","wheelchair":"limited","wikidata":"Q6998599","wikipedia":"en:Netaji Bhavan metro station"}},{"type":"node","id":5421542551,"lat":22.5414899,"lon":88.3473493,"tags":{"name":"Rabindra Sadan","name:bn":"রবীন্দ্র সদন","name:hi":"रविंद्र सदन","network":"Kolkata Metro","network:wikidata":"Q1048849","operator":"Metro Railway, Kolkata","public_transport":"station","railway":"station","ref":"KRSD","station":"subway","subway":"yes","wikidata":"Q7278756","wikipedia":"en:Rabindra Sadan metro station"}},{"type":"node","id":5421543288,"lat":22.5494672,"lon":88.3487883,"tags":{"name":"Maidan","name:bn":"ময়দান","name:hi":"मैदान","name:ur":"مَیدَان","network":"Kolkata Metro","network:wikidata":"Q1048849","operator":"Metro Railway, Kolkata","public_transport":"station","railway":"station","ref":"KMDI","station":"subway","subway":"yes","wikidata":"Q6735340","wikipedia":"en:Maidan metro station"}},{"type":"node","id":5421543316,"lat":22.5670118,"lon":88.3541581,"tags":{"addr:city":"चाँदनी चौक","name":"Chandni Chowk","name:bn":"চাঁদনি চক","network":"Kolkata Metro","operator":"Metro Railway, Kolkata","public_transport":"station","railway":"station","ref":"KCWC","station":"subway","subway":"yes","wikidata":"Q5071229","wikipedia":"en:Chandni Chowk metro station (Kolkata)"}},{"type":"node","id":5421545051,"lat":22.5636143,"lon":88.3512099,"tags":{"name":"Esplanade (Line 1)","name:bn":"এসপ্ল্যানেড","network":"Kolkata Metro","network:wikidata":"Q1048849","operator":"Metro Railway, Kolkata","public_transport":"station","railway":"station","ref":"KESP","station":"subway","subway":"yes","wikidata":"Q5399030","wikipedia":"en:Esplanade metro station"}},{"type":"node","id":5421545390,"lat":22.5809206,"lon":88.3613271,"tags":{"name":"Mahatma Gandhi Road","name:bn":"মহাত্মা গান্ধী রোড","name:hi":"महात्मा गांधी रोड","network":"Kolkata Metro","network:wikidata":"Q1048849","operator":"Metro Railway, Kolkata","public_transport":"station","railway":"station","ref":"KMHR","station":"subway","subway":"yes","wikidata":"Q6733523","wikipedia":"en:Mahatma Gandhi Road metro station (Kolkata)"}},{"type":"node","id":5421546475,"lat":22.5871445,"lon":88.3629415,"tags":{"name":"Girish Park","name:bn":"গিরিশ পার্ক","name:hi":"गिरीश पार्क","network":"Kolkata Metro","network:wikidata":"Q1048849","operator":"Metro Railway, Kolkata","public_transport":"station","railway":"station","ref":"KGPK","station":"subway","subway":"yes","wikidata":"Q5564298","wikipedia":"en:Girish Park metro station"}},{"type":"node","id":5421546940,"lat":22.595881,"lon":88.3651996,"tags":{"name":"Shobhabazar Sutanuti","name:bn":"শোভাবাজার সুতানুটি","network":"Kolkata Metro","network:wikidata":"Q1048849","operator":"Metro Railway, Kolkata","public_transport":"station","railway":"station","ref":"KSBS","station":"subway","subway":"yes","wikidata":"Q7499796","wikipedia":"en:Sovabazar Sutanuti metro station"}},{"type":"node","id":5421546974,"lat":22.601335,"lon":88.3724974,"tags":{"name":"Shyambazar","name:bn":"শ্যামবাজার","name:hi":"श्याम बाज़ार","network":"Kolkata Metro","network:wikidata":"Q1048849","operator":"Metro Railway, Kolkata","public_transport":"station","railway":"station","ref":"KSMB","station":"subway","subway":"yes","wikidata":"Q7505976","wikipedia":"en:Shyambazar metro station"}},{"type":"node","id":5421548359,"lat":22.6059241,"lon":88.3863913,"tags":{"name":"Belgachia","name:bn":"বেলগাছিয়া","network":"Kolkata Metro","network:wikidata":"Q1048849","official_name":"Theism Belgachia","operator":"Metro Railway, Kolkata","public_transport":"station","railway":"station","ref":"KBGC","station":"subway","subway":"yes","wikidata":"Q4882396","wikipedia":"en:Belgachia metro station"}},{"type":"node","id":5421551283,"lat":22.6398418,"lon":88.3941343,"tags":{"name":"Noapara","name:bn":"নোয়াপাড়া","network":"Kolkata Metro","network:wikidata":"Q1048849","operator":"Metro Railway, Kolkata","public_transport":"station","railway":"station","ref":"KNAP","station":"subway","subway":"yes","wikidata":"Q14942939","wikipedia":"en:Noapara metro station and depot"}},{"type":"node","id":7944684393,"lat":22.5733404,"lon":88.4212209,"tags":{"name":"Nalban Metro Station","public_transport":"station","railway":"station","station":"subway","subway":"yes"}},{"type":"node","id":7976140059,"lat":22.58638,"lon":88.4215312,"tags":{"name":"Karunamoyee","name:bn":"করুণাময়ী","network":"Kolkata Metro","network:wikidata":"Q1048849","operator":"Kolkata Metro Rail Corporation Limited (KMRCL)","public_transport":"station","railway":"station","ref":"KESA","station":"subway","subway":"yes","wikidata":"Q62019524","wikipedia":"en:Karunamoyee metro station"}},{"type":"node","id":7976140060,"lat":22.5904737,"lon":88.4156247,"tags":{"name":"Central Park","name:bn":"সেন্ট্রাল পার্ক","name:hi":"सेंट्रल पार्क","network":"Kolkata Metro","network:wikidata":"Q1048849","operator":"Kolkata Metro Rail Corporation Limited (KMRCL)","public_transport":"station","railway":"station","ref":"CPSA","station":"subway","subway":"yes","wikidata":"Q30632539","wikipedia":"en:Central Park metro station"}},{"type":"node","id":7976140063,"lat":22.5870993,"lon":88.4078908,"tags":{"name":"City Centre","name:bn":"সিটি সেন্টার","name:hi":"सिटी सेंटर","network":"Kolkata Metro","network:wikidata":"Q1048849","operator":"Kolkata Metro Rail Corporation Limited (KMRCL)","public_transport":"station","railway":"station","ref":"CCSC","station":"subway","subway":"yes","wikidata":"Q63256235","wikipedia":"en:City Center metro station"}},{"type":"node","id":7976140066,"lat":22.5800666,"lon":88.4012962,"tags":{"name":"Bengal Chemical","name:bn":"বেঙ্গল কেমিক্যালস","network":"Kolkata Metro","network:wikidata":"Q1048849","public_transport":"station","railway":"station","ref":"BCSD","station":"subway","subway":"yes","wikidata":"Q63256245","wikipedia":"en:Bengal Chemical metro station"}},{"type":"node","id":7976140069,"lat":22.5731115,"lon":88.4030891,"tags":{"name":"Salt Lake Stadium","name:bn":"সল্ট লেক স্টেডিয়াম","network":"Kolkata Metro","network:wikidata":"Q1048849","public_transport":"station","railway":"station","ref":"SSSA","station":"subway","subway":"yes","wikidata":"Q65090392","wikipedia":"en:Salt Lake Stadium metro station"}},{"type":"node","id":7976140072,"lat":22.5721268,"lon":88.3902408,"tags":{"name":"Phoolbagan","name:bn":"ফুলবাগান","name:hi":"फूलबगान","network":"Kolkata Metro","network:wikidata":"Q1048849","public_transport":"station","railway":"station","ref":"PBGB","station":"subway","subway":"yes","wikidata":"Q30632551","wikipedia":"en:Phoolbagan metro station"}},{"type":"node","id":7976140073,"lat":22.5809434,"lon":88.4290872,"tags":{"name":"Salt Lake Sector V","name:bn":"সল্টলেক সেক্টর V","name:hi":"सॉल्ट लेक सेक्टर ५","network":"Kolkata Metro","network:wikidata":"Q1048849","operator":"Kolkata Metro Rail Corporation Limited (KMRCL)","public_transport":"station","railway":"station","ref":"SVSA","station":"subway","subway":"yes","wheelchair":"limited","wikidata":"Q55632405","wikipedia":"en:Salt Lake Sector-V metro station"}},{"type":"node","id":8475640176,"lat":22.6530765,"lon":88.3805962,"tags":{"name":"Baranagar","name:bn":"বরাহনগর","network":"Kolkata Metro","network:wikidata":"Q1048849","operator":"Metro Railway, Kolkata","public_transport":"station","railway":"station","ref":"KBRN","station":"subway","subway":"yes","wikidata":"Q63092244","wikipedia":"en:Baranagar metro station"}},{"type":"node","id":9321290815,"lat":22.4987585,"lon":88.3173872,"tags":{"name":"Behala Bazar","name:bn":"বেহালা বাজার","network":"Kolkata Metro","network:wikidata":"Q1048849","operator":"Metro Railway, Kolkata","public_transport":"station","railway":"station","ref":"KBBR","station":"subway","subway":"yes","wikidata":"Q84996197","wikipedia":"en:Behala Bazar metro station"}},{"type":"node","id":9321292345,"lat":22.4873548,"lon":88.3133794,"tags":{"name":"Behala Chowrasta","name:bn":"বেহালা চৌরাস্তা","network":"Kolkata Metro","network:wikidata":"Q1048849","operator":"Metro Railway, Kolkata","public_transport":"station","railway":"station","ref":"KBCR","station":"subway","subway":"yes","wikidata":"Q85273870","wikipedia":"en:Behala Chowrasta metro station"}},{"type":"node","id":9884790401,"lat":22.5666059,"lon":88.3697815,"tags":{"name":"Sealdah","name:bn":"শিয়ালদহ মেট্রো স্টেশন","name:en":"Sealdah","name:hi":"सियालदाह","network":"Kolkata Metro","network:wikidata":"Q1048849","public_transport":"station","railway":"station","ref":"SDHM","station":"subway","subway":"yes","wikidata":"Q30278708","wikipedia":"en:Sealdah metro station"}},{"type":"node","id":10036655361,"lat":22.6540325,"lon":88.3637533,"tags":{"name":"Dakshineshwar","name:bn":"দক্ষিণেশ্বর","name:hi":"दक्षिणेश्वर","network":"Kolkata Metro","network:wikidata":"Q1048849","operator":"Metro Railway, Kolkata","public_transport":"station","railway":"station","ref":"KDKS","station":"subway","subway":"yes","wikidata":"Q63092256","wikipedia":"en:Dakshineswar metro station"}},{"type":"node","id":10296539469,"lat":22.4643677,"lon":88.3075322,"tags":{"name":"Thakurpukur","name:bn":"ঠাকুরপুকুর","network":"Kolkata Metro","network:wikidata":"Q1048849","operator":"Metro Railway, Kolkata","public_transport":"station","railway":"station","ref":"KTKP","station":"subway","subway":"yes","wikidata":"Q30634511","wikipedia":"en:Thakurpukur metro station"}},{"type":"node","id":10296539474,"lat":22.4748533,"lon":88.3099593,"tags":{"name":"Sakher Bazar","name:bn":"সখের বাজার","network":"Kolkata Metro","network:wikidata":"Q1048849","operator":"Metro Railway, Kolkata","public_transport":"station","railway":"station","ref":"KSKB","station":"subway","subway":"yes","wikidata":"Q84716021","wikipedia":"en:Sakher Bazar metro station"}},{"type":"node","id":10296539476,"lat":22.5076863,"lon":88.3203842,"tags":{"name":"Taratala","name:bn":"তারাতলা","network":"Kolkata Metro","network:wikidata":"Q1048849","operator":"Metro Railway, Kolkata","public_transport":"station","railway":"station","ref":"KTRT","station":"subway","subway":"yes","wikidata":"Q85069094","wikipedia":"bn:তারাতলা মেট্রো স্টেশন"}},{"type":"node","id":10296539478,"lat":22.452347,"lon":88.3018236,"tags":{"name":"Joka","name:bn":"জোকা","network":"Kolkata Metro","network:wikidata":"Q1048849","operator":"Metro Railway, Kolkata","public_transport":"station","railway":"station","ref":"KJKA","source":"Wikipedia","station":"subway","subway":"yes","wikidata":"Q30634510","wikipedia":"en:Joka metro station"}},{"type":"node","id":11259469248,"lat":22.4119432,"lon":88.4760043,"tags":{"light_rail":"yes","name":"Kalikapur Railway Station","public_transport":"station","railway":"station","station":"light_rail"}},{"type":"node","id":11447425091,"lat":22.5148514,"lon":88.4014276,"tags":{"alt_name":"Ruby Hospital","name":"Hemanta Mukhopadhyay","name:bn":"হেমন্ত মুখোপাধ্যায়","name:hi":"हेमन्त मुखोपाध्याय","network":"Kolkata Metro","network:wikidata":"Q1048849","operator":"Metro Railway, Kolkata","public_transport":"station","railway":"station","ref":"KHMD","station":"subway","subway":"yes","wikidata":"Q30632588","wikipedia":"en:Hemanta Mukhopadhyay metro station"}},{"type":"node","id":11447425092,"lat":22.5053017,"lon":88.4009957,"tags":{"alt_name":"Kalikapur","name":"Kavi Sukanta","name:bn":"কবি সুকান্ত","network":"Kolkata Metro","network:wikidata":"Q1048849","operator":"Metro Railway, Kolkata","public_transport":"station","railway":"station","ref":"KKSK","station":"subway","subway":"yes","wikidata":"Q30632590","wikipedia":"en:Kavi Sukanta metro station"}},{"type":"node","id":11447425095,"lat":22.4956263,"lon":88.398449,"tags":{"alt_name":"Mukundapur","name":"Jyotirindra Nandi","name:bn":"জ্যোতিরিন্দ্র নন্দী","network":"Kolkata Metro","network:wikidata":"Q1048849","operator":"Metro Railway, Kolkata","public_transport":"station","railway":"station","ref":"KJNN","station":"subway","subway":"yes","wikidata":"Q65090385","wikipedia":"en:Jyotirindra Nandi metro station"}},{"type":"node","id":11447425096,"lat":22.4846775,"lon":88.3926447,"tags":{"name":"Satyajit Ray","name:bn":"সত্যজিৎ রায়","network":"Kolkata Metro","network:wikidata":"Q1048849","operator":"Metro Railway, Kolkata","public_transport":"station","railway":"station","ref":"KSJR","station":"subway","subway":"yes","wikidata":"Q30632540","wikipedia":"en:Satyajit Ray metro station"}},{"type":"node","id":11699268223,"lat":22.5720777,"lon":88.3505275,"tags":{"alt_name":"New Mahakaran","alt_name:en":"New Mahakaran","name":"Mahakaran","name:bn":"মহাকরণ","name:en":"Mahakaran","network":"Kolkata Metro","network:wikidata":"Q1048849","operator":"Metro Railway, Kolkata","public_transport":"station","railway":"station","ref":"MKNA","station":"subway","subway":"yes","wikidata":"Q30632550","wikipedia":"bn:মহাকরণ মেট্রো স্টেশন"}},{"type":"node","id":11699268224,"lat":22.5833648,"lon":88.3403452,"tags":{"name":"Howrah","name:bn":"হাওড়া","network":"Kolkata Metro","network:wikidata":"Q1048849","operator":"Metro Railway, Kolkata","public_transport":"station","railway":"station","ref":"HWHM","station":"subway","subway":"yes","wikidata":"Q30632554","wikipedia":"bn:হাওড়া মেট্রো স্টেশন"}},{"type":"node","id":11699268225,"lat":22.5838585,"lon":88.3339983,"tags":{"name":"Howrah Maidan","name:bn":"হাওড়া ময়দান","name:hi":"हावड़ा मैदान","network":"Kolkata Metro","network:wikidata":"Q1048849","operator":"Metro Railway, Kolkata","public_transport":"station","railway":"station","ref":"HWMM","station":"subway","subway":"yes","wikidata":"Q30632544","wikipedia":"bn:হাওড়া ময়দান মেট্রো স্টেশন"}},{"type":"node","id":11699268226,"lat":22.5191466,"lon":88.3236555,"tags":{"name":"Majerhat","name:bn":"মাঝেরহাট","network":"Kolkata Metro","network:wikidata":"Q1048849","operator":"Metro Railway, Kolkata","public_transport":"station","railway":"station","ref":"KMJH","station":"subway","subway":"yes","wikidata":"Q85214864","wikipedia":"en:Majerhat metro station"}},{"type":"node","id":11703282685,"lat":22.5641292,"lon":88.3502752,"tags":{"name":"Esplanade (Line 2)","name:bn":"এসপ্ল্যানেড","network":"Kolkata Metro","network:wikidata":"Q1048849","operator":"Metro Railway, Kolkata","public_transport":"station","railway":"station","ref":"KESP","station":"subway","subway":"yes","wikidata":"Q5399030","wikipedia":"en:Esplanade metro station"}},{"type":"node","id":11703389776,"lat":22.4711093,"lon":88.3980989,"tags":{"alt_name":"New Garia","name":"Kavi Subhash","name:bn":"কবি সুভাষ","network":"Kolkata Metro","network:wikidata":"Q1048849","operator":"Metro Railway, Kolkata","public_transport":"station","railway":"station","ref":"KKSO","station":"subway","subway":"yes","wikidata":"Q6379216","wikipedia":"en:Kavi Subhash metro station"}},{"type":"node","id":13088458999,"lat":22.5507084,"lon":88.4039852,"tags":{"name":"Beleghata","name:bn":"বেলেঘাটা","network":"Kolkata Metro","network:wikidata":"Q1048849","operator":"Metro Railway, Kolkata","public_transport":"station","railway":"station","ref":"KBGA","station":"subway","subway":"yes","wikidata":"Q109968614","wikipedia":"en:Beleghata metro station"}},{"type":"node","id":13088485701,"lat":22.5438072,"lon":88.3992762,"tags":{"alt_name":"Science City","name":"Barun Sengupta","name:bn":"বরুণ সেনগুপ্ত","name:hi":"वरुण सेन गुप्ता","network":"Kolkata Metro","network:wikidata":"Q1048849","operator":"Metro Railway, Kolkata","public_transport":"station","railway":"station","ref":"KBST","station":"subway","subway":"yes","wikidata":"Q30632591","wikipedia":"en:Barun Sengupta metro station"}},{"type":"node","id":13088485704,"lat":22.5329995,"lon":88.3964191,"tags":{"alt_name":"Bantala Road","name":"Ritwik Ghatak","name:bn":"ঋত্বিক ঘটক","name:hi":"ऋत्विक घटक","network":"Kolkata Metro","network:wikidata":"Q1048849","old_name":"Topsia","operator":"Metro Railway, Kolkata","public_transport":"station","railway":"station","ref":"KRWT","station":"subway","subway":"yes","wikidata":"Q109524252","wikipedia":"en:Ritwik Ghatak metro station"}},{"type":"node","id":13088485707,"lat":22.5246847,"lon":88.3962331,"tags":{"name":"VIP Bazar","name:bn":"ভি আই পি বাজার","name:hi":"वी.आई.पी. बाज़ार","network":"Kolkata Metro","network:wikidata":"Q1048849","operator":"Metro Railway, Kolkata","public_transport":"station","railway":"station","ref":"KVIB","station":"subway","subway":"yes","wikidata":"Q30632589","wikipedia":"en:VIP Bazar metro station"}},{"type":"node","id":13088491840,"lat":22.6473058,"lon":88.4373029,"tags":{"alt_name":"Biman Bandar","alt_name:hi":"विमान बंदर","name":"Jai Hind","name:bn":"জয় হিন্দ","name:hi":"जय हिंद","network":"Kolkata Metro","network:wikidata":"Q1048849","operator":"Metro Railway, Kolkata","public_transport":"station","railway":"station","ref":"KJHB","station":"subway","subway":"yes","wikidata":"Q65090394","wikipedia":"en:Jai Hind metro station"}},{"type":"node","id":13088491871,"lat":22.6392646,"lon":88.4297701,"tags":{"name":"Jessore Road","name:bn":"যশোহর রোড","network":"Kolkata Metro","network:wikidata":"Q1048849","operator":"Metro Railway, Kolkata","public_transport":"station","railway":"station","ref":"KJRO","station":"subway","subway":"yes","wikidata":"Q76741320","wikipedia":"en:Jessore Road metro station"}},{"type":"node","id":13088491874,"lat":22.6375936,"lon":88.4121618,"tags":{"name":"Dum Dum Cantonment","name:bn":"দমদম ক্যান্টনমেন্ট","network":"Kolkata Metro","network:wikidata":"Q1048849","operator":"Metro Railway, Kolkata","public_transport":"station","railway":"station","ref":"KDCM","station":"subway","subway":"yes","wikidata":"Q31725714","wikipedia":"en:Dum Dum Cantonment metro station"}},{"type":"way","id":359521149,"center":{"lat":22.4941217,"lon":88.3453164},"nodes":[3642187804,3642187806,3642187805,3642187803,3642187804],"tags":{"addr:housenumber":"120","addr:postcode":"700033","addr:state":"WB","addr:street":"Deshapran Sashmal Road","building":"yes","covered":"yes","name":"Subway to CTC Bus Stand and Road Crossing","operator:wikidata":"Q244457","public_transport":"station","railway":"station","shelter":"yes","sign":"yes","station":"subway","subway":"yes","wheelchair":"no"}},{"type":"way","id":469357608,"center":{"lat":22.4734404,"lon":88.3608976},"nodes":[4636950805,8897215394,4636950806,4636950807,4636950808,4636950805],"tags":{"alt_name":"Bansdroni","building":"yes","internet_access":"no","layer":"1","name":"Masterda Surya Sen","name:bn":"মাস্টারদা সূর্য সেন","name:hi":"मास्टरदा सूर्य सेन","network":"Kolkata Metro","network:wikidata":"Q1048849","operator":"Metro Railway, Kolkata","public_transport":"station","railway":"station","ref":"KMSN","station":"subway","subway":"yes","wheelchair":"limited","wikidata":"Q6785356","wikipedia":"en:Masterda Surya Sen metro station"}},{"type":"way","id":535333502,"center":{"lat":22.4720495,"lon":88.3979473},"nodes":[5189264711,5189264543,5189264460,5189264488,5189264711],"tags":{"building":"train_station","name":"Kavi Subhash","network":"Blue Line","public_transport":"station","railway":"station","station":"subway","subway":"yes","wikidata":"Q6379216","wikipedia":"en:Kavi Subhash metro station"}},{"type":"way","id":535333554,"center":{"lat":22.4694673,"lon":88.3700116},"nodes":[5189265018,5189265386,5189264960,5189264928,5189265018],"tags":{"building":"yes","layer":"1","name":"Gitanjali","name:bn":"গীতাঞ্জলি","name:hi":"गीतांजलि","network":"Kolkata Metro","network:wikidata":"Q1048849","operator":"Metro Railway, Kolkata","public_transport":"station","railway":"station","ref":"KGTN","station":"subway","subway":"yes","wikidata":"Q5565052","wikipedia":"en:Gitanjali metro station"}},{"type":"way","id":1364916357,"center":{"lat":22.4710862,"lon":88.3981283},"nodes":[12639948461,12639948462,12639948463,12639948464,12639948461],"tags":{"building":"train_station","name":"Kavi Subhash","network":"Orange Line","operator":"Kolkata Metro Rail Corporation","public_transport":"station","railway":"station","station":"subway","subway":"yes"}}]}