{"version":0.6,"generator":"Overpass API 0.7.62.4 2390de5a","osm3s":{"timestamp_osm_base":"2026-07-11T08:36:35Z","copyright":"The data included in this document is from www.openstreetmap.org. The data is made available under ODbL."},"elements":[{"type":"node","id":4018271150,"lat":22.8401687,"lon":108.2291447,"tags":{"name":"民族大学","name:en":"Guangxi University for Nationalities","name:za":"Minzcuz Dayoz","name:zh":"民族大学","operator":"南宁轨道交通","operator:en":"Nanning Rail Transit","operator:zh-Hant":"南寧軌道交通","public_transport":"station","railway":"station","station":"subway","subway":"yes","wikidata":"Q28065737"}},{"type":"node","id":4018271166,"lat":22.8430268,"lon":108.2490528,"tags":{"name":"清川","name:en":"QINGCHUAN","name:za":"Cinghconh","name:zh":"清川","operator":"南宁轨道交通","operator:en":"Nanning Rail Transit","operator:zh-Hant":"南寧軌道交通","public_transport":"station","railway":"station","station":"subway","subway":"yes","wikidata":"Q12214838"}},{"type":"node","id":4018278909,"lat":22.8157435,"lon":108.3434035,"tags":{"name":"麻村","name:en":"MACUN","name:za":"Mazcunh","name:zh":"麻村","operator":"南宁轨道交通","operator:en":"Nanning Rail Transit","operator:zh-Hant":"南寧軌道交通","public_transport":"station","railway":"station","station":"subway","subway":"yes","wikidata":"Q28122490"}},{"type":"node","id":4018278917,"lat":22.8156706,"lon":108.3793585,"tags":{"name":"会展中心","name:en":"Convention & Exhibition Center","name:za":"Veicanj Cunghsinh","name:zh":"会展中心","operator":"南宁轨道交通","operator:en":"Nanning Rail Transit","operator:zh-Hant":"南寧軌道交通","public_transport":"station","railway":"station","station":"subway","subway":"yes","wikidata":"Q25932669"}},{"type":"node","id":4018278919,"lat":22.8156607,"lon":108.3874346,"tags":{"name":"万象城","name:en":"WANXIANGCHENG","name:za":"Vansiengcwngz","name:zh":"万象城","operator":"南宁轨道交通","operator:en":"Nanning Rail Transit","operator:zh-Hant":"南寧軌道交通","public_transport":"station","railway":"station","station":"subway","subway":"yes"}},{"type":"node","id":4018278925,"lat":22.8155939,"lon":108.4145652,"tags":{"name":"埌东客运站","name:en":"LANGDONG Coach Station","name:za":"Camh Yinhhek Langdungh","name:zh":"埌东客运站","operator":"南宁轨道交通","operator:en":"Nanning Rail Transit","operator:zh-Hant":"南寧軌道交通","public_transport":"station","railway":"station","station":"subway","subway":"yes","wikidata":"Q26261986"}},{"type":"node","id":4018278952,"lat":22.8368472,"lon":108.2792971,"tags":{"name":"鲁班路","name:en":"Luban Lu","name:za":"Roen Lujbanh","name:zh":"鲁班路","operator":"南宁轨道交通","operator:en":"Nanning Rail Transit","operator:zh-Hant":"南寧軌道交通","public_transport":"station","railway":"station","station":"subway","subway":"yes","wikidata":"Q28065685"}},{"type":"node","id":4018278956,"lat":22.833865,"lon":108.3033194,"tags":{"name":"白苍岭","name:en":"BAICANGLING","name:za":"Bwzcanghlingj","name:zh":"白苍岭","operator":"南宁轨道交通","operator:en":"Nanning Rail Transit","operator:zh-Hant":"南寧軌道交通","public_transport":"station","railway":"station","station":"subway","subway":"yes","wikidata":"Q28147052"}},{"type":"node","id":5211363679,"lat":22.8357489,"lon":108.1982055,"tags":{"name":"鹏飞路","name:en":"PENGFEI LU","name:za":"Roen Bungzfaih","name:zh":"鹏飞路","operator":"南宁轨道交通","operator:en":"Nanning Rail Transit","operator:zh-Hant":"南寧軌道交通","public_transport":"station","railway":"station","station":"subway","subway":"yes"}},{"type":"node","id":5211363683,"lat":22.8357186,"lon":108.2148935,"tags":{"name":"西乡塘客运站","name:en":"XIXIANGTANG Coach Station","name:za":"Camh Yinhhek Sihyanghdangz","name:zh":"西乡塘客运站","operator":"南宁轨道交通","operator:en":"Nanning Rail Transit","operator:zh-Hant":"南寧軌道交通","public_transport":"station","railway":"station","station":"subway","subway":"yes","wikidata":"Q28122404"}},{"type":"node","id":5211363684,"lat":22.8405852,"lon":108.2639162,"tags":{"name":"动物园","name:en":"Nanning Zoo","name:za":"Dungvuzyenz","name:zh":"动物园","operator":"南宁轨道交通","operator:en":"Nanning Rail Transit","operator:zh-Hant":"南寧軌道交通","public_transport":"station","railway":"station","station":"subway","subway":"yes","wikidata":"Q28119311"}},{"type":"node","id":5211363686,"lat":22.8288531,"lon":108.1732294,"tags":{"name":"石埠","name:en":"SHIBU","name:za":"Sizbu","name:zh":"石埠","operator":"南宁轨道交通","operator:en":"Nanning Rail Transit","operator:zh-Hant":"南寧軌道交通","public_transport":"station","railway":"station","station":"subway","subway":"yes","wikidata":"Q28122406"}},{"type":"node","id":5211363711,"lat":22.8357569,"lon":108.1882759,"tags":{"name":"南职院","name:en":"Nanning College for Vocational Technology","name:za":"Nanzciyenz","name:zh":"南职院","operator":"南宁轨道交通","operator:en":"Nanning Rail Transit","operator:zh-Hant":"南寧軌道交通","public_transport":"station","railway":"station","station":"subway","subway":"yes","wikidata":"Q28152940"}},{"type":"node","id":5211380012,"lat":22.8157707,"lon":108.3322656,"tags":{"name":"民族广场","name:en":"MINZU Square","name:za":"Minzcuz Gvangjcangz","name:zh":"民族广场","operator":"南宁轨道交通","operator:en":"Nanning Rail Transit","operator:zh-Hant":"南寧軌道交通","public_transport":"station","railway":"station","station":"subway","subway":"yes","wikidata":"Q23530616"}},{"type":"node","id":5211380014,"lat":22.8340483,"lon":108.2889532,"tags":{"name":"广西大学","name:en":"Guangxi University","name:za":"Gvangjsih Dayoz","name:zh":"广西大学","network":"南宁轨道交通","operator":"南宁轨道交通","operator:en":"Nanning Rail Transit","operator:zh":"南宁轨道交通","operator:zh-Hans":"南宁轨道交通","operator:zh-Hant":"南寧軌道交通","public_transport":"station","railway":"station","station":"subway","subway":"yes","wikidata":"Q28122566","wikipedia":"zh:广西大学站"}},{"type":"node","id":5211401030,"lat":22.815615,"lon":108.3948255,"tags":{"name":"东盟商务区","name:en":"ASEAN Business District","name:za":"Dunghmungz Sanghvugih","name:zh":"东盟商务区","operator":"南宁轨道交通","operator:en":"Nanning Rail Transit","operator:zh-Hant":"南寧軌道交通","public_transport":"station","railway":"station","station":"subway","subway":"yes"}},{"type":"node","id":5211422040,"lat":22.8213037,"lon":108.4237155,"tags":{"name":"百花岭","name:en":"BAIHUALING","name:za":"Bwzvahlingj","name:zh":"百花岭","operator":"南宁轨道交通","operator:en":"Nanning Rail Transit","operator:zh-Hant":"南寧軌道交通","public_transport":"station","railway":"station","station":"subway","subway":"yes","wikidata":"Q26261987"}},{"type":"node","id":5211422050,"lat":22.8341476,"lon":108.4208214,"tags":{"name":"佛子岭","name:en":"FOZILING","name:za":"Fuzswjlingj","name:zh":"佛子岭","operator":"南宁轨道交通","operator:en":"Nanning Rail Transit","operator:zh-Hant":"南寧軌道交通","public_transport":"station","railway":"station","station":"subway","subway":"yes"}},{"type":"node","id":5297995151,"lat":22.7252106,"lon":108.3324958,"tags":{"name":"玉洞","name:en":"Yudong","name:zh":"玉洞","operator":"南宁轨道交通","operator:en":"Nanning Rail Transit","operator:zh-Hant":"南寧軌道交通","public_transport":"stop_position","railway":"stop","station":"subway","subway":"yes"}},{"type":"node","id":5320425558,"lat":22.819575,"lon":108.3169657,"tags":{"name":"朝阳广场","name:en":"Chaoyang Square","name:za":"Cauzyangz Gvangjcangz","name:zh":"朝阳广场","operator":"南宁轨道交通","operator:en":"Nanning Rail Transit","operator:zh-Hant":"南寧軌道交通","public_transport":"station","railway":"station","station":"subway","subway":"yes","wikidata":"Q28070796"}},{"type":"node","id":5347046205,"lat":22.827647,"lon":108.3123107,"tags":{"name":"火车站","name:en":"Nanning Railway Station","name:za":"Hojcehcan","name:zh":"火车站","operator":"南宁轨道交通","operator:en":"Nanning Rail Transit","operator:zh-Hant":"南寧軌道交通","public_transport":"station","railway":"station","station":"subway","subway":"yes"}},{"type":"node","id":6518594208,"lat":22.8824859,"lon":108.2937772,"tags":{"name":"安吉客运站","name:en":"Anji Coach Station","name:yue":"安吉客运站","name:yue-Latn":"Ongat Haakwan Zaam","name:zh":"安吉客运站","operator":"南宁轨道交通","operator:en":"Nanning Rail Transit","operator:zh-Hant":"南寧軌道交通","public_transport":"station","railway":"station","station":"subway","subway":"yes","wikidata":"Q31656932"}},{"type":"node","id":6518594236,"lat":22.8815514,"lon":108.279882,"tags":{"name":"创业路","name:en":"Chuangye Road","operator":"南宁轨道交通","operator:en":"Nanning Rail Transit","operator:zh-Hant":"南寧軌道交通","public_transport":"station","railway":"station","station":"subway","subway":"yes","wikidata":"Q64232860"}},{"type":"node","id":6524758266,"lat":22.7777313,"lon":108.3720838,"tags":{"name":"市博物馆","name:en":"Nanning Museum","operator":"南宁轨道交通","operator:en":"Nanning Rail Transit","operator:zh-Hant":"南寧軌道交通","public_transport":"station","railway":"station","station":"subway","subway":"yes"}},{"type":"node","id":6524758273,"lat":22.7953456,"lon":108.3645032,"tags":{"name":"青秀山","name:en":"Qingxiushan","operator":"南宁轨道交通","operator:en":"Nanning Rail Transit","operator:zh-Hant":"南寧軌道交通","public_transport":"station","railway":"station","station":"subway","subway":"yes"}},{"type":"node","id":6524758283,"lat":22.8016296,"lon":108.3607972,"tags":{"name":"青竹立交","name:en":"Qingzhu Overpass","operator":"南宁轨道交通","operator:en":"Nanning Rail Transit","operator:zh-Hant":"南寧軌道交通","public_transport":"station","railway":"station","station":"subway","subway":"yes"}},{"type":"node","id":6524768687,"lat":22.8093979,"lon":108.3626126,"tags":{"name":"埌西","name:en":"Langxi","name:za":"Langsih","operator":"南宁轨道交通","operator:en":"Nanning Rail Transit","operator:zh-Hant":"南寧軌道交通","public_transport":"station","railway":"station","station":"subway","subway":"yes","wikipedia":"zh:埌西站"}},{"type":"node","id":6524768692,"lat":22.8276881,"lon":108.3655626,"tags":{"name":"滨湖路","name:en":"Binhu Road","operator":"南宁轨道交通","operator:en":"Nanning Rail Transit","operator:zh-Hant":"南寧軌道交通","public_transport":"station","railway":"station","station":"subway","subway":"yes"}},{"type":"node","id":6524768693,"lat":22.8330192,"lon":108.3557001,"tags":{"name":"东葛路","name:en":"Dongge Road","operator":"南宁轨道交通","operator:en":"Nanning Rail Transit","operator:zh-Hant":"南寧軌道交通","public_transport":"station","railway":"station","station":"subway","subway":"yes"}},{"type":"node","id":6524768694,"lat":22.8389284,"lon":108.3530688,"tags":{"name":"长堽路","name:en":"Changgang Road","operator":"南宁轨道交通","operator:en":"Nanning Rail Transit","operator:zh-Hant":"南寧軌道交通","public_transport":"station","railway":"station","station":"subway","subway":"yes"}},{"type":"node","id":6524768695,"lat":22.8752753,"lon":108.347375,"tags":{"name":"大鸡村","name:en":"Dajicun","name:za":"Dagihcunh","operator":"南宁轨道交通","operator:en":"Nanning Rail Transit","operator:zh-Hant":"南寧軌道交通","public_transport":"station","railway":"station","station":"subway","subway":"yes","wikipedia":"zh:大鸡村站"}},{"type":"node","id":6524768696,"lat":22.8590348,"lon":108.3518945,"tags":{"name":"小鸡村","name:en":"XIAO JICUN","name:za":"Siujgihcunh","name:zh":"小鸡村","network":"南宁轨道交通","operator":"南宁轨道交通","operator:en":"Nanning Rail Transit","operator:zh":"南宁轨道交通","operator:zh-Hans":"南宁轨道交通","operator:zh-Hant":"南寧軌道交通","public_transport":"station","railway":"station","station":"subway","subway":"yes","wikidata":"Q64231752","wikipedia":"zh:小鸡村站"}},{"type":"node","id":6524768697,"lat":22.8675601,"lon":108.3526372,"tags":{"name":"兴桂路","name:en":"Xinggui Road","operator":"南宁轨道交通","operator:en":"Nanning Rail Transit","operator:zh-Hant":"南寧軌道交通","public_transport":"station","railway":"station","station":"subway","subway":"yes"}},{"type":"node","id":6524768699,"lat":22.8784829,"lon":108.3363314,"tags":{"name":"邕武路","name:en":"Yongwu Road","operator":"南宁轨道交通","operator:en":"Nanning Rail Transit","operator:zh-Hant":"南寧軌道交通","public_transport":"station","railway":"station","station":"subway","subway":"yes"}},{"type":"node","id":6524768701,"lat":22.8811295,"lon":108.3272497,"tags":{"name":"秀峰路","name:en":"Xiufeng Road","operator":"南宁轨道交通","operator:en":"Nanning Rail Transit","operator:zh-Hant":"南寧軌道交通","public_transport":"station","railway":"station","station":"subway","subway":"yes"}},{"type":"node","id":6524768703,"lat":22.8789852,"lon":108.3124774,"tags":{"name":"北湖北路","name:en":"Beihubei Road","operator":"南宁轨道交通","operator:en":"Nanning Rail Transit","operator:zh-Hant":"南寧軌道交通","public_transport":"station","railway":"station","station":"subway","subway":"yes"}},{"type":"node","id":6524768704,"lat":22.8812133,"lon":108.2658318,"tags":{"name":"科园大道","name:en":"Keyuan Dadao","operator":"南宁轨道交通","operator:en":"Nanning Rail Transit","operator:zh-Hant":"南寧軌道交通","public_transport":"station","railway":"station","station":"subway","subway":"yes","wikidata":"Q64233090"}},{"type":"node","id":6524768709,"lat":22.8156674,"lon":108.3672543,"tags":{"name":"金湖广场","name:en":"JINHU Square","name:za":"Ginhhuz Gvangjcangz","name:zh":"金湖广场","operator":"南宁轨道交通","operator:en":"Nanning Rail Transit","operator:zh-Hant":"南寧軌道交通","public_transport":"station","railway":"station","station":"subway","subway":"yes"}},{"type":"node","id":6524816058,"lat":22.7598582,"lon":108.3737498,"tags":{"name":"广西规划馆","name:en":"Guangxi Planning Exhibition Hall","operator":"南宁轨道交通","operator:en":"Nanning Rail Transit","operator:zh-Hant":"南寧軌道交通","public_transport":"station","railway":"station","station":"subway","subway":"yes"}},{"type":"node","id":6528202618,"lat":22.7291402,"lon":108.3796805,"tags":{"name":"平良立交","name:en":"Pingliang Overpass","name:zh":"平良立交","operator":"南宁轨道交通","operator:en":"Nanning Rail Transit","operator:zh-Hant":"南寧軌道交通","public_transport":"station","railway":"station","start_date":"2020-11-23","station":"subway","subway":"yes"}},{"type":"node","id":6528202623,"lat":22.7415424,"lon":108.3800093,"tags":{"name":"五象湖","name:en":"Wuxiang Lake","name:zh":"五象湖","network":"Metro Line3","operator":"南宁轨道交通","operator:en":"Nanning Rail Transit","operator:zh-Hant":"南寧軌道交通","public_transport":"station","railway":"station","station":"subway","subway":"yes"}},{"type":"node","id":6528202625,"lat":22.7531383,"lon":108.3792181,"tags":{"name":"庆歌路","name:en":"Qing'ge Road","name:zh":"庆歌路","operator":"南宁轨道交通","operator:en":"Nanning Rail Transit","operator:zh-Hant":"南寧軌道交通","public_transport":"station","railway":"station","station":"subway","subway":"yes"}},{"type":"node","id":7820672767,"lat":22.7221353,"lon":108.3483781,"tags":{"name":"东风路","name:en":"Dongfeng Lu","name:zh":"东风路","operator":"南宁轨道交通","operator:en":"Nanning Rail Transit","operator:zh-Hant":"南寧軌道交通","public_transport":"station","railway":"station","start_date":"2020-11-23","station":"subway","subway":"yes"}},{"type":"node","id":7820672779,"lat":22.724155,"lon":108.356285,"tags":{"name":"玉岭路","name:en":"Yuling Lu","name:zh":"玉岭路","operator":"南宁轨道交通","operator:en":"Nanning Rail Transit","operator:zh-Hant":"南寧軌道交通","public_transport":"station","railway":"station","start_date":"2020-11-23","station":"subway","subway":"yes"}},{"type":"node","id":7870753998,"lat":22.8421617,"lon":108.4099123,"tags":{"name":"火车东站","name:en":"Nanning East Railway Station","name:za":"Hojceh Dunghcan","name:zh":"火车东站","operator":"南宁轨道交通","operator:en":"Nanning Rail Transit","operator:zh-Hant":"南寧軌道交通","public_transport":"station","railway":"station","station":"subway","subway":"yes"}},{"type":"node","id":7870753999,"lat":22.8155844,"lon":108.4062973,"tags":{"name":"凤岭","name:en":"FENGLING","name:za":"Funglingj","name:zh":"凤岭","operator":"南宁轨道交通","operator:en":"Nanning Rail Transit","operator:zh-Hant":"南寧軌道交通","public_transport":"station","railway":"station","station":"subway","subway":"yes"}},{"type":"node","id":7870754000,"lat":22.8156936,"lon":108.358815,"tags":{"name":"南湖","name:en":"NANHU","name:za":"Nanzhuz","name:zh":"南湖","operator":"南宁轨道交通","operator:en":"Nanning Rail Transit","operator:zh-Hant":"南寧軌道交通","public_transport":"station","railway":"station","station":"subway","subway":"yes"}},{"type":"node","id":7870754001,"lat":22.8157962,"lon":108.3227961,"tags":{"name":"新民路","name:en":"XINMIN LU","name:za":"Roen Sinhminz","name:zh":"新民路","operator":"南宁轨道交通","operator:en":"Nanning Rail Transit","operator:zh-Hant":"南寧軌道交通","public_transport":"station","railway":"station","station":"subway","subway":"yes","wikidata":"Q28119734"}},{"type":"node","id":7905547568,"lat":22.8484771,"lon":108.3508104,"tags":{"name":"东沟岭","name:en":"Donggouling","operator":"南宁轨道交通","operator:en":"Nanning Rail Transit","operator:zh-Hant":"南寧軌道交通","public_transport":"station","railway":"station","station":"subway","subway":"yes"}},{"type":"node","id":8140390441,"lat":22.766118,"lon":108.4617549,"tags":{"name":"龙岗","name:en":"Longgang","name:zh":"龙岗","operator":"南宁轨道交通","operator:en":"Nanning Rail Transit","operator:zh-Hant":"南寧軌道交通","public_transport":"station","railway":"station","station":"subway","subway":"yes","wikidata":"Q107309820"}},{"type":"node","id":8147782975,"lat":22.7622443,"lon":108.4506506,"tags":{"name":"清平坡","name:en":"Qingpingpo","name:zh":"清平坡","network":"南宁轨道交通","network:en":"Nanning Rail Transit","network:wikidata":"Q10907375","network:zh":"南宁轨道交通","operator":"南宁轨道交通","operator:en":"Nanning Rail Transit","operator:zh-Hant":"南寧軌道交通","public_transport":"station","railway":"station","station":"subway","subway":"yes"}},{"type":"node","id":8147782976,"lat":22.7680747,"lon":108.3880228,"tags":{"level":"-2","name":"体育中心西","name:en":"Guangxi Sports Center West","name:zh":"体育中心西","operator":"南宁轨道交通","operator:en":"Nanning Rail Transit","operator:zh-Hant":"南寧軌道交通","public_transport":"station","railway":"station","station":"subway","subway":"yes"}},{"type":"node","id":8147782977,"lat":22.7634337,"lon":108.3950988,"tags":{"level":"-2","name":"体育中心东","name:en":"Guangxi Sports Center East","name:zh":"体育中心东","operator":"南宁轨道交通","operator:en":"Nanning Rail Transit","operator:zh-Hant":"南寧軌道交通","public_transport":"station","railway":"station","station":"subway","subway":"yes"}},{"type":"node","id":8147782978,"lat":22.7575462,"lon":108.4021168,"tags":{"level":"-2","name":"良庆大桥南","name:en":"LIANGQING Bridge South","name:zh":"良庆大桥南","operator":"南宁轨道交通","operator:en":"Nanning Rail Transit","operator:zh-Hant":"南寧軌道交通","public_transport":"station","railway":"station","station":"subway","subway":"yes"}},{"type":"node","id":8147782979,"lat":22.7555784,"lon":108.4137588,"tags":{"level":"-2","name":"良庆圩","name:en":"LIANGQINGXU","name:zh":"良庆圩","operator":"南宁轨道交通","operator:en":"Nanning Rail Transit","operator:zh-Hant":"南寧軌道交通","public_transport":"station","railway":"station","station":"subway","subway":"yes"}},{"type":"node","id":8147782980,"lat":22.7569245,"lon":108.4247901,"tags":{"level":"-2","name":"楞塘村","name:en":"Lengtangcun","name:zh":"楞塘村","operator":"南宁轨道交通","operator:en":"Nanning Rail Transit","operator:zh-Hant":"南寧軌道交通","public_transport":"station","railway":"station","station":"subway","subway":"yes"}},{"type":"node","id":8147788429,"lat":22.7705451,"lon":108.3723601,"tags":{"level":"-2","name":"总部基地","name:en":"Advanced Business Park","name:zh":"总部基地","operator":"南宁轨道交通","operator:en":"Nanning Rail Transit","operator:zh-Hant":"南寧軌道交通","public_transport":"station","railway":"station","station":"subway","subway":"yes"}},{"type":"node","id":8147788430,"lat":22.7689962,"lon":108.3822802,"tags":{"level":"-2","name":"飞龙路","name:en":"FEILONG LU","name:zh":"飞龙路","operator":"南宁轨道交通","operator:en":"Nanning Rail Transit","operator:zh-Hant":"南寧軌道交通","public_transport":"station","railway":"station","station":"subway","subway":"yes"}},{"type":"node","id":8147809867,"lat":22.7684455,"lon":108.2378383,"tags":{"level":"-2","name":"洪运路","name:en":"Hongyun Lu","name:zh":"洪运路","operator":"南宁轨道交通","operator:en":"Nanning Rail Transit","operator:zh-Hant":"南寧軌道交通","public_transport":"station","railway":"station","station":"subway","subway":"yes"}},{"type":"node","id":8147809868,"lat":22.7711196,"lon":108.3588662,"tags":{"level":"-2","name":"玉象路","name:en":"YUXIANG LU","name:zh":"玉象路","operator":"南宁轨道交通","operator:en":"Nanning Rail Transit","operator:zh-Hant":"南寧軌道交通","public_transport":"station","railway":"station","station":"subway","subway":"yes"}},{"type":"node","id":8147809869,"lat":22.7635204,"lon":108.277563,"tags":{"level":"-2","name":"金阳路","name:en":"JINYANG LU","name:zh":"金阳路","operator":"南宁轨道交通","operator:en":"Nanning Rail Transit","operator:zh-Hant":"南寧軌道交通","public_transport":"station","railway":"station","station":"subway","subway":"yes"}},{"type":"node","id":8147809870,"lat":22.7635017,"lon":108.318809,"tags":{"level":"-2","name":"金象大道","name:en":"Jinxiang Dadao","name:zh":"金象大道","operator":"南宁轨道交通","operator:en":"Nanning Rail Transit","operator:zh-Hant":"南寧軌道交通","public_transport":"station","railway":"station","station":"subway","subway":"yes"}},{"type":"node","id":8147809871,"lat":22.7636257,"lon":108.2549822,"tags":{"level":"-2","name":"那历村","name:en":"NALICUN","name:zh":"那历村","operator":"南宁轨道交通","operator:en":"Nanning Rail Transit","operator:zh-Hant":"南寧軌道交通","public_transport":"station","railway":"station","station":"subway","subway":"yes"}},{"type":"node","id":8147809872,"lat":22.7613399,"lon":108.2964125,"tags":{"level":"-2","name":"通源路","name:en":"TONGYUAN LU","name:zh":"通源路","operator":"南宁轨道交通","operator:en":"Nanning Rail Transit","operator:zh-Hant":"南寧軌道交通","public_transport":"station","railway":"station","station":"subway","subway":"yes"}},{"type":"node","id":8147809873,"lat":22.7642833,"lon":108.3351607,"tags":{"level":"-2","name":"五象岭","name:en":"Wuxiangling","name:zh":"五象岭","operator":"南宁轨道交通","operator:en":"Nanning Rail Transit","operator:zh-Hant":"南寧軌道交通","public_transport":"station","railway":"station","station":"subway","subway":"yes"}},{"type":"node","id":8147809874,"lat":22.7636307,"lon":108.2669606,"tags":{"level":"-2","name":"那洪立交","name:en":"Nahong Overpass","name:za":"Nazhungz Lizgyauh","name:zh":"那洪立交","network":"南宁轨道交通","operator":"南宁轨道交通","operator:en":"Nanning Rail Transit","operator:zh":"南宁轨道交通","operator:zh-Hans":"南宁轨道交通","operator:zh-Hant":"南寧軌道交通","public_transport":"station","railway":"station","station":"subway","subway":"yes","wikidata":"Q107309807"}},{"type":"node","id":8151244743,"lat":22.7635481,"lon":108.3128889,"tags":{"level":"-2","name":"大沙田","name:en":"Dashatian","name:zh":"大沙田","operator":"南宁轨道交通","operator:en":"Nanning Rail Transit","operator:zh-Hant":"南寧軌道交通","public_transport":"station","railway":"station","station":"subway","subway":"yes","wikidata":"Q32051681","wikipedia":"zh:大沙田站(廣西)"}},{"type":"node","id":8151357007,"lat":22.72885,"lon":108.3923751,"tags":{"name":"坛泽","name:en":"Tanze","name:zh":"坛泽","operator":"南宁轨道交通","operator:en":"Nanning Rail Transit","operator:zh-Hant":"南寧軌道交通","public_transport":"station","railway":"station","start_date":"2020-11-23","station":"subway","subway":"yes"}},{"type":"node","id":8151357010,"lat":22.7276275,"lon":108.3693845,"tags":{"name":"那福路","name:en":"Nafu Lu","name:zh":"那福路","operator":"南宁轨道交通","operator:en":"Nanning Rail Transit","operator:zh-Hant":"南寧軌道交通","public_transport":"station","railway":"station","start_date":"2020-11-23","station":"subway","subway":"yes"}},{"type":"node","id":9289245750,"lat":22.8559216,"lon":108.3366891,"tags":{"name":"狮山公园","name:en":"SHISHAN Park","name:za":"Swhsanh Gunghyenz","name:zh":"狮山公园","network":"南宁轨道交通","operator":"南宁轨道交通","operator:en":"Nanning Rail Transit","operator:zh":"南宁轨道交通","operator:zh-Hans":"南宁轨道交通","operator:zh-Hant":"南寧軌道交通","public_transport":"station","railway":"station","station":"subway","subway":"yes"}},{"type":"node","id":9289245751,"lat":22.8674117,"lon":108.3814553,"tags":{"name":"金桥客运站","name:en":"JINQIAO Coach Station","name:za":"Camh Yinhhek Ginhgyauz","name:zh":"金桥客运站","network":"南宁轨道交通","operator":"南宁轨道交通","operator:en":"Nanning Rail Transit","operator:zh":"南宁轨道交通","operator:zh-Hans":"南宁轨道交通","operator:zh-Hant":"南寧軌道交通","public_transport":"station","railway":"station","station":"subway","subway":"yes"}},{"type":"node","id":9289245752,"lat":22.8653597,"lon":108.3698102,"tags":{"name":"降桥","name:en":"JIANGQIAO","name:za":"Gyanggyauz","name:zh":"降桥","network":"南宁轨道交通","operator":"南宁轨道交通","operator:en":"Nanning Rail Transit","operator:zh":"南宁轨道交通","operator:zh-Hans":"南宁轨道交通","operator:zh-Hant":"南寧軌道交通","public_transport":"station","railway":"station","station":"subway","subway":"yes"}},{"type":"node","id":9289245753,"lat":22.8400193,"lon":108.3017982,"tags":{"name":"秀灵路","name:en":"XIULING LU","name:za":"Roen Siulingz","name:zh":"秀灵路","network":"南宁轨道交通","operator":"南宁轨道交通","operator:en":"Nanning Rail Transit","operator:zh":"南宁轨道交通","operator:zh-Hans":"南宁轨道交通","operator:zh-Hant":"南寧軌道交通","public_transport":"station","railway":"station","station":"subway","subway":"yes"}},{"type":"node","id":9289245754,"lat":22.8469091,"lon":108.3178809,"tags":{"name":"北湖南路","name:en":"Beihunan Lu","name:za":"Roen Namz Bwzhuz","name:zh":"北湖南路","network":"南宁轨道交通","operator":"南宁轨道交通","operator:en":"Nanning Rail Transit","operator:zh":"南宁轨道交通","operator:zh-Hans":"南宁轨道交通","operator:zh-Hant":"南寧軌道交通","public_transport":"station","railway":"station","station":"subway","subway":"yes"}},{"type":"node","id":9289245755,"lat":22.8505587,"lon":108.3264788,"tags":{"name":"虎邱","name:en":"HUQIU","name:za":"Hujgiuh","name:zh":"虎邱","network":"南宁轨道交通","operator":"南宁轨道交通","operator:en":"Nanning Rail Transit","operator:zh":"南宁轨道交通","operator:zh-Hans":"南宁轨道交通","operator:zh-Hant":"南寧軌道交通","public_transport":"station","railway":"station","station":"subway","subway":"yes"}},{"type":"node","id":9289245756,"lat":22.8595592,"lon":108.3598459,"tags":{"name":"邕宾立交","name:en":"YONGBING Overpass","name:za":"Yunghbinh Lizgyauh","name:zh":"邕宾立交","network":"南宁轨道交通","operator":"南宁轨道交通","operator:en":"Nanning Rail Transit","operator:zh":"南宁轨道交通","operator:zh-Hans":"南宁轨道交通","operator:zh-Hant":"南寧軌道交通","public_transport":"station","railway":"station","station":"subway","subway":"yes"}},{"type":"node","id":9289282076,"lat":22.7568407,"lon":108.2678157,"tags":{"name":"国凯大道","name:en":"GUOKAI DADAO","name:za":"Daihloh Gozgaij","name:zh":"国凯大道","network":"南宁轨道交通","operator":"南宁轨道交通","operator:en":"Nanning Rail Transit","operator:zh":"南宁轨道交通","operator:zh-Hans":"南宁轨道交通","operator:zh-Hant":"南寧軌道交通","public_transport":"station","railway":"station","station":"subway","subway":"yes"}},{"type":"node","id":9289282077,"lat":22.7713416,"lon":108.2674449,"tags":{"name":"金凯路","name:en":"JINKAI LU","name:za":"Roen Ginhgaij","name:zh":"金凯路","network":"南宁轨道交通","operator":"南宁轨道交通","operator:en":"Nanning Rail Transit","operator:zh":"南宁轨道交通","operator:zh-Hans":"南宁轨道交通","operator:zh-Hant":"南寧軌道交通","public_transport":"station","railway":"station","station":"subway","subway":"yes"}},{"type":"node","id":9289282078,"lat":22.7837186,"lon":108.2676739,"tags":{"name":"江南公园","name:en":"JIANGNAN Park","name:za":"Gyanghnanz Gunghyenz","name:zh":"江南公园","network":"南宁轨道交通","operator":"南宁轨道交通","operator:en":"Nanning Rail Transit","operator:zh":"南宁轨道交通","operator:zh-Hans":"南宁轨道交通","operator:zh-Hant":"南寧軌道交通","public_transport":"station","railway":"station","station":"subway","subway":"yes"}},{"type":"node","id":9289282079,"lat":22.7922556,"lon":108.2681557,"tags":{"name":"周家坡","name:en":"ZHOUJIAPO","name:zh":"周家坡","network":"南宁轨道交通","operator":"南宁轨道交通","operator:en":"Nanning Rail Transit","operator:zh":"南宁轨道交通","operator:zh-Hans":"南宁轨道交通","operator:zh-Hant":"南寧軌道交通","public_transport":"station","railway":"station","station":"subway","subway":"yes"}},{"type":"node","id":9289282080,"lat":22.8031621,"lon":108.2714905,"tags":{"name":"五一立交","name:en":"WUYI Overpass","name:zh":"五一立交","network":"南宁轨道交通","operator":"南宁轨道交通","operator:en":"Nanning Rail Transit","operator:zh":"南宁轨道交通","operator:zh-Hans":"南宁轨道交通","operator:zh-Hant":"南寧軌道交通","public_transport":"station","railway":"station","station":"subway","subway":"yes"}},{"type":"node","id":9289282081,"lat":22.8217512,"lon":108.282516,"tags":{"name":"新秀公园","name:en":"XINXIU Park","name:za":"Sinhsiu Gunghyenz","name:zh":"新秀公园","network":"南宁轨道交通","operator":"南宁轨道交通","operator:en":"Nanning Rail Transit","operator:zh":"南宁轨道交通","operator:zh-Hans":"南宁轨道交通","operator:zh-Hant":"南寧軌道交通","public_transport":"station","railway":"station","station":"subway","subway":"yes"}},{"type":"node","id":9295444753,"lat":22.8510084,"lon":108.3029264,"tags":{"name":"秀厢","name:en":"Xiuxiang","name:yue":"秀厢","name:yue-Latn":"Slausloeng","name:zh":"秀厢","operator":"南宁轨道交通","operator:en":"Nanning Rail Transit","operator:zh-Hant":"南寧軌道交通","public_transport":"station","railway":"station","station":"subway","subway":"yes","wikidata":"Q31656987"}},{"type":"node","id":9295444790,"lat":22.8427898,"lon":108.3082737,"tags":{"name":"明秀路","name:en":"MINGXIU LU","name:yue":"明秀路","name:yue-Latn":"Mingslau Lu","name:za":"Roen Mingzsiu","name:zh":"明秀路","network":"南宁轨道交通","operator":"南宁轨道交通","operator:en":"Nanning Rail Transit","operator:zh":"南宁轨道交通","operator:zh-Hans":"南宁轨道交通","operator:zh-Hant":"南寧軌道交通","public_transport":"station","railway":"station","station":"subway","subway":"yes","wikidata":"Q31657050","wikipedia":"zh:明秀路站"}},{"type":"node","id":9295444821,"lat":22.8605475,"lon":108.2983384,"tags":{"name":"三十三中","name:en":"Nanning No. 33 Middle School","name:yue":"三十三中","name:yue-Latn":"Slaamsapslaam Zung","name:zh":"三十三中","operator":"南宁轨道交通","operator:en":"Nanning Rail Transit","operator:zh-Hant":"南寧軌道交通","public_transport":"station","railway":"station","station":"subway","subway":"yes","wikidata":"Q46999544"}},{"type":"node","id":9295444822,"lat":22.8718009,"lon":108.2955554,"tags":{"name":"苏卢","name:en":"Sulu","name:yue":"苏卢","name:yue-Latn":"Slulu","name:zh":"苏卢","operator":"南宁轨道交通","operator:en":"Nanning Rail Transit","operator:zh-Hant":"南寧軌道交通","public_transport":"station","railway":"station","station":"subway","subway":"yes","wikidata":"Q31656966"}},{"type":"node","id":9295444873,"lat":22.8920977,"lon":108.2945343,"tags":{"name":"西津","name:en":"Xijin","name:yue":"西津","name:yue-Latn":"Slaizan","name:zh":"西津","operator":"南宁轨道交通","operator:en":"Nanning Rail Transit","operator:zh-Hant":"南寧軌道交通","public_transport":"station","railway":"station","station":"subway","subway":"yes","wikidata":"Q31450429"}},{"type":"node","id":9299742089,"lat":22.7252409,"lon":108.3325441,"tags":{"name":"玉洞","name:en":"Yudong","name:zh":"玉洞","operator":"南宁轨道交通","operator:en":"Nanning Rail Transit","operator:zh-Hant":"南寧軌道交通","public_transport":"station","railway":"station","station":"subway","subway":"yes"}},{"type":"node","id":9299742090,"lat":22.7339322,"lon":108.3283175,"tags":{"name":"金象","name:en":"Jinxiang","name:zh":"金象","operator":"南宁轨道交通","operator:en":"Nanning Rail Transit","operator:zh-Hant":"南寧軌道交通","public_transport":"station","railway":"station","station":"subway","subway":"yes","wikidata":"Q32051635"}},{"type":"node","id":9299742091,"lat":22.7440189,"lon":108.3202158,"tags":{"name":"石子塘","name:en":"Shizitang","name:zh":"石子塘","operator":"南宁轨道交通","operator:en":"Nanning Rail Transit","operator:zh-Hant":"南寧軌道交通","public_transport":"station","railway":"station","station":"subway","subway":"yes","wikidata":"Q32051643"}},{"type":"node","id":9299742092,"lat":22.7693062,"lon":108.3081364,"tags":{"name":"江南客运站","name:en":"Jiangnan Coach Station","name:zh":"江南客运站","operator":"南宁轨道交通","operator:en":"Nanning Rail Transit","operator:zh-Hant":"南寧軌道交通","public_transport":"station","railway":"station","station":"subway","subway":"yes","wikidata":"Q32051756"}},{"type":"node","id":9299742093,"lat":22.7842614,"lon":108.3074663,"tags":{"name":"石柱岭","name:en":"Shizhuling","name:zh":"石柱岭","operator":"南宁轨道交通","operator:en":"Nanning Rail Transit","operator:zh-Hant":"南寧軌道交通","public_transport":"station","railway":"station","station":"subway","subway":"yes","wikidata":"Q32051808"}},{"type":"node","id":9299742094,"lat":22.7916683,"lon":108.3073395,"tags":{"name":"亭洪路","name:en":"Tinghong Lu","name:zh":"亭洪路","operator":"南宁轨道交通","operator:en":"Nanning Rail Transit","operator:zh-Hant":"南寧軌道交通","public_transport":"station","railway":"station","station":"subway","subway":"yes","wikidata":"Q32051820"}},{"type":"node","id":9299742095,"lat":22.8007014,"lon":108.3071904,"tags":{"name":"福建园","name:en":"Fujianyuan","name:zh":"福建园","operator":"南宁轨道交通","operator:en":"Nanning Rail Transit","operator:zh-Hant":"南寧軌道交通","public_transport":"station","railway":"station","station":"subway","subway":"yes","wikidata":"Q32051831"}},{"type":"node","id":9299742096,"lat":22.8069169,"lon":108.3095795,"tags":{"name":"南宁剧场","name:en":"Nanning Theater","name:zh":"南宁剧场","operator":"南宁轨道交通","operator:en":"Nanning Rail Transit","operator:zh-Hant":"南寧軌道交通","public_transport":"station","railway":"station","station":"subway","subway":"yes","wikidata":"Q32051846"}},{"type":"node","id":9299742111,"lat":22.7252712,"lon":108.3325924,"tags":{"name":"玉洞","name:en":"Yudong","name:zh":"玉洞","operator":"南宁轨道交通","operator:en":"Nanning Rail Transit","operator:zh-Hant":"南寧軌道交通","public_transport":"stop_position","railway":"stop","station":"subway","subway":"yes"}},{"type":"node","id":9351742422,"lat":22.7545603,"lon":108.3143561,"tags":{"name":"建设路","name:en":"Jianshe Lu","name:zh":"建设路","network":"南宁轨道交通","operator":"南宁轨道交通","operator:en":"Nanning Rail Transit","operator:zh":"南宁轨道交通","operator:zh-Hant":"南寧軌道交通","public_transport":"station","railway":"station","station":"subway","subway":"yes","wikidata":"Q32051675"}},{"type":"node","id":10588761259,"lat":22.8058229,"lon":108.2184076,"tags":{"name":"三津","public_transport":"station","railway":"station","station":"subway","subway":"yes"}},{"type":"node","id":10588761260,"lat":22.8058829,"lon":108.2323425,"tags":{"name":"华南城","public_transport":"station","railway":"station","station":"subway","subway":"yes"}},{"type":"node","id":10588761261,"lat":22.8058936,"lon":108.2403261,"tags":{"name":"华南城东","public_transport":"station","railway":"station","station":"subway","subway":"yes","wheelchair":"yes"}},{"type":"node","id":10588761262,"lat":22.8018894,"lon":108.2578976,"tags":{"name":"横岭","public_transport":"station","railway":"station","station":"subway","subway":"yes"}},{"type":"node","id":10588761263,"lat":22.8034634,"lon":108.2713445,"tags":{"name":"五一立交","public_transport":"station","railway":"station","station":"subway","subway":"yes"}},{"type":"node","id":10588761264,"lat":22.8016072,"lon":108.2795024,"tags":{"name":"新屋","public_transport":"station","railway":"station","station":"subway","subway":"yes"}},{"type":"node","id":10588761265,"lat":22.7976275,"lon":108.301157,"tags":{"name":"市一医院","public_transport":"station","railway":"station","station":"subway","subway":"yes"}},{"type":"node","id":10588761266,"lat":22.7977041,"lon":108.307813,"tags":{"name":"福建园","public_transport":"station","railway":"station","station":"subway","subway":"yes"}},{"type":"node","id":10588761267,"lat":22.8066927,"lon":108.3231754,"tags":{"name":"区医院","public_transport":"station","railway":"station","station":"subway","subway":"yes"}},{"type":"node","id":10588761268,"lat":22.8026522,"lon":108.3310189,"tags":{"name":"唐城路","public_transport":"station","railway":"station","station":"subway","subway":"yes"}},{"type":"node","id":10588761269,"lat":22.801185,"lon":108.3384385,"tags":{"name":"医科大","public_transport":"station","railway":"station","station":"subway","subway":"yes"}},{"type":"node","id":10588761270,"lat":22.8068661,"lon":108.3512607,"tags":{"name":"市三中","public_transport":"station","railway":"station","station":"subway","subway":"yes"}},{"type":"node","id":10588761271,"lat":22.8108698,"lon":108.364248,"tags":{"name":"埌西","public_transport":"station","railway":"station","station":"subway","subway":"yes"}},{"type":"node","id":10588761272,"lat":22.8047979,"lon":108.3743476,"tags":{"name":"会展中心南","public_transport":"station","railway":"station","station":"subway","subway":"yes"}},{"type":"node","id":10588761273,"lat":22.8038829,"lon":108.388313,"tags":{"name":"青秀路","public_transport":"station","railway":"station","station":"subway","subway":"yes"}},{"type":"node","id":10588761275,"lat":22.8091492,"lon":108.4050656,"tags":{"name":"市科技馆","public_transport":"station","railway":"station","station":"subway","subway":"yes"}},{"type":"node","id":10588761276,"lat":22.8127752,"lon":108.424428,"tags":{"name":"林里桥","public_transport":"station","railway":"station","station":"subway","subway":"yes"}},{"type":"node","id":10588761277,"lat":22.8117267,"lon":108.4409903,"tags":{"name":"开泰路","public_transport":"station","railway":"station","station":"subway","subway":"yes"}},{"type":"node","id":10588761278,"lat":22.8112031,"lon":108.4543096,"tags":{"name":"天池山","public_transport":"station","railway":"station","station":"subway","subway":"yes"}},{"type":"node","id":12145464389,"lat":22.8077344,"lon":108.394567,"tags":{"name":"合作路","public_transport":"station","railway":"station","station":"subway","subway":"yes"}},{"type":"way","id":765498805,"center":{"lat":22.8018771,"lon":108.3604422},"nodes":[7149506645,7149506650,7149506665,7149506649,7149506651,7149506652,7149506656,7149506666,7149506655,7149506653,7149506654,7149506646,7149506664,7149506663,7149506647,7149506662,7149506657,7149506659,7149506667,7149506661,7149506660,7149506658,7149506648,7149506645],"tags":{"building":"yes","layer":"-1","location":"underground","name":"青竹立交","public_transport":"station","railway":"station","station":"subway","subway":"yes"}}]}