{"elements":[{"type":"node","id":2013985,"lat":51.6303684,"lon":-0.179134,"tags":{"name":"Totteridge & Whetstone","operator":"Transport for London","public_transport":"stop_position","railway":"stop","subway":"yes"}},{"type":"node","id":7993108,"lat":51.5302977,"lon":-0.2932869,"tags":{"line":"Central","name":"Hanger Lane","network":"London Underground","network:wikidata":"Q20075","operator":"Transport for London","public_transport":"stop_position","railway":"stop","subway":"yes"}},{"type":"node","id":11776731,"lat":51.5154494,"lon":-0.1754622,"tags":{"name":"Paddington","name:ru":"Паддингтон","operator":"London Underground","public_transport":"stop_position","railway":"stop","subway":"yes"}},{"type":"node","id":12854648,"lat":51.5685401,"lon":0.0085731,"tags":{"name":"Leytonstone","network":"London Underground","operator":"London Underground","public_transport":"stop_position","railway":"stop","subway":"yes"}},{"type":"node","id":12854833,"lat":51.5414704,"lon":-0.0036065,"tags":{"name":"Stratford","operator":"London Underground","public_transport":"stop_position","railway":"stop","ref":"3;3a","subway":"yes"}},{"type":"node","id":13330343,"lat":51.6066349,"lon":0.0339455,"tags":{"name":"Woodford","network":"London Underground","network:wikidata":"Q20075","operator":"London Underground","operator:wikidata":"Q20075","public_transport":"stop_position","railway":"stop","subway":"yes","wheelchair":"yes"}},{"type":"node","id":13330350,"lat":51.5919244,"lon":0.0274819,"tags":{"name":"South Woodford","network":"London Underground","network:wikidata":"Q20075","operator":"London Underground","operator:wikidata":"Q20075","public_transport":"stop_position","railway":"stop","subway":"yes"}},{"type":"node","id":13790683,"lat":51.5253233,"lon":-0.0334206,"tags":{"name":"Mile End","network":"London Underground","operator":"London Underground","public_transport":"stop_position","railway":"stop","subway":"yes"}},{"type":"node","id":18395697,"lat":51.5106943,"lon":-0.0860638,"tags":{"name":"Monument","network":"London Underground","operator":"London Underground","public_transport":"stop_position","railway":"stop","subway":"yes"}},{"type":"node","id":19137784,"lat":51.548611,"lon":-0.3704288,"tags":{"name":"Northolt","operator":"Transport for London","public_transport":"stop_position","railway":"stop","ref":"1","subway":"yes"}},{"type":"node","id":20698965,"lat":51.5025332,"lon":-0.2795634,"tags":{"name":"Acton Town","operator":"Transport for London","public_transport":"stop_position","railway":"stop","subway":"yes"}},{"type":"node","id":20955753,"lat":51.5150298,"lon":-0.3010518,"tags":{"name":"Ealing Broadway","network":"London Underground","operator":"London Underground","public_transport":"stop_position","railway":"stop","ref":"6","subway":"yes"}},{"type":"node","id":20955782,"lat":51.5102341,"lon":-0.2881914,"tags":{"line":"District, Piccadilly","name":"Ealing Common","network":"London Underground","operator":"Transport for London","public_transport":"stop_position","railway":"stop","subway":"yes"}},{"type":"node","id":21095010,"lat":51.5216851,"lon":-0.0467219,"tags":{"name":"Stepney Green","operator":"London Underground","public_transport":"stop_position","railway":"stop","subway":"yes"}},{"type":"node","id":21414938,"lat":51.6717195,"lon":0.1032708,"tags":{"level":"0","name":"Theydon Bois","network":"London Underground","operator":"Transport for London","public_transport":"stop_position","railway":"stop","ref":"2","subway":"yes"}},{"type":"node","id":21508069,"lat":51.5160063,"lon":-0.1303793,"tags":{"name":"Tottenham Court Road","network":"London Underground","operator":"London Underground","public_transport":"stop_position","railway":"stop","ref":"3","subway":"yes","wikidata":"Q1431094","wikimedia_commons":"Category:Tottenham_Court_Road_tube_station","wikipedia":"en:Tottenham Court Road station"}},{"type":"node","id":21596803,"lat":51.5540389,"lon":0.2188012,"tags":{"name":"Hornchurch","operator":"Transport for London","public_transport":"stop_position","railway":"stop","ref":"2","source":"Survey of 2014-08-31","subway":"yes"}},{"type":"node","id":25030425,"lat":51.5297951,"lon":-0.1859863,"tags":{"name":"Maida Vale","name:ru":"Мейда-вейл","network":"London Underground","public_transport":"stop_position","railway":"stop","subway":"yes"}},{"type":"node","id":25531617,"lat":51.5186534,"lon":-0.2800132,"tags":{"line":"Central","name":"West Acton","network":"London Underground","operator":"Transport for London","public_transport":"stop_position","railway":"stop","subway":"yes"}},{"type":"node","id":25542662,"lat":51.5858142,"lon":0.088647,"tags":{"name":"Barkingside","network":"London Underground","network:wikidata":"Q20075","operator":"Transport for London","public_transport":"stop_position","railway":"stop","subway":"yes"}},{"type":"node","id":25578775,"lat":51.5754803,"lon":0.0899485,"tags":{"name":"Newbury Park","network":"London Underground","network:wikidata":"Q20075","operator":"Transport for London","public_transport":"stop_position","railway":"stop","subway":"yes"}},{"type":"node","id":25643787,"lat":51.6170867,"lon":0.043884,"tags":{"level":"0","name":"Roding Valley","network":"London Underground","network:wikidata":"Q20075","operator":"Transport for London","public_transport":"stop_position","railway":"stop","ref":"1","subway":"yes"}},{"type":"node","id":25831017,"lat":51.53946,"lon":-0.1423225,"tags":{"name":"Camden Town","operator":"London Underground","public_transport":"stop_position","railway":"stop","subway":"yes"}},{"type":"node","id":26267078,"lat":51.5824307,"lon":-0.0741898,"tags":{"name":"Seven Sisters","network":"London Underground","operator":"Transport for London","public_transport":"stop_position","railway":"stop","subway":"yes"}},{"type":"node","id":26374016,"lat":51.5101973,"lon":-0.1872283,"tags":{"name":"Queensway","name:ru":"Квинсвей","network":"London Underground","operator":"Transport for London","public_transport":"stop_position","railway":"stop","subway":"yes"}},{"type":"node","id":26374027,"lat":51.5123038,"lon":-0.188251,"tags":{"name":"Bayswater","network":"London Underground","operator":"Transport for London","public_transport":"stop_position","railway":"stop","subway":"yes"}},{"type":"node","id":26374056,"lat":51.5116952,"lon":-0.1750689,"tags":{"name":"Lancaster Gate","network":"London Underground","operator":"Transport for London","public_transport":"stop_position","railway":"stop","subway":"yes"}},{"type":"node","id":26631299,"lat":51.505721,"lon":-0.1415305,"tags":{"name":"Green Park","network":"London Underground","network:wikidata":"Q20075","operator":"London Underground","public_transport":"stop_position","railway":"stop","subway":"yes","wheelchair":"yes"}},{"type":"node","id":26634145,"lat":51.5351104,"lon":-0.1941674,"tags":{"level":"-1","name":"Kilburn Park","network":"London Underground","operator":"London Underground","public_transport":"stop_position","railway":"stop","subway":"yes"}},{"type":"node","id":26746932,"lat":51.5176447,"lon":-0.1193216,"tags":{"level":"-2","name":"Holborn","network":"London Underground","operator":"London Underground","public_transport":"stop_position","railway":"stop","subway":"yes","wikidata":"Q1433544","wikipedia":"en:Holborn tube station"}},{"type":"node","id":27496891,"lat":51.6936038,"lon":0.1139223,"tags":{"name":"Epping","operator":"Transport for London","public_transport":"stop_position","railway":"stop","ref":"2","subway":"yes"}},{"type":"node","id":27511953,"lat":51.5417108,"lon":0.146783,"tags":{"name":"Dagenham Heathway","operator":"Transport for London","public_transport":"stop_position","railway":"stop","ref":"2","source":"Survey of 2014-09-01","subway":"yes","train":"yes"}},{"type":"node","id":27555804,"lat":51.5246057,"lon":-0.1377493,"tags":{"name":"Warren Street","network":"London Underground","operator":"London Underground","public_transport":"stop_position","railway":"stop","subway":"yes","wheelchair":"no"}},{"type":"node","id":27605421,"lat":51.6033077,"lon":0.0934109,"tags":{"name":"Hainault","network":"London Underground","network:wikidata":"Q20075","operator":"Transport for London","public_transport":"stop_position","railway":"stop","subway":"yes"}},{"type":"node","id":28108911,"lat":51.518255,"lon":-0.1139742,"tags":{"name":"Chancery Lane","network":"London Underground","operator":"London Underground","public_transport":"stop_position","railway":"stop","subway":"yes"}},{"type":"node","id":29034424,"lat":51.5271395,"lon":-0.0544557,"tags":{"layer":"-2","level":"-2","name":"Bethnal Green","network":"London Underground","operator":"Transport for London","public_transport":"stop_position","railway":"stop","ref":"1","subway":"yes"}},{"type":"node","id":31907614,"lat":51.5236375,"lon":-0.1466069,"tags":{"name":"Regent's Park","name:da":"Regent's Park Station","name:ru":"Риджентс-парк","network":"London Underground","public_transport":"stop_position","railway":"stop","subway":"yes"}},{"type":"node","id":32351072,"lat":51.5204413,"lon":-0.1702657,"tags":{"level":"-3","name":"Edgware Road","operator":"London Underground","public_transport":"stop_position","railway":"stop","ref":"1","subway":"yes"}},{"type":"node","id":34039081,"lat":51.402391,"lon":-0.1946872,"tags":{"line":"Northern","name":"Morden","network":"London Underground","network:wikidata":"Q20075","operator":"Transport for London","public_transport":"stop_position","railway":"stop","subway":"yes"}},{"type":"node","id":34103191,"lat":51.5307113,"lon":-0.1243426,"tags":{"layer":"-5","name":"King's Cross St Pancras","name:kn":"ಕಿಂಗ್ಸ್ ಕ್ರಾಸ್ ಸೆಂಟ್ ಪ್ಯಾಂಕ್ರಸ್","name:ru":"Кингс-Кросс Сент-Панкрасс","network":"London Underground","operator":"London Underground","public_transport":"stop_position","railway":"stop","subway":"yes","wheelchair":"yes"}},{"type":"node","id":34577402,"lat":51.4952391,"lon":-0.2544167,"tags":{"level":"1","name":"Turnham Green","network":"London Underground","network:wikidata":"Q20075","operator":"Transport for London","public_transport":"stop_position","railway":"stop","ref":"4","subway":"yes"}},{"type":"node","id":34595045,"lat":51.5755808,"lon":0.0286698,"tags":{"name":"Wanstead","operator":"Transport for London","public_transport":"stop_position","railway":"stop","subway":"yes"}},{"type":"node","id":34595047,"lat":51.5764105,"lon":0.0647865,"tags":{"level":"-2","name":"Gants Hill","network":"London Underground","network:wikidata":"Q20075","operator":"Transport for London","public_transport":"stop_position","railway":"stop","subway":"yes"}},{"type":"node","id":64767750,"lat":51.5098716,"lon":-0.0766367,"tags":{"name":"Tower Hill","operator":"London Underground","public_transport":"stop_position","railway":"stop","subway":"yes"}},{"type":"node","id":64772416,"lat":51.5114806,"lon":-0.0903013,"tags":{"name":"Cannon Street","operator":"London Underground","public_transport":"stop_position","railway":"stop","subway":"yes"}},{"type":"node","id":64775110,"lat":51.5118216,"lon":-0.0952117,"tags":{"name":"Mansion House","network":"London Underground","operator":"Transport for London","public_transport":"stop_position","railway":"stop","subway":"yes"}},{"type":"node","id":70594714,"lat":51.5361968,"lon":-0.2574201,"tags":{"name":"Harlesden","operator":"Transport for London","public_transport":"stop_position","railway":"stop","ref":"1","subway":"yes","train":"yes"}},{"type":"node","id":70739100,"lat":51.5066338,"lon":-0.1229841,"tags":{"name":"Embankment","operator":"London Underground","public_transport":"stop_position","railway":"stop","subway":"yes"}},{"type":"node","id":70769747,"lat":51.5566155,"lon":-0.1782918,"tags":{"destination":"Kennington;Morden","layer":"-3","level":"-4","line":"Northern","name":"Hampstead","network":"London Underground","operator":"Transport for London","public_transport":"stop_position","railway":"stop","ref":"2","subway":"yes","wikidata":"Q1890387"}},{"type":"node","id":70833764,"lat":51.5153108,"lon":-0.1298795,"tags":{"name":"Tottenham Court Road","network":"London Underground","operator":"London Underground","public_transport":"stop_position","railway":"stop","ref":"4","subway":"yes","wikidata":"Q1431094","wikimedia_commons":"Category:Tottenham_Court_Road_tube_station","wikipedia":"en:Tottenham Court Road station"}},{"type":"node","id":70833777,"lat":51.5119071,"lon":-0.1283486,"tags":{"level":"-4","name":"Leicester Square","operator":"London Underground","public_transport":"stop_position","railway":"stop","subway":"yes"}},{"type":"node","id":87553546,"lat":51.5878702,"lon":-0.0615895,"tags":{"name":"Tottenham Hale","network":"London Underground","operator":"Transport for London","public_transport":"stop_position","railway":"stop","subway":"yes"}},{"type":"node","id":89436145,"lat":51.5341642,"lon":-0.2048001,"tags":{"name":"Queen's Park","operator":"Transport for London","public_transport":"stop_position","railway":"stop","ref":"2","subway":"yes"}},{"type":"node","id":117921884,"lat":51.535378,"lon":0.0350852,"tags":{"name":"Upton Park","operator":"Transport for London","public_transport":"stop_position","railway":"stop","subway":"yes"}},{"type":"node","id":118208899,"lat":51.5396162,"lon":0.0810967,"tags":{"name":"Barking","operator":"London Underground","operator:wikidata":"Q20075","public_transport":"stop_position","railway":"stop","ref":"2","subway":"yes"}},{"type":"node","id":129956964,"lat":51.5343579,"lon":-0.1385393,"tags":{"name":"Mornington Crescent","network":"London Underground","operator":"London Underground","public_transport":"stop_position","railway":"stop","subway":"yes","wheelchair":"no"}},{"type":"node","id":129996254,"lat":51.5247889,"lon":-0.0115318,"tags":{"name":"Bromley-By-Bow","operator":"Transport for London","public_transport":"stop_position","railway":"stop","ref":"2","subway":"yes"}},{"type":"node","id":178777637,"lat":51.5075319,"lon":-0.1283355,"tags":{"name":"Charing Cross","operator":"London Underground","public_transport":"stop_position","railway":"stop","subway":"yes"}},{"type":"node","id":178805960,"lat":51.5025368,"lon":-0.1125462,"tags":{"layer":"-2","name":"Waterloo","network":"London Underground","network:wikidata":"Q20075","operator":"London Underground","public_transport":"stop_position","railway":"stop","subway":"yes","wikimedia_commons":"Category:London Waterloo station"}},{"type":"node","id":181505582,"lat":51.5202304,"lon":-0.0987257,"tags":{"layer":"-2","name":"Barbican","network":"London Underground","operator":"London Underground","public_transport":"stop_position","railway":"stop","ref":"1","subway":"yes"}},{"type":"node","id":181609639,"lat":51.4921741,"lon":-0.1555475,"tags":{"name":"Sloane Square","public_transport":"stop_position","railway":"stop","subway":"yes"}},{"type":"node","id":248200076,"lat":51.5156556,"lon":-0.1420167,"tags":{"name":"Oxford Circus","network":"London Underground","network:wikidata":"Q20075","operator":"London Underground","public_transport":"stop_position","railway":"stop","subway":"yes","wikidata":"Q678791","wikipedia":"en:Oxford Circus tube station"}},{"type":"node","id":254681783,"lat":51.5152274,"lon":-0.301372,"tags":{"name":"Ealing Broadway","network":"London Underground","operator":"London Underground","public_transport":"stop_position","railway":"stop","ref":"9","subway":"yes"}},{"type":"node","id":441947585,"lat":51.4963553,"lon":-0.1440984,"tags":{"name":"Victoria","operator":"London Underground","public_transport":"stop_position","railway":"stop","subway":"yes"}},{"type":"node","id":464784549,"lat":51.5163808,"lon":-0.1758811,"tags":{"name":"Paddington","name:ru":"Паддингтон","operator":"London Underground","public_transport":"stop_position","railway":"stop","subway":"yes"}},{"type":"node","id":601141526,"lat":51.522259,"lon":-0.1566498,"tags":{"name":"Baker Street","operator":"London Underground","public_transport":"stop_position","railway":"stop","subway":"yes"}},{"type":"node","id":601141534,"lat":51.5231217,"lon":-0.1575496,"tags":{"name":"Baker Street","operator":"London Underground","public_transport":"stop_position","railway":"stop","subway":"yes"}},{"type":"node","id":606162976,"lat":51.5383834,"lon":0.1006226,"tags":{"name":"Upney","operator":"Transport for London","public_transport":"stop_position","railway":"stop","ref":"2","source":"Survey of 2014-09-04","subway":"yes"}},{"type":"node","id":610580387,"lat":51.5415826,"lon":-0.0037262,"tags":{"name":"Stratford","operator":"London Underground","public_transport":"stop_position","railway":"stop","ref":"6","subway":"yes"}},{"type":"node","id":961587777,"lat":51.5252369,"lon":-0.033369,"tags":{"name":"Mile End","network":"London Underground","operator":"London Underground","public_transport":"stop_position","railway":"stop","subway":"yes"}},{"type":"node","id":1047973190,"lat":51.5097755,"lon":-0.0766185,"tags":{"name":"Tower Hill","operator":"London Underground","public_transport":"stop_position","railway":"stop","subway":"yes"}},{"type":"node","id":1233789283,"lat":51.5873739,"lon":-0.1654115,"tags":{"name":"East Finchley","public_transport":"stop_position","railway":"stop","subway":"yes"}},{"type":"node","id":1233789330,"lat":51.600867,"lon":-0.1926765,"tags":{"name":"Finchley Central","network":"London Underground","public_transport":"stop_position","railway":"stop","ref":"1","subway":"yes"}},{"type":"node","id":1240998998,"lat":51.6504841,"lon":-0.1940163,"tags":{"name":"High Barnet","public_transport":"stop_position","railway":"stop","subway":"yes"}},{"type":"node","id":1255833484,"lat":51.5184283,"lon":-0.1786485,"tags":{"name":"Paddington","operator":"London Underground","public_transport":"stop_position","railway":"stop","ref":"15","subway":"yes"}},{"type":"node","id":1258241734,"lat":51.5208236,"lon":-0.1052085,"tags":{"level":"-1","name":"Farringdon","name:ru":"Фаррингдон","operator":"Transport for London","public_transport":"stop_position","railway":"stop","subway":"yes"}},{"type":"node","id":1259856278,"lat":51.5442547,"lon":-0.1534021,"tags":{"line":"Northern","name":"Chalk Farm","network":"London Underground","operator":"Transport for London","public_transport":"stop_position","railway":"stop","subway":"yes"}},{"type":"node","id":1259893032,"lat":51.5237975,"lon":-0.1438686,"tags":{"level":"-3","name":"Great Portland Street","name:ru":"Грейт-Портленд-стрит","network":"London Underground","operator":"Transport for London","public_transport":"stop_position","railway":"stop","subway":"yes"}},{"type":"node","id":1263027649,"lat":51.5011187,"lon":-0.1251817,"tags":{"name":"Westminster","operator":"London Underground","public_transport":"stop_position","railway":"stop","subway":"yes"}},{"type":"node","id":1263067940,"lat":51.5282784,"lon":-0.1340079,"tags":{"name":"Euston","operator":"London Underground","public_transport":"stop_position","railway":"stop","subway":"yes"}},{"type":"node","id":1263113380,"lat":51.5284457,"lon":-0.1327972,"tags":{"name":"Euston","network":"London Underground","operator":"London Underground","public_transport":"stop_position","railway":"stop","subway":"yes"}},{"type":"node","id":1263113381,"lat":51.5285438,"lon":-0.1322216,"tags":{"name":"Euston","network":"London Underground","operator":"London Underground","public_transport":"stop_position","railway":"stop","subway":"yes"}},{"type":"node","id":1263113387,"lat":51.5284038,"lon":-0.131945,"tags":{"name":"Euston","operator":"London Underground","public_transport":"stop_position","railway":"stop","subway":"yes"}},{"type":"node","id":1263113388,"lat":51.5287875,"lon":-0.1324887,"tags":{"name":"Euston","operator":"London Underground","public_transport":"stop_position","railway":"stop","subway":"yes"}},{"type":"node","id":1263322336,"lat":51.4876575,"lon":-0.106554,"tags":{"name":"Kennington","operator":"Transport for London","public_transport":"stop_position","railway":"stop","subway":"yes"}},{"type":"node","id":1263322349,"lat":51.4887057,"lon":-0.1056501,"tags":{"name":"Kennington","operator":"Transport for London","public_transport":"stop_position","railway":"stop","subway":"yes"}},{"type":"node","id":1264646142,"lat":51.518488,"lon":-0.178584,"tags":{"name":"Paddington","operator":"London Underground","public_transport":"stop_position","railway":"stop","ref":"16","subway":"yes"}},{"type":"node","id":1264705751,"lat":51.5203846,"lon":-0.1662143,"tags":{"name":"Edgware Road","operator":"Transport for London","public_transport":"stop_position","railway":"stop","subway":"yes"}},{"type":"node","id":1270856914,"lat":51.5208186,"lon":-0.1052548,"tags":{"level":"-1","name":"Farringdon","name:ru":"Фаррингдон","operator":"Transport for London","public_transport":"stop_position","railway":"stop","subway":"yes"}},{"type":"node","id":1272139014,"lat":51.5222403,"lon":-0.1635969,"tags":{"name":"Marylebone","operator":"Transport for London","public_transport":"stop_position","railway":"stop","subway":"yes"}},{"type":"node","id":1272869567,"lat":51.5088889,"lon":-0.1260127,"tags":{"name":"Charing Cross","operator":"London Underground","public_transport":"stop_position","railway":"stop","subway":"yes"}},{"type":"node","id":1274041984,"lat":51.5074191,"lon":-0.1283193,"tags":{"name":"Charing Cross","operator":"London Underground","public_transport":"stop_position","railway":"stop","subway":"yes"}},{"type":"node","id":1288249466,"lat":51.5183795,"lon":-0.0891531,"tags":{"name":"Moorgate","name:ru":"Мургейт","operator":"London Underground","public_transport":"stop_position","railway":"stop","subway":"yes"}},{"type":"node","id":1288249468,"lat":51.5185899,"lon":-0.0882115,"tags":{"name":"Moorgate","operator":"London Underground","public_transport":"stop_position","railway":"stop","subway":"yes"}},{"type":"node","id":1337866094,"lat":51.5395587,"lon":-0.1430587,"tags":{"name":"Camden Town","operator":"London Underground","public_transport":"stop_position","railway":"stop","subway":"yes"}},{"type":"node","id":1337866095,"lat":51.5396902,"lon":-0.1424036,"tags":{"name":"Camden Town","operator":"London Underground","public_transport":"stop_position","railway":"stop","subway":"yes"}},{"type":"node","id":1508498149,"lat":51.4904269,"lon":-0.214492,"tags":{"name":"Barons Court","operator":"Transport for London","public_transport":"stop_position","railway":"stop","subway":"yes"}},{"type":"node","id":1508498232,"lat":51.4922031,"lon":-0.2230822,"tags":{"level":"-1","name":"Hammersmith","operator":"London Underground","public_transport":"stop_position","railway":"stop","subway":"yes"}},{"type":"node","id":1525365501,"lat":51.5149182,"lon":-0.3008709,"tags":{"name":"Ealing Broadway","network":"London Underground","operator":"London Underground","public_transport":"stop_position","railway":"stop","ref":"5","subway":"yes"}},{"type":"node","id":1525365517,"lat":51.5301886,"lon":-0.2933143,"tags":{"line":"Central","name":"Hanger Lane","network":"London Underground","network:wikidata":"Q20075","operator":"Transport for London","public_transport":"stop_position","railway":"stop","subway":"yes"}},{"type":"node","id":1525365534,"lat":51.5180135,"lon":-0.2808512,"tags":{"line":"Central","name":"West Acton","network":"London Underground","operator":"Transport for London","public_transport":"stop_position","railway":"stop","subway":"yes"}},{"type":"node","id":1528614957,"lat":51.5585201,"lon":0.2354565,"tags":{"name":"Upminster Bridge","operator":"Transport for London","public_transport":"stop_position","railway":"stop","ref":"2","source":"Survey of 2014-09-05","subway":"yes"}},{"type":"node","id":1555998555,"lat":51.6717139,"lon":0.1033195,"tags":{"level":"0","name":"Theydon Bois","network":"London Underground","operator":"Transport for London","public_transport":"stop_position","railway":"stop","ref":"1","subway":"yes"}},{"type":"node","id":1555998673,"lat":51.6934076,"lon":0.113805,"tags":{"name":"Epping","operator":"Transport for London","public_transport":"stop_position","railway":"stop","ref":"1","subway":"yes"}},{"type":"node","id":1558436525,"lat":51.6259566,"lon":0.0467946,"tags":{"name":"Buckhurst Hill","network":"London Underground","network:wikidata":"Q20075","operator":"Transport for London","public_transport":"stop_position","railway":"stop","subway":"yes"}},{"type":"node","id":1558436526,"lat":51.6452929,"lon":0.0835733,"tags":{"name":"Debden","network":"London Underground","operator":"Transport for London","public_transport":"stop_position","railway":"stop","ref":"2","subway":"yes"}},{"type":"node","id":1558436528,"lat":51.6066431,"lon":0.0339019,"tags":{"name":"Woodford","network":"London Underground","network:wikidata":"Q20075","operator":"London Underground","operator:wikidata":"Q20075","public_transport":"stop_position","railway":"stop","source_ref":"http://en.wikipedia.org/wiki/List_of_London_Underground_stations","subway":"yes","wheelchair":"yes"}},{"type":"node","id":1558436611,"lat":51.6417896,"lon":0.0563806,"tags":{"fixme":"Need to verify stop_postions are where the tube stops (not madatory, but nice)","name":"Loughton","operator":"Transport for London","public_transport":"stop_position","railway":"stop","ref":"4","subway":"yes"}},{"type":"node","id":1577814240,"lat":51.5309643,"lon":-0.1216069,"tags":{"layer":"-3","name":"King's Cross St Pancras","name:ru":"Кингс-Кросс Сент-Панкрасс","network":"London Underground","operator":"London Underground","public_transport":"stop_position","railway":"stop","subway":"yes"}},{"type":"node","id":1577814287,"lat":51.5295915,"lon":-0.124545,"tags":{"layer":"-2","name":"King's Cross St Pancras","name:ru":"Кингс-Кросс Сент-Панкрасс","network":"London Underground","operator":"London Underground","public_transport":"stop_position","railway":"stop","subway":"yes"}},{"type":"node","id":1581531088,"lat":51.6176969,"lon":0.0755211,"tags":{"name":"Chigwell","network":"London Underground","network:wikidata":"Q20075","operator":"Transport for London","public_transport":"stop_position","railway":"stop","subway":"yes"}},{"type":"node","id":1581531089,"lat":51.5959458,"lon":0.0911452,"tags":{"name":"Fairlop","network":"London Underground","network:wikidata":"Q20075","operator":"Transport for London","public_transport":"stop_position","railway":"stop","subway":"yes"}},{"type":"node","id":1581531093,"lat":51.6131556,"lon":0.0925536,"tags":{"level":"-1","name":"Grange Hill","network":"London Underground","network:wikidata":"Q20075","operator":"Transport for London","public_transport":"stop_position","railway":"stop","ref":"2","subway":"yes"}},{"type":"node","id":1581531102,"lat":51.6033034,"lon":0.0934581,"tags":{"name":"Hainault","network":"London Underground","network:wikidata":"Q20075","operator":"Transport for London","public_transport":"stop_position","railway":"stop","subway":"yes"}},{"type":"node","id":1581531103,"lat":51.6171184,"lon":0.0438902,"tags":{"name":"Roding Valley","network":"London Underground","network:wikidata":"Q20075","operator":"Transport for London","public_transport":"stop_position","railway":"stop","ref":"2","subway":"yes"}},{"type":"node","id":1581574576,"lat":51.5858143,"lon":0.0886838,"tags":{"name":"Barkingside","network":"London Underground","network:wikidata":"Q20075","operator":"Transport for London","public_transport":"stop_position","railway":"stop","subway":"yes"}},{"type":"node","id":1581574577,"lat":51.5754764,"lon":0.0899913,"tags":{"name":"Newbury Park","network":"London Underground","network:wikidata":"Q20075","operator":"Transport for London","public_transport":"stop_position","railway":"stop","subway":"yes"}},{"type":"node","id":1582375181,"lat":51.5766417,"lon":0.0648672,"tags":{"level":"-2","name":"Gants Hill","network":"London Underground","network:wikidata":"Q20075","operator":"Transport for London","public_transport":"stop_position","railway":"stop","subway":"yes"}},{"type":"node","id":1582375186,"lat":51.5685848,"lon":0.0083915,"tags":{"name":"Leytonstone","network":"London Underground","operator":"London Underground","public_transport":"stop_position","railway":"stop","subway":"yes"}},{"type":"node","id":1582375190,"lat":51.5763628,"lon":0.045411,"tags":{"name":"Redbridge","network":"London Underground","network:wikidata":"Q20075","operator":"Transport for London","public_transport":"stop_position","railway":"stop","source_ref":"http://en.wikipedia.org/wiki/List_of_London_Underground_stations","subway":"yes"}},{"type":"node","id":1582375201,"lat":51.5574277,"lon":-0.0042132,"tags":{"destination":"Epping;Hainault","name":"Leyton","operator":"Transport for London","public_transport":"stop_position","railway":"stop","ref":"2","subway":"yes"}},{"type":"node","id":1582448806,"lat":51.5685732,"lon":0.0084455,"tags":{"name":"Leytonstone","network":"London Underground","operator":"London Underground","public_transport":"stop_position","railway":"stop","subway":"yes"}},{"type":"node","id":1582448808,"lat":51.5919252,"lon":0.0274406,"tags":{"name":"South Woodford","network":"London Underground","network:wikidata":"Q20075","operator":"London Underground","operator:wikidata":"Q20075","public_transport":"stop_position","railway":"stop","subway":"yes"}},{"type":"node","id":1586683112,"lat":51.5795773,"lon":0.0206956,"tags":{"name":"Snaresbrook","operator":"Transport for London","public_transport":"stop_position","railway":"stop","subway":"yes"}},{"type":"node","id":1586683114,"lat":51.5807279,"lon":0.0215088,"tags":{"name":"Snaresbrook","operator":"Transport for London","public_transport":"stop_position","railway":"stop","subway":"yes"}},{"type":"node","id":1591399577,"lat":51.5122731,"lon":-0.1882443,"tags":{"name":"Bayswater","network":"London Underground","operator":"Transport for London","public_transport":"stop_position","railway":"stop","subway":"yes"}},{"type":"node","id":1591399583,"lat":51.5154037,"lon":-0.1754503,"tags":{"name":"Paddington","name:ru":"Паддингтон","operator":"London Underground","public_transport":"stop_position","railway":"stop","subway":"yes"}},{"type":"node","id":1593616849,"lat":51.4921443,"lon":-0.1555588,"tags":{"name":"Sloane Square","public_transport":"stop_position","railway":"stop","subway":"yes"}},{"type":"node","id":1593616903,"lat":51.4940331,"lon":-0.1730526,"tags":{"name":"South Kensington","operator":"London Underground","public_transport":"stop_position","railway":"stop","subway":"yes"}},{"type":"node","id":1605304973,"lat":51.5959492,"lon":0.0911132,"tags":{"name":"Fairlop","network":"London Underground","network:wikidata":"Q20075","operator":"Transport for London","public_transport":"stop_position","railway":"stop","subway":"yes"}},{"type":"node","id":1612769161,"lat":51.5062105,"lon":-0.088819,"tags":{"name":"London Bridge","operator":"London Underground","public_transport":"stop_position","railway":"stop","subway":"yes"}},{"type":"node","id":1620401526,"lat":51.6259521,"lon":0.046839,"tags":{"name":"Buckhurst Hill","network":"London Underground","network:wikidata":"Q20075","operator":"Transport for London","public_transport":"stop_position","railway":"stop","subway":"yes"}},{"type":"node","id":1620401529,"lat":51.6452719,"lon":0.0835923,"tags":{"name":"Debden","network":"London Underground","operator":"Transport for London","public_transport":"stop_position","railway":"stop","ref":"1","subway":"yes"}},{"type":"node","id":1622139540,"lat":51.6176729,"lon":0.07551,"tags":{"name":"Chigwell","network":"London Underground","network:wikidata":"Q20075","operator":"Transport for London","public_transport":"stop_position","railway":"stop","subway":"yes"}},{"type":"node","id":1622139583,"lat":51.61314,"lon":0.0925138,"tags":{"name":"Grange Hill","network":"London Underground","network:wikidata":"Q20075","operator":"Transport for London","public_transport":"stop_position","railway":"stop","ref":"1","subway":"yes"}},{"type":"node","id":1637478193,"lat":51.514454,"lon":-0.1491082,"tags":{"name":"Bond Street","network":"London Underground","operator":"London Underground","public_transport":"stop_position","railway":"stop","subway":"yes"}},{"type":"node","id":1637478195,"lat":51.511798,"lon":-0.1751089,"tags":{"name":"Lancaster Gate","network":"London Underground","operator":"Transport for London","public_transport":"stop_position","railway":"stop","subway":"yes"}},{"type":"node","id":1637478196,"lat":51.5153611,"lon":-0.1407785,"tags":{"name":"Oxford Circus","network":"London Underground","network:wikidata":"Q20075","operator":"London Underground","public_transport":"stop_position","railway":"stop","subway":"yes","wikidata":"Q678791","wikipedia":"en:Oxford Circus tube station"}},{"type":"node","id":1637478197,"lat":51.5154617,"lon":-0.1408111,"tags":{"name":"Oxford Circus","network":"London Underground","network:wikidata":"Q20075","operator":"London Underground","public_transport":"stop_position","railway":"stop","subway":"yes","wikidata":"Q678791","wikipedia":"en:Oxford Circus tube station"}},{"type":"node","id":1637478203,"lat":51.5086966,"lon":-0.1960119,"tags":{"level":"-2","name":"Notting Hill Gate","operator":"London Underground","public_transport":"stop_position","railway":"stop","subway":"yes"}},{"type":"node","id":1637478204,"lat":51.5087093,"lon":-0.1959754,"tags":{"level":"-2","name":"Notting Hill Gate","operator":"London Underground","public_transport":"stop_position","railway":"stop","subway":"yes"}},{"type":"node","id":1637478216,"lat":51.5090217,"lon":-0.1965091,"tags":{"level":"-4","name":"Notting Hill Gate","operator":"London Underground","public_transport":"stop_position","railway":"stop","subway":"yes"}},{"type":"node","id":1637478217,"lat":51.5089337,"lon":-0.1969446,"tags":{"level":"-5","name":"Notting Hill Gate","operator":"London Underground","public_transport":"stop_position","railway":"stop","subway":"yes"}},{"type":"node","id":1637578314,"lat":51.5182701,"lon":-0.1121528,"tags":{"name":"Chancery Lane","network":"London Underground","operator":"London Underground","public_transport":"stop_position","railway":"stop","subway":"yes"}},{"type":"node","id":1637578327,"lat":51.5176949,"lon":-0.119335,"tags":{"level":"-2","name":"Holborn","network":"London Underground","operator":"London Underground","public_transport":"stop_position","railway":"stop","subway":"yes","wikidata":"Q1433544","wikipedia":"en:Holborn tube station"}},{"type":"node","id":1637578467,"lat":51.5155459,"lon":-0.0991304,"tags":{"level":"-5","name":"St. Paul's","network":"London Underground","operator":"London Underground","public_transport":"stop_position","railway":"stop","ref":"2","source:name":"local knowledge","subway":"yes","wheelchair":"no","wikidata":"Q1431081","wikipedia":"en:St Paul's tube station"}},{"type":"node","id":1637627149,"lat":51.527328,"lon":-0.0544895,"tags":{"layer":"-2","level":"-2","name":"Bethnal Green","network":"London Underground","operator":"Transport for London","public_transport":"stop_position","railway":"stop","ref":"2","subway":"yes"}},{"type":"node","id":1637627151,"lat":51.5254588,"lon":-0.0335219,"tags":{"name":"Mile End","network":"London Underground","operator":"London Underground","public_transport":"stop_position","railway":"stop","subway":"yes"}},{"type":"node","id":1643713812,"lat":51.6503131,"lon":-0.1937772,"tags":{"name":"High Barnet","public_transport":"stop_position","railway":"stop","subway":"yes"}},{"type":"node","id":1655439947,"lat":51.5132557,"lon":-0.0889454,"tags":{"name":"Bank","network":"London Underground","operator":"Transport for London","public_transport":"stop_position","railway":"stop","subway":"yes"}},{"type":"node","id":1658038921,"lat":51.4963251,"lon":-0.144097,"tags":{"name":"Victoria","operator":"London Underground","public_transport":"stop_position","railway":"stop","subway":"yes"}},{"type":"node","id":1658039437,"lat":51.5201004,"lon":-0.1666628,"tags":{"name":"Edgware Road","operator":"Transport for London","public_transport":"stop_position","railway":"stop","subway":"yes"}},{"type":"node","id":1658039483,"lat":51.5203099,"lon":-0.1668361,"tags":{"name":"Edgware Road","operator":"Transport for London","public_transport":"stop_position","railway":"stop","subway":"yes"}},{"type":"node","id":1666386021,"lat":51.520515,"lon":-0.1343582,"tags":{"layer":"-3","line":"Northern","name":"Goodge Street","name:ru":"Гудж-стрит","network":"London Underground","operator":"Transport for London","public_transport":"stop_position","railway":"stop","subway":"yes","wheelchair":"no","wheelchair:description":"No level access; 20 steps down to platform"}},{"type":"node","id":1674808352,"lat":51.5324278,"lon":-0.2438159,"tags":{"name":"Willesden Junction","operator":"London Underground","public_transport":"stop_position","railway":"stop","ref":"1","subway":"yes","train":"no"}},{"type":"node","id":1674808357,"lat":51.5324545,"lon":-0.2456259,"tags":{"name":"Willesden Junction","operator":"London Underground","public_transport":"stop_position","railway":"stop","ref":"3","subway":"yes","train":"no"}},{"type":"node","id":1691713663,"lat":51.4958111,"lon":-0.1013036,"tags":{"level":"-4","name":"Elephant & Castle","operator":"London Underground","public_transport":"stop_position","railway":"stop","ref":"3","subway":"yes"}},{"type":"node","id":1691713664,"lat":51.4949204,"lon":-0.1005484,"tags":{"level":"-2","name":"Elephant & Castle","operator":"London Underground","public_transport":"stop_position","railway":"stop","ref":"2","subway":"yes"}},{"type":"node","id":1699980341,"lat":51.5623981,"lon":-0.3038951,"tags":{"name":"North Wembley","operator":"Transport for London","public_transport":"stop_position","railway":"stop","subway":"yes","train":"yes"}},{"type":"node","id":1699980383,"lat":51.570252,"lon":-0.3085807,"tags":{"name":"South Kenton","operator":"Transport for London","public_transport":"stop_position","railway":"stop","subway":"yes","train":"yes"}},{"type":"node","id":1699980457,"lat":51.5815221,"lon":-0.3166625,"tags":{"name":"Kenton","operator":"Transport for London","public_transport":"stop_position","railway":"stop","subway":"yes","train":"yes"}},{"type":"node","id":1704515263,"lat":51.4937016,"lon":-0.2249929,"tags":{"level":"0","name":"Hammersmith","operator":"London Underground","public_transport":"stop_position","railway":"stop","subway":"yes"}},{"type":"node","id":1704515266,"lat":51.4937036,"lon":-0.2249524,"tags":{"level":"0","name":"Hammersmith","operator":"London Underground","public_transport":"stop_position","railway":"stop","subway":"yes"}},{"type":"node","id":1704516214,"lat":51.5137126,"lon":-0.2175169,"tags":{"name":"Latimer Road","operator":"Transport for London","public_transport":"stop_position","railway":"stop","ref":"1","subway":"yes"}},{"type":"node","id":1707790145,"lat":51.5189969,"lon":-0.1866198,"tags":{"name":"Royal Oak","operator":"Transport for London","public_transport":"stop_position","railway":"stop","ref":"2","subway":"yes"}},{"type":"node","id":1719255491,"lat":51.5172012,"lon":-0.2112856,"tags":{"name":"Ladbroke Grove","public_transport":"stop_position","public_transport:version":"2","railway":"stop","subway":"yes"}},{"type":"node","id":1719255581,"lat":51.5209668,"lon":-0.2023495,"tags":{"name":"Westbourne Park","operator":"London Underground","public_transport":"stop_position","railway":"stop","subway":"yes"}},{"type":"node","id":1719255592,"lat":51.5237233,"lon":-0.2599555,"tags":{"level":"-1","name":"North Acton","network":"London Underground","operator":"Transport for London","public_transport":"stop_position","railway":"stop","ref":"3","subway":"yes"}},{"type":"node","id":1721877908,"lat":51.5245726,"lon":-0.0132865,"tags":{"name":"Bromley-By-Bow","operator":"Transport for London","public_transport":"stop_position","railway":"stop","ref":"1","subway":"yes"}},{"type":"node","id":1721881886,"lat":51.5268754,"lon":-0.0248073,"tags":{"name":"Bow Road","name:ru":"Боу-роуд","network":"London Underground","operator":"London Underground","public_transport":"stop_position","railway":"stop","subway":"yes"}},{"type":"node","id":1725225733,"lat":51.5222984,"lon":-0.1566779,"tags":{"name":"Baker Street","operator":"London Underground","public_transport":"stop_position","railway":"stop","subway":"yes"}},{"type":"node","id":1725229727,"lat":51.5238238,"lon":-0.1438906,"tags":{"level":"-3","name":"Great Portland Street","name:ru":"Грейт-Портленд-стрит","network":"London Underground","operator":"Transport for London","public_transport":"stop_position","railway":"stop","subway":"yes"}},{"type":"node","id":1725229733,"lat":51.5297729,"lon":-0.1246817,"tags":{"layer":"-2","name":"King's Cross St Pancras","name:ru":"Кингс-Кросс Сент-Панкрасс","network":"London Underground","operator":"London Underground","public_transport":"stop_position","railway":"stop","subway":"yes"}},{"type":"node","id":1725278953,"lat":51.5202026,"lon":-0.0987297,"tags":{"layer":"-2","name":"Barbican","network":"London Underground","operator":"London Underground","public_transport":"stop_position","railway":"stop","ref":"2","source_ref":"http://en.wikipedia.org/wiki/List_of_London_Underground_stations","subway":"yes"}},{"type":"node","id":1725278986,"lat":51.5187071,"lon":-0.0908535,"tags":{"name":"Moorgate","name:ru":"Мургейт","operator":"London Underground","public_transport":"stop_position","railway":"stop","subway":"yes"}},{"type":"node","id":1725359916,"lat":51.5107151,"lon":-0.0860248,"tags":{"name":"Monument","network":"London Underground","operator":"London Underground","public_transport":"stop_position","railway":"stop","subway":"yes"}},{"type":"node","id":1725360051,"lat":51.5115065,"lon":-0.0903017,"tags":{"name":"Cannon Street","operator":"London Underground","public_transport":"stop_position","railway":"stop","subway":"yes"}},{"type":"node","id":1725369138,"lat":51.5016824,"lon":-0.1243781,"tags":{"name":"Westminster","operator":"London Underground","public_transport":"stop_position","railway":"stop","subway":"yes"}},{"type":"node","id":1735791409,"lat":51.5286524,"lon":0.0060857,"tags":{"level":"1","name":"West Ham","network":"London Underground","operator":"London Underground","public_transport":"stop_position","railway":"stop","ref":"1","subway":"yes"}},{"type":"node","id":1735791410,"lat":51.5287463,"lon":0.0060324,"tags":{"level":"1","name":"West Ham","network":"London Underground","operator":"London Underground","public_transport":"stop_position","railway":"stop","ref":"2","subway":"yes"}},{"type":"node","id":1735791558,"lat":51.5348841,"lon":0.0330656,"tags":{"name":"Upton Park","operator":"Transport for London","public_transport":"stop_position","railway":"stop","subway":"yes"}},{"type":"node","id":1735791665,"lat":51.5391246,"lon":0.0516878,"tags":{"name":"East Ham","operator":"Transport for London","public_transport":"stop_position","railway":"stop","ref":"1","subway":"yes"}},{"type":"node","id":1735791676,"lat":51.5395664,"lon":0.0530995,"tags":{"name":"East Ham","operator":"Transport for London","public_transport":"stop_position","railway":"stop","ref":"2","subway":"yes"}},{"type":"node","id":1736548279,"lat":51.5422508,"lon":-0.3456496,"tags":{"description":"Greenford, Westbound -> to Northolt","layer":"1","level":"1","name":"Greenford","network":"London Underground","network:wikidata":"Q20075","operator":"Transport for London","public_transport":"stop_position","railway":"stop","ref":"1","source":"NPE","source_ref":"http://en.wikipedia.org/wiki/List_of_London_railway_stations;http://en.wikipedia.org/wiki/List_of_London_Underground_stations","subway":"yes"}},{"type":"node","id":1736548304,"lat":51.5423733,"lon":-0.3455722,"tags":{"description":"Greenford, Eastbound -> to Perivale","layer":"1","level":"1","name":"Greenford","network":"London Underground","network:wikidata":"Q20075","operator":"Transport for London","public_transport":"stop_position","railway":"stop","ref":"3","source":"NPE","source_ref":"http://en.wikipedia.org/wiki/List_of_London_railway_stations;http://en.wikipedia.org/wiki/List_of_London_Underground_stations","subway":"yes"}},{"type":"node","id":1736548336,"lat":51.5694318,"lon":-0.4370109,"tags":{"name":"West Ruislip","operator":"London Underground","public_transport":"stop_position","railway":"stop","ref":"2","subway":"yes"}},{"type":"node","id":1736549810,"lat":51.5693551,"lon":-0.4370662,"tags":{"name":"West Ruislip","operator":"London Underground","public_transport":"stop_position","railway":"stop","ref":"1","subway":"yes"}},{"type":"node","id":1741760056,"lat":51.5269047,"lon":-0.0247947,"tags":{"name":"Bow Road","name:ru":"Боу-роуд","network":"London Underground","operator":"London Underground","public_transport":"stop_position","railway":"stop","subway":"yes"}},{"type":"node","id":1741760057,"lat":51.5253563,"lon":-0.0334449,"tags":{"name":"Mile End","network":"London Underground","operator":"London Underground","public_transport":"stop_position","railway":"stop","subway":"yes"}},{"type":"node","id":1741760058,"lat":51.5217146,"lon":-0.0467282,"tags":{"name":"Stepney Green","operator":"London Underground","public_transport":"stop_position","railway":"stop","subway":"yes"}},{"type":"node","id":1742756469,"lat":51.5156576,"lon":-0.1417687,"tags":{"name":"Oxford Circus","network":"London Underground","network:wikidata":"Q20075","operator":"London Underground","public_transport":"stop_position","railway":"stop","subway":"yes","wikidata":"Q678791","wikipedia":"en:Oxford Circus tube station"}},{"type":"node","id":1742756486,"lat":51.515625,"lon":-0.1422817,"tags":{"name":"Oxford Circus","network":"London Underground","network:wikidata":"Q20075","operator":"London Underground","public_transport":"stop_position","railway":"stop","subway":"yes"}},{"type":"node","id":1746322997,"lat":51.5918438,"lon":-0.3344771,"tags":{"name":"Harrow & Wealdstone","operator":"Transport for London","public_transport":"stop_position","railway":"stop","ref":"1","subway":"yes","train":"yes"}},{"type":"node","id":1746323030,"lat":51.5918227,"lon":-0.3343768,"tags":{"name":"Harrow & Wealdstone","operator":"Transport for London","public_transport":"stop_position","railway":"stop","ref":"2","subway":"yes","train":"yes"}},{"type":"node","id":1746755372,"lat":51.5953678,"lon":-0.2497551,"tags":{"level":"-1","name":"Colindale","operator":"Transport for London","public_transport":"stop_position","railway":"stop","ref":"2","subway":"yes"}},{"type":"node","id":1746755436,"lat":51.6028649,"lon":-0.2642566,"tags":{"line":"Northern","name":"Burnt Oak","network":"London Underground","operator":"Transport for London","public_transport":"stop_position","railway":"stop","subway":"yes"}},{"type":"node","id":1746771029,"lat":51.5770173,"lon":-0.2146113,"tags":{"name":"Brent Cross","public_transport":"stop_position","railway":"stop","subway":"yes"}},{"type":"node","id":1747081300,"lat":51.4023892,"lon":-0.1949383,"tags":{"line":"Northern","name":"Morden","network":"London Underground","network:wikidata":"Q20075","operator":"Transport for London","public_transport":"stop_position","railway":"stop","subway":"yes"}},{"type":"node","id":1754713629,"lat":51.4971415,"lon":-0.1427545,"tags":{"layer":"-4","name":"Victoria","network":"London Underground","network:wikidata":"Q20075","operator":"London Underground","public_transport":"stop_position","railway":"stop","ref":"3","subway":"yes"}},{"type":"node","id":1754713662,"lat":51.4961348,"lon":-0.1431893,"tags":{"layer":"-4","name":"Victoria","network":"London Underground","network:wikidata":"Q20075","operator":"London Underground","public_transport":"stop_position","railway":"stop","ref":"4","subway":"yes"}},{"type":"node","id":1754724824,"lat":51.4892267,"lon":-0.134254,"tags":{"name":"Pimlico","network":"London Underground","network:wikidata":"Q20075","operator":"Transport for London","public_transport":"stop_position","railway":"stop","subway":"yes"}},{"type":"node","id":1778602806,"lat":51.508528,"lon":-0.1249331,"tags":{"name":"Charing Cross","operator":"London Underground","public_transport":"stop_position","railway":"stop","subway":"yes"}},{"type":"node","id":1781547362,"lat":51.5066493,"lon":-0.142581,"tags":{"name":"Green Park","network":"London Underground","network:wikidata":"Q20075","operator":"London Underground","public_transport":"stop_position","railway":"stop","subway":"yes","wheelchair":"yes"}},{"type":"node","id":1781591240,"lat":51.5072381,"lon":-0.1221357,"tags":{"name":"Embankment","operator":"London Underground","public_transport":"stop_position","railway":"stop","subway":"yes"}},{"type":"node","id":1781669412,"lat":51.5245174,"lon":-0.1380159,"tags":{"name":"Warren Street","network":"London Underground","operator":"London Underground","public_transport":"stop_position","railway":"stop","subway":"yes","wheelchair":"no"}},{"type":"node","id":1781669415,"lat":51.5244929,"lon":-0.1388072,"tags":{"name":"Warren Street","network":"London Underground","operator":"London Underground","public_transport":"stop_position","railway":"stop","subway":"yes","wheelchair":"no"}},{"type":"node","id":1784783916,"lat":51.5042876,"lon":-0.2186695,"tags":{"name":"Shepherd's Bush","operator":"London Underground","public_transport":"stop_position","railway":"stop","ref":"1","source":"Survey of 2014-06-13","subway":"yes"}},{"type":"node","id":1785339687,"lat":51.5163847,"lon":-0.1309793,"tags":{"name":"Tottenham Court Road","operator":"London Underground","public_transport":"stop_position","railway":"stop","ref":"2","subway":"yes","wikidata":"Q1431094","wikipedia":"en:Tottenham Court Road station"}},{"type":"node","id":1794145729,"lat":51.5285152,"lon":-0.1342045,"tags":{"name":"Euston","operator":"London Underground","public_transport":"stop_position","railway":"stop","subway":"yes"}},{"type":"node","id":1794145802,"lat":51.5344326,"lon":-0.1383723,"tags":{"name":"Mornington Crescent","network":"London Underground","operator":"London Underground","public_transport":"stop_position","railway":"stop","subway":"yes"}},{"type":"node","id":1795376972,"lat":51.5118987,"lon":-0.1285118,"tags":{"level":"-4","name":"Leicester Square","operator":"London Underground","public_transport":"stop_position","railway":"stop","subway":"yes"}},{"type":"node","id":1802706032,"lat":51.5033423,"lon":-0.1148666,"tags":{"layer":"-3","name":"Waterloo","operator":"London Underground","public_transport":"stop_position","railway":"stop","subway":"yes"}},{"type":"node","id":1802760139,"lat":51.5035706,"lon":-0.1143104,"tags":{"layer":"-2","name":"Waterloo","operator":"London Underground","public_transport":"stop_position","railway":"stop","subway":"yes","wheelchair":"yes"}},{"type":"node","id":1802760142,"lat":51.4984249,"lon":-0.1109346,"tags":{"name":"Lambeth North","network":"London Underground","network:wikidata":"Q20075","operator":"Transport for London","public_transport":"stop_position","railway":"stop","subway":"yes"}},{"type":"node","id":1802760151,"lat":51.5035244,"lon":-0.1145223,"tags":{"layer":"-2","name":"Waterloo","operator":"London Underground","public_transport":"stop_position","railway":"stop","subway":"yes","wheelchair":"yes"}},{"type":"node","id":1802958634,"lat":51.5100143,"lon":-0.1344256,"tags":{"name":"Piccadilly Circus","operator":"London Underground","public_transport":"stop_position","railway":"stop","subway":"yes"}},{"type":"node","id":1807593699,"lat":51.5010936,"lon":-0.0934194,"tags":{"name":"Borough","name:da":"Borough Station","name:ru":"Боро","network":"London Underground","network:wikidata":"Q20075","public_transport":"stop_position","railway":"stop","subway":"yes"}},{"type":"node","id":1825191031,"lat":51.5205525,"lon":-0.1342306,"tags":{"layer":"-3","line":"Northern","name":"Goodge Street","name:ru":"Гудж-стрит","network":"London Underground","operator":"Transport for London","public_transport":"stop_position","railway":"stop","subway":"yes","wheelchair":"no","wheelchair:description":"No level access; 20 steps down to platform"}},{"type":"node","id":1825191054,"lat":51.4907142,"lon":-0.2059484,"tags":{"name":"West Kensington","operator":"Transport for London","public_transport":"stop_position","railway":"stop","source":"GPX","subway":"yes"}},{"type":"node","id":1825289792,"lat":51.6028449,"lon":-0.2639522,"tags":{"line":"Northern","name":"Burnt Oak","network":"London Underground","operator":"Transport for London","public_transport":"stop_position","railway":"stop","subway":"yes"}},{"type":"node","id":1829205092,"lat":51.5057884,"lon":-0.2263506,"tags":{"name":"Shepherd's Bush Market","operator":"London Underground","public_transport":"stop_position","railway":"stop","subway":"yes"}},{"type":"node","id":1902426755,"lat":51.5882722,"lon":-0.0605173,"tags":{"name":"Tottenham Hale","network":"London Underground","operator":"Transport for London","public_transport":"stop_position","railway":"stop","subway":"yes"}},{"type":"node","id":1960307168,"lat":51.5142891,"lon":-0.075594,"tags":{"name":"Aldgate","network":"London Underground","operator":"Transport for London","public_transport":"stop_position","railway":"stop","subway":"yes"}},{"type":"node","id":1996939224,"lat":51.487594,"lon":-0.1063789,"tags":{"name":"Kennington","operator":"Transport for London","public_transport":"stop_position","railway":"stop","subway":"yes"}},{"type":"node","id":1996939243,"lat":51.4887485,"lon":-0.1057708,"tags":{"name":"Kennington","operator":"Transport for London","public_transport":"stop_position","railway":"stop","subway":"yes"}},{"type":"node","id":2238079348,"lat":51.5119461,"lon":-0.224384,"tags":{"name":"White City","operator":"London Underground","public_transport":"stop_position","railway":"stop","subway":"yes"}},{"type":"node","id":2238079363,"lat":51.5119444,"lon":-0.2240487,"tags":{"name":"White City","operator":"London Underground","public_transport":"stop_position","railway":"stop","subway":"yes"}},{"type":"node","id":2343477901,"lat":51.5349541,"lon":-0.1943338,"tags":{"level":"-1","name":"Kilburn Park","network":"London Underground","operator":"London Underground","public_transport":"stop_position","railway":"stop","subway":"yes"}},{"type":"node","id":2350021965,"lat":51.5565882,"lon":-0.005462,"tags":{"destination":"Ealing Broadway;West Ruislip","name":"Leyton","operator":"Transport for London","public_transport":"stop_position","railway":"stop","ref":"1","subway":"yes"}},{"type":"node","id":2356332643,"lat":51.495876,"lon":-0.1011026,"tags":{"level":"-4","name":"Elephant & Castle","operator":"London Underground","public_transport":"stop_position","railway":"stop","ref":"4","subway":"yes"}},{"type":"node","id":2365989012,"lat":51.4625844,"lon":-0.1147779,"tags":{"name":"Brixton","network":"London Underground","network:wikidata":"Q20075","operator":"Transport for London","public_transport":"stop_position","railway":"stop","subway":"yes"}},{"type":"node","id":2365989047,"lat":51.4861505,"lon":-0.1254704,"tags":{"name":"Vauxhall","network":"London Underground","network:wikidata":"Q20075","operator":"Transport for London","public_transport":"stop_position","railway":"stop","subway":"yes"}},{"type":"node","id":2365989055,"lat":51.4891267,"lon":-0.1362038,"tags":{"name":"Pimlico","network":"London Underground","network:wikidata":"Q20075","operator":"Transport for London","public_transport":"stop_position","railway":"stop","subway":"yes"}},{"type":"node","id":2365989150,"lat":51.582941,"lon":-0.0199949,"tags":{"name":"Walthamstow Central","network":"London Underground","operator":"London Underground","public_transport":"stop_position","railway":"stop","ref":"1","subway":"yes"}},{"type":"node","id":2365989166,"lat":51.5869017,"lon":-0.0412711,"tags":{"name":"Blackhorse Road station","network":"London Underground","operator":"Transport for London","public_transport":"stop_position","railway":"stop","ref":"1","subway":"yes"}},{"type":"node","id":2366424851,"lat":51.4945369,"lon":-0.2670181,"tags":{"name":"Chiswick Park","operator":"Transport for London","public_transport":"stop_position","railway":"stop","ref":"2","subway":"yes"}},{"type":"node","id":2374470789,"lat":51.5475064,"lon":-0.1039103,"tags":{"name":"Highbury & Islington","network":"London Underground","operator":"Transport for London","public_transport":"stop_position","railway":"stop","ref":"3","subway":"yes"}},{"type":"node","id":2375368045,"lat":51.5468257,"lon":-0.1032773,"tags":{"name":"Highbury & Islington","network":"London Underground","operator":"Transport for London","public_transport":"stop_position","railway":"stop","ref":"5","subway":"yes"}},{"type":"node","id":2385907325,"lat":51.5393867,"lon":-0.1430547,"tags":{"name":"Camden Town","operator":"London Underground","public_transport":"stop_position","railway":"stop","subway":"yes"}},{"type":"node","id":2403974337,"lat":51.5834588,"lon":-0.0727884,"tags":{"name":"Seven Sisters","network":"London Underground","operator":"Transport for London","public_transport":"stop_position","railway":"stop","subway":"yes"}},{"type":"node","id":2417777303,"lat":51.5650137,"lon":-0.1347906,"tags":{"name":"Archway","operator":"London Underground","public_transport":"stop_position","railway":"stop","subway":"yes"}},{"type":"node","id":2426825790,"lat":51.5192046,"lon":-0.0616936,"tags":{"name":"Whitechapel","operator":"Transport for London","public_transport":"stop_position","railway":"stop","ref":"4","subway":"yes","train":"yes"}},{"type":"node","id":2426825791,"lat":51.5197498,"lon":-0.060378,"tags":{"name":"Whitechapel","operator":"Transport for London","public_transport":"stop_position","railway":"stop","ref":"1","subway":"yes","train":"yes"}},{"type":"node","id":2761481019,"lat":51.5154842,"lon":-0.0991571,"tags":{"level":"-4","name":"St. Paul's","network":"London Underground","operator":"London Underground","public_transport":"stop_position","railway":"stop","ref":"1","source:name":"local knowledge","subway":"yes","wheelchair":"no","wikidata":"Q1431081","wikipedia":"en:St Paul's tube station"}},{"type":"node","id":2794462390,"lat":51.5650326,"lon":-0.134967,"tags":{"name":"Archway","operator":"London Underground","public_transport":"stop_position","railway":"stop","subway":"yes"}},{"type":"node","id":2883647819,"lat":51.5011676,"lon":-0.2264122,"tags":{"name":"Goldhawk Road","operator":"Transport for London","public_transport":"stop_position","railway":"stop","ref":"2","subway":"yes"}},{"type":"node","id":2883647824,"lat":51.5019688,"lon":-0.2266403,"tags":{"name":"Goldhawk Road","operator":"Transport for London","public_transport":"stop_position","railway":"stop","ref":"1","subway":"yes"}},{"type":"node","id":2896071505,"lat":51.5236305,"lon":-0.2600785,"tags":{"level":"-1","name":"North Acton","network":"London Underground","operator":"Transport for London","public_transport":"stop_position","railway":"stop","ref":"1","subway":"yes"}},{"type":"node","id":2899317061,"lat":51.5128486,"lon":-0.2185858,"tags":{"name":"Latimer Road","operator":"Transport for London","public_transport":"stop_position","railway":"stop","ref":"2","subway":"yes"}},{"type":"node","id":2904270524,"lat":51.5338431,"lon":-0.2063519,"tags":{"name":"Queen's Park","operator":"Transport for London","public_transport":"stop_position","railway":"stop","ref":"3","subway":"yes"}},{"type":"node","id":2908947867,"lat":51.5305528,"lon":-0.2248077,"tags":{"name":"Kensal Green","operator":"London Underground","public_transport":"stop_position","railway":"stop","ref":"2","subway":"yes"}},{"type":"node","id":2908947897,"lat":51.5307143,"lon":-0.2231415,"tags":{"name":"Kensal Green","operator":"London Underground","public_transport":"stop_position","railway":"stop","ref":"1","subway":"yes"}},{"type":"node","id":2920572849,"lat":51.5368262,"lon":-0.2588874,"tags":{"name":"Harlesden","operator":"Transport for London","public_transport":"stop_position","railway":"stop","ref":"2","subway":"yes","train":"yes"}},{"type":"node","id":2969920282,"lat":51.4949981,"lon":-0.2454748,"tags":{"name":"Stamford Brook","operator":"Transport for London","public_transport":"stop_position","railway":"stop","ref":"3","subway":"yes"}},{"type":"node","id":3052027780,"lat":51.5497656,"lon":0.1982409,"tags":{"name":"Elm Park","operator":"Transport for London","public_transport":"stop_position","railway":"stop","ref":"2","source":"Survey of 2014-08-31","subway":"yes"}},{"type":"node","id":3053097167,"lat":51.5441924,"lon":0.1656236,"tags":{"name":"Dagenham East","operator":"Transport for London","public_transport":"stop_position","railway":"stop","ref":"2","source":"Survey of 2014-08-31","subway":"yes"}},{"type":"node","id":3054536368,"lat":51.540367,"lon":0.1271646,"tags":{"name":"Becontree","operator":"Transport for London","public_transport":"stop_position","railway":"stop","ref":"2","source":"Survey of 2014-09-01","subway":"yes"}},{"type":"node","id":3076573906,"lat":51.5142097,"lon":-0.0758232,"tags":{"name":"Aldgate","network":"London Underground","operator":"Transport for London","public_transport":"stop_position","railway":"stop","subway":"yes"}},{"type":"node","id":3076573909,"lat":51.5134183,"lon":-0.0890314,"tags":{"name":"Bank","network":"London Underground","operator":"Transport for London","public_transport":"stop_position","railway":"stop","subway":"yes"}},{"type":"node","id":3076573919,"lat":51.4915588,"lon":-0.1940345,"tags":{"name":"Earl's Court","network":"London Underground","network:wikidata":"Q20075","operator":"Transport for London","public_transport":"stop_position","railway":"stop","subway":"yes"}},{"type":"node","id":3076573921,"lat":51.5173376,"lon":-0.2481593,"tags":{"name":"East Acton","network":"London Underground","operator":"Transport for London","public_transport":"stop_position","railway":"stop","subway":"yes"}},{"type":"node","id":3076573922,"lat":51.5173528,"lon":-0.2481132,"tags":{"name":"East Acton","network":"London Underground","operator":"Transport for London","public_transport":"stop_position","railway":"stop","subway":"yes"}},{"type":"node","id":3076573930,"lat":51.5001747,"lon":-0.1919086,"tags":{"name":"High Street Kensington","network":"London Underground","operator":"Transport for London","public_transport":"stop_position","railway":"stop","subway":"yes"}},{"type":"node","id":3076573931,"lat":51.5001924,"lon":-0.1918627,"tags":{"name":"High Street Kensington","network":"London Underground","operator":"Transport for London","public_transport":"stop_position","railway":"stop","subway":"yes"}},{"type":"node","id":3076573932,"lat":51.5171842,"lon":-0.0825554,"tags":{"name":"Liverpool Street","operator":"London Underground","public_transport":"stop_position","railway":"stop","ref":"1","subway":"yes"}},{"type":"node","id":3076574233,"lat":51.5172123,"lon":-0.0825435,"tags":{"name":"Liverpool Street","operator":"London Underground","public_transport":"stop_position","railway":"stop","ref":"2","subway":"yes"}},{"type":"node","id":3076574235,"lat":51.511929,"lon":-0.0952257,"tags":{"name":"Mansion House","network":"London Underground","operator":"Transport for London","public_transport":"stop_position","railway":"stop","subway":"yes"}},{"type":"node","id":3076574239,"lat":51.510994,"lon":-0.1142768,"tags":{"name":"Temple","network":"London Underground","operator":"Transport for London","public_transport":"stop_position","railway":"stop","subway":"yes"}},{"type":"node","id":3076574240,"lat":51.5110163,"lon":-0.1142971,"tags":{"name":"Temple","network":"London Underground","operator":"Transport for London","public_transport":"stop_position","railway":"stop","subway":"yes"}},{"type":"node","id":3091468316,"lat":51.5482314,"lon":-0.3684812,"tags":{"name":"Northolt","operator":"Transport for London","public_transport":"stop_position","railway":"stop","ref":"2","subway":"yes"}},{"type":"node","id":3163857732,"lat":51.5258278,"lon":-0.1351367,"tags":{"level":"-2","name":"Euston Square","operator":"Transport for London","public_transport":"stop_position","railway":"stop","ref":"1","source":"Local knowledge","subway":"yes"}},{"type":"node","id":3163857733,"lat":51.525829,"lon":-0.1352346,"tags":{"level":"-2","name":"Euston Square","operator":"Transport for London","public_transport":"stop_position","railway":"stop","ref":"2","source":"Local knowledge","subway":"yes"}},{"type":"node","id":3303235854,"lat":51.5403813,"lon":0.0795246,"tags":{"name":"Barking","operator":"London Underground","operator:wikidata":"Q20075","public_transport":"stop_position","railway":"stop","ref":"3","subway":"yes"}},{"type":"node","id":3303235856,"lat":51.5401805,"lon":0.079327,"tags":{"name":"Barking","operator":"London Underground","operator:wikidata":"Q20075","public_transport":"stop_position","railway":"stop","ref":"6","subway":"yes"}},{"type":"node","id":3773122117,"lat":51.4986724,"lon":-0.1120769,"tags":{"name":"Lambeth North","network":"London Underground","network:wikidata":"Q20075","operator":"Transport for London","public_transport":"stop_position","railway":"stop","subway":"yes","wheelchair":"no"}},{"type":"node","id":3817850258,"lat":51.4859279,"lon":-0.1243434,"tags":{"name":"Vauxhall","network":"London Underground","network:wikidata":"Q20075","operator":"Transport for London","public_transport":"stop_position","railway":"stop","subway":"yes"}},{"type":"node","id":3927405906,"lat":51.5072495,"lon":-0.2055399,"tags":{"layer":"-2","level":"-3","name":"Holland Park","operator":"Transport for London","public_transport":"stop_position","railway":"stop","ref":"2","source":"Survey of 2015-12-20","subway":"yes"}},{"type":"node","id":4264061863,"lat":51.471273,"lon":-0.1231678,"tags":{"name":"Stockwell","network":"London Underground","network:wikidata":"Q20075","operator":"Transport for London","public_transport":"stop_position","railway":"stop","subway":"yes"}},{"type":"node","id":4264061864,"lat":51.4719112,"lon":-0.1232026,"tags":{"name":"Stockwell","network":"London Underground","network:wikidata":"Q20075","operator":"Transport for London","public_transport":"stop_position","railway":"stop","subway":"yes"}},{"type":"node","id":4264062083,"lat":51.5650907,"lon":-0.1066341,"tags":{"name":"Finsbury Park","network":"London Underground","operator":"Transport for London","public_transport":"stop_position","railway":"stop","subway":"yes"}},{"type":"node","id":4264069015,"lat":51.5640679,"lon":-0.1064254,"tags":{"name":"Finsbury Park","network":"London Underground","operator":"Transport for London","public_transport":"stop_position","railway":"stop","subway":"yes"}},{"type":"node","id":4272748889,"lat":51.5245087,"lon":-0.1390144,"tags":{"name":"Warren Street","network":"London Underground","operator":"London Underground","public_transport":"stop_position","railway":"stop","subway":"yes","wheelchair":"no"}},{"type":"node","id":4272748890,"lat":51.5311084,"lon":-0.121758,"tags":{"layer":"-3","name":"King's Cross St Pancras","name:ru":"Кингс-Кросс Сент-Панкрасс","network":"London Underground","operator":"London Underground","public_transport":"stop_position","railway":"stop","subway":"yes"}},{"type":"node","id":4277728779,"lat":51.5135178,"lon":-0.1583892,"tags":{"name":"Marble Arch","operator":"Transport for London","public_transport":"stop_position","railway":"stop","subway":"yes"}},{"type":"node","id":4277728780,"lat":51.5133982,"lon":-0.1581495,"tags":{"name":"Marble Arch","operator":"Transport for London","public_transport":"stop_position","railway":"stop","subway":"yes"}},{"type":"node","id":4277734060,"lat":51.5161338,"lon":-0.1327997,"tags":{"name":"Tottenham Court Road","operator":"London Underground","public_transport":"stop_position","railway":"stop","ref":"1","subway":"yes","wikidata":"Q1431094","wikipedia":"en:Tottenham Court Road station"}},{"type":"node","id":4454298891,"lat":51.4530117,"lon":-0.1473927,"tags":{"name":"Clapham South","public_transport":"stop_position","railway":"stop","subway":"yes"}},{"type":"node","id":4578507399,"lat":51.5190675,"lon":-0.1883771,"tags":{"name":"Royal Oak","operator":"Transport for London","public_transport":"stop_position","railway":"stop","ref":"1","subway":"yes"}},{"type":"node","id":4849741806,"lat":51.6408875,"lon":0.0549147,"tags":{"fixme":"Need to verify stop_postions are where the tube stops (not madatory, but nice)","name":"Loughton","operator":"Transport for London","public_transport":"stop_position","railway":"stop","ref":"1","subway":"yes"}},{"type":"node","id":4850392632,"lat":51.5184395,"lon":-0.0823181,"tags":{"name":"Liverpool Street","operator":"London Underground","public_transport":"stop_position","railway":"stop","ref":"4","subway":"yes"}},{"type":"node","id":4850392633,"lat":51.5183579,"lon":-0.0821607,"tags":{"name":"Liverpool Street","operator":"London Underground","public_transport":"stop_position","railway":"stop","ref":"5","subway":"yes"}},{"type":"node","id":5178320458,"lat":51.5075217,"lon":-0.1218816,"tags":{"name":"Embankment","operator":"London Underground","public_transport":"stop_position","railway":"stop","subway":"yes"}},{"type":"node","id":5181765898,"lat":51.4947089,"lon":-0.184315,"tags":{"name":"Gloucester Road","operator":"Transport for London","public_transport":"stop_position","railway":"stop","subway":"yes"}},{"type":"node","id":5181765899,"lat":51.4945368,"lon":-0.1830479,"tags":{"name":"Gloucester Road","operator":"Transport for London","public_transport":"stop_position","railway":"stop","subway":"yes"}},{"type":"node","id":5181765900,"lat":51.4941231,"lon":-0.1720171,"tags":{"name":"South Kensington","operator":"London Underground","public_transport":"stop_position","railway":"stop","subway":"yes"}},{"type":"node","id":5182456575,"lat":51.5722012,"lon":-0.1940244,"tags":{"name":"Golders Green","operator":"Transport for London","public_transport":"stop_position","railway":"stop","subway":"yes"}},{"type":"node","id":5182456577,"lat":51.5723861,"lon":-0.1938723,"tags":{"name":"Golders Green","operator":"Transport for London","public_transport":"stop_position","railway":"stop","subway":"yes"}},{"type":"node","id":5183300152,"lat":51.5115862,"lon":-0.0883523,"tags":{"level":"-5","name":"Bank","network":"London Underground","operator":"London Underground","public_transport":"stop_position","railway":"stop","subway":"yes"}},{"type":"node","id":5183300153,"lat":51.5120856,"lon":-0.0876995,"tags":{"level":"-5","name":"Bank","network":"London Underground","operator":"London Underground","public_transport":"stop_position","railway":"stop","subway":"yes"}},{"type":"node","id":5186080600,"lat":51.5305509,"lon":-0.1243368,"tags":{"layer":"-5","name":"King's Cross St Pancras","name:ru":"Кингс-Кросс Сент-Панкрасс","network":"London Underground","operator":"London Underground","public_transport":"stop_position","railway":"stop","subway":"yes","wheelchair":"yes"}},{"type":"node","id":5186080601,"lat":51.5956013,"lon":-0.2503217,"tags":{"level":"-1","name":"Colindale","operator":"Transport for London","public_transport":"stop_position","railway":"stop","ref":"1","subway":"yes"}},{"type":"node","id":5207123396,"lat":51.5072768,"lon":-0.1223154,"tags":{"name":"Embankment","operator":"London Underground","public_transport":"stop_position","railway":"stop","subway":"yes"}},{"type":"node","id":5207123397,"lat":51.5072934,"lon":-0.1223732,"tags":{"name":"Embankment","operator":"London Underground","public_transport":"stop_position","railway":"stop","subway":"yes"}},{"type":"node","id":5225563247,"lat":51.5871256,"lon":-0.1644371,"tags":{"name":"East Finchley","public_transport":"stop_position","railway":"stop","subway":"yes"}},{"type":"node","id":5252083982,"lat":51.582818,"lon":-0.0199245,"tags":{"name":"Walthamstow Central","network":"London Underground","operator":"London Underground","public_transport":"stop_position","railway":"stop","ref":"2","subway":"yes"}},{"type":"node","id":5355174725,"lat":51.6136255,"lon":-0.2750551,"tags":{"name":"Edgware","operator":"Transport for London","public_transport":"stop_position","railway":"stop","subway":"yes"}},{"type":"node","id":5355174726,"lat":51.6134349,"lon":-0.2742546,"tags":{"name":"Edgware","operator":"Transport for London","public_transport":"stop_position","railway":"stop","ref":"2;3","subway":"yes"}},{"type":"node","id":5359714470,"lat":51.5503331,"lon":-0.1407436,"tags":{"name":"Kentish Town","operator":"London Underground","public_transport":"stop_position","railway":"stop","subway":"yes"}},{"type":"node","id":5455868949,"lat":51.4949545,"lon":-0.1005974,"tags":{"level":"-2","name":"Elephant & Castle","operator":"London Underground","public_transport":"stop_position","railway":"stop","ref":"1","subway":"yes"}},{"type":"node","id":5457046596,"lat":51.5230715,"lon":-0.1832366,"tags":{"level":"-2","name":"Warwick Avenue","network":"London Underground","operator":"Transport for London","public_transport":"stop_position","railway":"stop","ref":"2","subway":"yes"}},{"type":"node","id":5457046601,"lat":51.5229412,"lon":-0.1834674,"tags":{"level":"-2","name":"Warwick Avenue","network":"London Underground","operator":"Transport for London","public_transport":"stop_position","railway":"stop","ref":"1","subway":"yes"}},{"type":"node","id":5461892572,"lat":51.5156136,"lon":-0.070814,"tags":{"layer":"-3","level":"-3","name":"Aldgate East","operator":"London Underground","public_transport":"stop_position","railway":"stop","ref":"1","subway":"yes"}},{"type":"node","id":5461894066,"lat":51.5156316,"lon":-0.0708317,"tags":{"layer":"-3","level":"-3","name":"Aldgate East","operator":"London Underground","public_transport":"stop_position","railway":"stop","ref":"2","subway":"yes"}},{"type":"node","id":5462448192,"lat":51.536613,"lon":-0.3228789,"tags":{"level":"1","name":"Perivale","operator":"Transport for London","public_transport":"stop_position","railway":"stop","ref":"2","subway":"yes"}},{"type":"node","id":5462448199,"lat":51.5365303,"lon":-0.3229631,"tags":{"brand:wikidata":"Q205355","level":"1","line":"Central","name":"Perivale","network":"London Underground","operator":"Transport for London","public_transport":"stop_position","railway":"stop","ref":"1","subway":"yes"}},{"type":"node","id":5473272644,"lat":51.5128052,"lon":-0.0917442,"tags":{"level":"-2","line":"Waterloo & City","name":"Bank","network":"London Underground","operator":"London Underground","public_transport":"stop_position","railway":"stop","subway":"yes"}},{"type":"node","id":5473272645,"lat":51.5126917,"lon":-0.0916482,"tags":{"level":"-2","line":"Waterloo & City","name":"Bank","network":"London Underground","operator":"London Underground","public_transport":"stop_position","railway":"stop","subway":"yes"}},{"type":"node","id":5473343554,"lat":51.5503687,"lon":-0.164574,"tags":{"destination":"Kennington;Morden","level":"-5","name":"Belsize Park","operator":"Transport for London","public_transport":"stop_position","railway":"stop","ref":"2","subway":"yes"}},{"type":"node","id":5473343561,"lat":51.5502453,"lon":-0.1647045,"tags":{"destination":"Edgware","level":"-5","name":"Belsize Park","operator":"Transport for London","public_transport":"stop_position","railway":"stop","ref":"1","subway":"yes"}},{"type":"node","id":5481955743,"lat":51.5204793,"lon":-0.170304,"tags":{"level":"-3","name":"Edgware Road","operator":"London Underground","public_transport":"stop_position","railway":"stop","ref":"2","subway":"yes"}},{"type":"node","id":5482469747,"lat":51.5565357,"lon":-0.178534,"tags":{"destination":"Edgware","layer":"-3","level":"-4","line":"Northern","name":"Hampstead","network":"London Underground","operator":"Transport for London","public_transport":"stop_position","railway":"stop","ref":"1","subway":"yes","wikidata":"Q1890387"}},{"type":"node","id":5482938105,"lat":51.5071921,"lon":-0.2052475,"tags":{"layer":"-2","level":"-3","name":"Holland Park","operator":"Transport for London","public_transport":"stop_position","railway":"stop","ref":"1","source":"Survey of 2015-12-20","subway":"yes"}},{"type":"node","id":5504917483,"lat":51.5099533,"lon":-0.2240127,"tags":{"level":"1","name":"Wood Lane","network":"London Underground","operator":"London Underground","public_transport":"stop_position","railway":"stop","subway":"yes"}},{"type":"node","id":5504917485,"lat":51.5098671,"lon":-0.2240679,"tags":{"level":"1","name":"Wood Lane","network":"London Underground","operator":"London Underground","public_transport":"stop_position","railway":"stop","subway":"yes"}},{"type":"node","id":5540103657,"lat":51.5311966,"lon":0.016962,"tags":{"name":"Plaistow","operator":"Transport for London","public_transport":"stop_position","railway":"stop","subway":"yes"}},{"type":"node","id":5540103658,"lat":51.5312341,"lon":0.0169431,"tags":{"name":"Plaistow","network":"London Underground","network:wikidata":"Q20075","operator":"Transport for London","public_transport":"stop_position","railway":"stop","subway":"yes"}},{"type":"node","id":5585853829,"lat":51.6310661,"lon":-0.1791639,"tags":{"name":"Totteridge & Whetstone","operator":"Transport for London","public_transport":"stop_position","railway":"stop","subway":"yes"}},{"type":"node","id":5585858389,"lat":51.5567088,"lon":-0.3983645,"tags":{"name":"South Ruislip","network":"London Underground","network:wikidata":"Q20075","operator":"Transport for London","public_transport":"stop_position","railway":"stop","subway":"yes"}},{"type":"node","id":5585858390,"lat":51.5572481,"lon":-0.4003081,"tags":{"name":"South Ruislip","operator":"Transport for London","public_transport":"stop_position","railway":"stop","subway":"yes"}},{"type":"node","id":5585858822,"lat":51.5439389,"lon":-0.2757082,"tags":{"name":"Stonebridge Park","operator":"Transport for London","public_transport":"stop_position","railway":"stop","subway":"yes","train":"yes"}},{"type":"node","id":5585858823,"lat":51.5443193,"lon":-0.2768422,"tags":{"name":"Stonebridge Park","operator":"Transport for London","public_transport":"stop_position","railway":"stop","subway":"yes","train":"yes"}},{"type":"node","id":5600788769,"lat":51.5609512,"lon":-0.4113931,"tags":{"name":"Ruislip Gardens","network":"London Underground","network:wikidata":"Q20075","operator":"Transport for London","public_transport":"stop_position","railway":"stop","subway":"yes"}},{"type":"node","id":5699330264,"lat":51.4626748,"lon":-0.1146311,"tags":{"name":"Brixton","network":"London Underground","network:wikidata":"Q20075","operator":"Transport for London","public_transport":"stop_position","railway":"stop","subway":"yes"}},{"type":"node","id":5699330265,"lat":51.5762531,"lon":0.0454682,"tags":{"name":"Redbridge","network":"London Underground","network:wikidata":"Q20075","operator":"Transport for London","public_transport":"stop_position","railway":"stop","source_ref":"http://en.wikipedia.org/wiki/List_of_London_Underground_stations","subway":"yes"}},{"type":"node","id":5699429786,"lat":51.5756764,"lon":0.0286655,"tags":{"name":"Wanstead","operator":"Transport for London","public_transport":"stop_position","railway":"stop","subway":"yes"}},{"type":"node","id":5699429787,"lat":51.5102982,"lon":-0.1872612,"tags":{"name":"Queensway","name:ru":"Квинсвей","network":"London Underground","operator":"Transport for London","public_transport":"stop_position","railway":"stop","subway":"yes"}},{"type":"node","id":6294508104,"lat":51.5173215,"lon":-0.2109222,"tags":{"name":"Ladbroke Grove","public_transport":"stop_position","public_transport:version":"2","railway":"stop","subway":"yes"}},{"type":"node","id":6306753647,"lat":51.6087655,"lon":-0.1886211,"tags":{"name":"West Finchley","operator":"Transport for London","public_transport":"stop_position","railway":"stop","subway":"yes"}},{"type":"node","id":6306753648,"lat":51.6095872,"lon":-0.188301,"tags":{"name":"West Finchley","operator":"Transport for London","public_transport":"stop_position","railway":"stop","subway":"yes"}},{"type":"node","id":6306753662,"lat":51.6173592,"lon":-0.1857122,"tags":{"name":"Woodside Park","operator":"Transport for London","public_transport":"stop_position","railway":"stop","subway":"yes"}},{"type":"node","id":6306753663,"lat":51.6182525,"lon":-0.1854211,"tags":{"name":"Woodside Park","operator":"Transport for London","public_transport":"stop_position","railway":"stop","subway":"yes"}},{"type":"node","id":6430985129,"lat":51.5815321,"lon":-0.316622,"tags":{"name":"Kenton","public_transport":"stop_position","railway":"stop","subway":"yes","train":"yes"}},{"type":"node","id":6430985132,"lat":51.5702551,"lon":-0.3083952,"tags":{"name":"South Kenton","operator":"Transport for London","public_transport":"stop_position","railway":"stop","subway":"yes","train":"yes"}},{"type":"node","id":6443259367,"lat":51.4153226,"lon":-0.1923542,"tags":{"name":"South Wimbledon","public_transport":"stop_position","railway":"stop","subway":"yes"}},{"type":"node","id":6443260107,"lat":51.4359799,"lon":-0.159069,"tags":{"name":"Tooting Bec","public_transport":"stop_position","railway":"stop","subway":"yes"}},{"type":"node","id":6443260135,"lat":51.4530268,"lon":-0.1474632,"tags":{"name":"Clapham South","public_transport":"stop_position","railway":"stop","subway":"yes"}},{"type":"node","id":6459032762,"lat":51.5046061,"lon":-0.2168851,"tags":{"name":"Shepherd's Bush","operator":"London Underground","public_transport":"stop_position","railway":"stop","ref":"2","source":"Survey of 2014-06-13","subway":"yes"}},{"type":"node","id":6460061009,"lat":51.5624292,"lon":-0.3038645,"tags":{"name":"North Wembley","operator":"Transport for London","public_transport":"stop_position","railway":"stop","subway":"yes","train":"yes"}},{"type":"node","id":6464495252,"lat":51.4817981,"lon":-0.1125416,"tags":{"name":"Oval","public_transport":"stop_position","railway":"stop","subway":"yes"}},{"type":"node","id":6464495261,"lat":51.481841,"lon":-0.1123223,"tags":{"name":"Oval","public_transport":"stop_position","railway":"stop","subway":"yes"}},{"type":"node","id":6464495263,"lat":51.4721148,"lon":-0.1226354,"tags":{"name":"Stockwell","public_transport":"stop_position","railway":"stop","subway":"yes"}},{"type":"node","id":6758461485,"lat":51.5522862,"lon":-0.2968861,"tags":{"name":"Wembley Central","public_transport":"stop_position","railway":"stop","ref":"1","subway":"yes","train":"yes"}},{"type":"node","id":6758461486,"lat":51.5522737,"lon":-0.296814,"tags":{"name":"Wembley Central","public_transport":"stop_position","railway":"stop","ref":"2","subway":"yes","train":"yes"}},{"type":"node","id":6765486625,"lat":51.6082557,"lon":-0.2101489,"tags":{"name":"Mill Hill East","network":"London Underground","public_transport":"stop_position","railway":"stop","subway":"yes"}},{"type":"node","id":6797794417,"lat":51.5569079,"lon":-0.138371,"tags":{"name":"Tufnell Park","public_transport":"stop_position","railway":"stop","subway":"yes"}},{"type":"node","id":7223822385,"lat":51.4714602,"lon":-0.1232966,"tags":{"name":"Stockwell","public_transport":"stop_position","railway":"stop","subway":"yes"}},{"type":"node","id":7633092779,"lat":51.4802358,"lon":-0.1304351,"tags":{"name":"Nine Elms","public_transport":"stop_position","railway":"stop","subway":"yes"}},{"type":"node","id":7792555884,"lat":51.4659435,"lon":-0.1292202,"tags":{"name":"Clapham North","public_transport":"stop_position","railway":"stop","subway":"yes"}},{"type":"node","id":7792581385,"lat":51.4653766,"lon":-0.1296428,"tags":{"name":"Clapham North","public_transport":"stop_position","railway":"stop","subway":"yes"}},{"type":"node","id":7792592417,"lat":51.4438246,"lon":-0.1525898,"tags":{"name":"Balham","public_transport":"stop_position","railway":"stop","subway":"yes"}},{"type":"node","id":7792592418,"lat":51.443447,"lon":-0.15275,"tags":{"name":"Balham","public_transport":"stop_position","railway":"stop","subway":"yes"}},{"type":"node","id":7792603765,"lat":51.5253214,"lon":-0.0875194,"tags":{"name":"Old Street","public_transport":"stop_position","railway":"stop","subway":"yes"}},{"type":"node","id":7792603806,"lat":51.4355269,"lon":-0.1598208,"tags":{"name":"Tooting Bec","public_transport":"stop_position","railway":"stop","subway":"yes"}},{"type":"node","id":7792628213,"lat":51.5316035,"lon":-0.1046489,"tags":{"name":"Angel","public_transport":"stop_position","railway":"stop","subway":"yes"}},{"type":"node","id":7792659585,"lat":51.5779247,"lon":-0.1464578,"tags":{"name":"Highgate","public_transport":"stop_position","railway":"stop","subway":"yes"}},{"type":"node","id":7849627395,"lat":51.600967,"lon":-0.1925518,"tags":{"name":"Finchley Central","network":"London Underground","public_transport":"stop_position","railway":"stop","ref":"3","subway":"yes"}},{"type":"node","id":7849627396,"lat":51.600946,"lon":-0.1925736,"tags":{"name":"Finchley Central","network":"London Underground","public_transport":"stop_position","railway":"stop","ref":"2","subway":"yes"}},{"type":"node","id":7849756618,"lat":51.5590405,"lon":0.2517981,"tags":{"name":"Upminster","network":"London Underground","operator":"London Underground","public_transport":"stop_position","railway":"stop","ref":"4","subway":"yes"}},{"type":"node","id":7849929286,"lat":51.5868186,"lon":-0.0429679,"tags":{"name":"Blackhorse Road","network":"London Underground","operator":"Transport for London","public_transport":"stop_position","railway":"stop","ref":"2","subway":"yes"}},{"type":"node","id":8251774893,"lat":51.5163981,"lon":-0.1754608,"tags":{"name":"Paddington","name:ru":"Паддингтон","operator":"London Underground","public_transport":"stop_position","railway":"stop","subway":"yes"}},{"type":"node","id":8251783240,"lat":51.529847,"lon":-0.1858544,"tags":{"name":"Maida Vale","name:ru":"Мейда-вейл","network":"London Underground","public_transport":"stop_position","railway":"stop","subway":"yes"}},{"type":"node","id":8270601047,"lat":51.5222736,"lon":-0.1635799,"tags":{"name":"Marylebone","operator":"Transport for London","public_transport":"stop_position","railway":"stop","subway":"yes"}},{"type":"node","id":8618989638,"lat":51.5827415,"lon":-0.2256283,"tags":{"name":"Hendon Central","public_transport":"stop_position","railway":"stop","subway":"yes"}},{"type":"node","id":8711705048,"lat":51.427371,"lon":-0.1686018,"tags":{"name":"Tooting Broadway","public_transport":"stop_position","railway":"stop","subway":"yes"}},{"type":"node","id":8711705049,"lat":51.4280174,"lon":-0.168116,"tags":{"name":"Tooting Broadway","public_transport":"stop_position","railway":"stop","subway":"yes","train":"yes"}},{"type":"node","id":8886489708,"lat":51.5156668,"lon":-0.1419904,"tags":{"name":"Oxford Circus","network":"London Underground","network:wikidata":"Q20075","operator":"London Underground","public_transport":"stop_position","railway":"stop","subway":"yes","wikidata":"Q678791","wikipedia":"en:Oxford Circus tube station"}},{"type":"node","id":8892447714,"lat":51.5236665,"lon":-0.1465949,"tags":{"name":"Regent's Park","name:da":"Regent's Park Station","name:ru":"Риджентс-парк","network":"London Underground","public_transport":"stop_position","railway":"stop","subway":"yes"}},{"type":"node","id":8910489546,"lat":51.5100502,"lon":-0.1344313,"tags":{"name":"Piccadilly Circus","operator":"London Underground","public_transport":"stop_position","railway":"stop","subway":"yes"}},{"type":"node","id":8910489547,"lat":51.5231568,"lon":-0.1575518,"tags":{"name":"Baker Street","operator":"London Underground","public_transport":"stop_position","railway":"stop","subway":"yes"}},{"type":"node","id":9113091953,"lat":51.4800567,"lon":-0.1285787,"tags":{"name":"Nine Elms","public_transport":"stop_position","railway":"stop","subway":"yes"}},{"type":"node","id":9113091954,"lat":51.4799625,"lon":-0.1423914,"tags":{"level":"-2","name":"Battersea Power Station","public_transport":"stop_position","railway":"stop","subway":"yes"}},{"type":"node","id":9113091955,"lat":51.4790947,"lon":-0.1438791,"tags":{"level":"-2","name":"Battersea Power Station","public_transport":"stop_position","railway":"stop","subway":"yes"}},{"type":"node","id":10573700574,"lat":51.583607,"lon":-0.2269068,"tags":{"name":"Hendon Central","public_transport":"stop_position","railway":"stop","subway":"yes"}},{"type":"node","id":10573700575,"lat":51.5765698,"lon":-0.2132718,"tags":{"name":"Brent Cross","public_transport":"stop_position","railway":"stop","subway":"yes"}},{"type":"node","id":10573700576,"lat":51.4620215,"lon":-0.1374485,"tags":{"name":"Clapham Common","public_transport":"stop_position","railway":"stop","subway":"yes"}},{"type":"node","id":10573700577,"lat":51.462173,"lon":-0.1370773,"tags":{"name":"Clapham Common","public_transport":"stop_position","railway":"stop","subway":"yes"}},{"type":"node","id":10573700578,"lat":51.4181291,"lon":-0.1779011,"tags":{"name":"Colliers Wood","public_transport":"stop_position","railway":"stop","subway":"yes"}},{"type":"node","id":10573700579,"lat":51.4185691,"lon":-0.177671,"tags":{"name":"Colliers Wood","public_transport":"stop_position","railway":"stop","subway":"yes"}},{"type":"node","id":10573700580,"lat":51.414988,"lon":-0.1929729,"tags":{"name":"South Wimbledon","public_transport":"stop_position","railway":"stop","subway":"yes"}},{"type":"node","id":11772541599,"lat":51.4994295,"lon":-0.1341728,"tags":{"name":"St. James's Park","operator":"London Underground","public_transport":"stop_position","railway":"stop","subway":"yes"}},{"type":"node","id":11772541600,"lat":51.4991032,"lon":-0.1350491,"tags":{"name":"St. James's Park","operator":"London Underground","public_transport":"stop_position","railway":"stop","subway":"yes"}},{"type":"node","id":11772541601,"lat":51.5116548,"lon":-0.1035625,"tags":{"name":"Blackfriars","operator":"London Underground","public_transport":"stop_position","railway":"stop","subway":"yes"}},{"type":"node","id":11772541602,"lat":51.5115051,"lon":-0.1040017,"tags":{"name":"Blackfriars","operator":"London Underground","public_transport":"stop_position","railway":"stop","subway":"yes"}},{"type":"node","id":11772546340,"lat":51.5068751,"lon":-0.2261794,"tags":{"name":"Shepherd's Bush Market","operator":"London Underground","public_transport":"stop_position","railway":"stop","subway":"yes"}},{"type":"node","id":11772546341,"lat":51.5209016,"lon":-0.2007514,"tags":{"name":"Westbourne Park","operator":"London Underground","public_transport":"stop_position","railway":"stop","subway":"yes"}},{"type":"node","id":11772623206,"lat":51.4941581,"lon":-0.2348879,"tags":{"name":"Ravenscourt Park","operator":"London Underground","public_transport":"stop_position","railway":"stop","subway":"yes"}},{"type":"node","id":12288848442,"lat":51.518512,"lon":-0.0878924,"tags":{"name":"Moorgate","operator":"London Underground","public_transport":"stop_position","railway":"stop","subway":"yes"}},{"type":"node","id":12288848451,"lat":51.52532,"lon":-0.0876272,"tags":{"name":"Old Street","public_transport":"stop_position","railway":"stop","subway":"yes"}},{"type":"node","id":12292769347,"lat":51.5313868,"lon":-0.1047485,"tags":{"name":"Angel","public_transport":"stop_position","railway":"stop","subway":"yes"}},{"type":"node","id":12487546237,"lat":51.5604246,"lon":-0.4095818,"tags":{"name":"Ruislip Gardens","network":"London Underground","network:wikidata":"Q20075","operator":"Transport for London","public_transport":"stop_position","railway":"stop","subway":"yes"}},{"type":"node","id":13409130224,"lat":51.544154,"lon":-0.1535469,"tags":{"line":"Northern","name":"Chalk Farm","network":"London Underground","operator":"Transport for London","public_transport":"stop_position","railway":"stop","subway":"yes"}},{"type":"node","id":13410791417,"lat":51.5010885,"lon":-0.0934106,"tags":{"name":"Borough","name:da":"Borough Station","name:ru":"Боро","network":"London Underground","network:wikidata":"Q20075","public_transport":"stop_position","railway":"stop","subway":"yes"}},{"type":"node","id":13411781738,"lat":51.5059043,"lon":-0.0883075,"tags":{"name":"London Bridge","operator":"London Underground","public_transport":"stop_position","railway":"stop","subway":"yes"}},{"type":"node","id":13440675005,"lat":51.5065891,"lon":-0.1230389,"tags":{"name":"Embankment","operator":"London Underground","public_transport":"stop_position","railway":"stop","subway":"yes"}},{"type":"node","id":13440675022,"lat":51.5033364,"lon":-0.1148905,"tags":{"layer":"-3","name":"Waterloo","operator":"London Underground","public_transport":"stop_position","railway":"stop","subway":"yes"}},{"type":"node","id":13667975250,"lat":51.5778165,"lon":-0.1465746,"tags":{"name":"Highgate","public_transport":"stop_position","railway":"stop","subway":"yes"}},{"type":"node","id":13667975265,"lat":51.5503317,"lon":-0.1406006,"tags":{"name":"Kentish Town","operator":"London Underground","public_transport":"stop_position","railway":"stop","subway":"yes"}},{"type":"node","id":13667975279,"lat":51.5569437,"lon":-0.1385346,"tags":{"name":"Tufnell Park","public_transport":"stop_position","railway":"stop","subway":"yes"}},{"type":"node","id":11776731,"lat":51.5154494,"lon":-0.1754622,"tags":{"name":"Paddington","name:ru":"Паддингтон","operator":"London Underground","public_transport":"stop_position","railway":"stop","subway":"yes"}},{"type":"node","id":13790683,"lat":51.5253233,"lon":-0.0334206,"tags":{"name":"Mile End","network":"London Underground","operator":"London Underground","public_transport":"stop_position","railway":"stop","subway":"yes"}},{"type":"node","id":18395697,"lat":51.5106943,"lon":-0.0860638,"tags":{"name":"Monument","network":"London Underground","operator":"London Underground","public_transport":"stop_position","railway":"stop","subway":"yes"}},{"type":"node","id":20698942,"lat":51.5268062,"lon":-0.2840597,"tags":{"level":"-1","name":"Park Royal","network":"London Underground","network:wikidata":"Q20075","operator":"Transport for London","public_transport":"stop_position","railway":"stop","ref":"2","subway":"yes"}},{"type":"node","id":20698965,"lat":51.5025332,"lon":-0.2795634,"tags":{"name":"Acton Town","operator":"Transport for London","public_transport":"stop_position","railway":"stop","subway":"yes"}},{"type":"node","id":20856570,"lat":51.5844899,"lon":-0.2786881,"tags":{"name":"Kingsbury","network":"London Underground","operator":"Transport for London","public_transport":"stop_position","railway":"stop","subway":"yes"}},{"type":"node","id":20955702,"lat":51.5796443,"lon":-0.353041,"tags":{"name":"West Harrow","operator":"Transport for London","public_transport":"stop_position","railway":"stop","subway":"yes"}},{"type":"node","id":20955782,"lat":51.5102341,"lon":-0.2881914,"tags":{"line":"District, Piccadilly","name":"Ealing Common","network":"London Underground","operator":"Transport for London","public_transport":"stop_position","railway":"stop","subway":"yes"}},{"type":"node","id":21095010,"lat":51.5216851,"lon":-0.0467219,"tags":{"name":"Stepney Green","operator":"London Underground","public_transport":"stop_position","railway":"stop","subway":"yes"}},{"type":"node","id":21139060,"lat":51.7053976,"lon":-0.6108985,"tags":{"name":"Chesham","operator":"Transport for London","public_transport":"stop_position","railway":"stop","subway":"yes"}},{"type":"node","id":21139801,"lat":51.6541842,"lon":-0.5182967,"tags":{"name":"Chorleywood","operator":"Transport for London","public_transport":"stop_position","railway":"stop","source":"GPS","subway":"yes","train":"yes"}},{"type":"node","id":21139874,"lat":51.6402049,"lon":-0.4735861,"tags":{"name":"Rickmansworth","operator":"Transport for London","public_transport":"stop_position","railway":"stop","subway":"yes"}},{"type":"node","id":21139975,"lat":51.6297983,"lon":-0.4320561,"tags":{"name":"Moor Park","operator":"Transport for London","public_transport":"stop_position","railway":"stop","subway":"yes"}},{"type":"node","id":21139976,"lat":51.647173,"lon":-0.4415232,"tags":{"name":"Croxley","operator":"Transport for London","public_transport":"stop_position","railway":"stop","subway":"yes"}},{"type":"node","id":21139977,"lat":51.6572832,"lon":-0.417543,"tags":{"name":"Watford","operator":"Transport for London","public_transport":"stop_position","railway":"stop","subway":"yes"}},{"type":"node","id":21269005,"lat":51.4957055,"lon":-0.3248079,"tags":{"line":"Piccadilly","name":"Boston Manor","network":"London Underground","network:wikidata":"Q20075","operator":"Transport for London","public_transport":"stop_position","railway":"stop","subway":"yes","wheelchair":"no"}},{"type":"node","id":21269366,"lat":51.5238242,"lon":-0.1568796,"tags":{"name":"Baker Street","operator":"London Underground","public_transport":"stop_position","railway":"stop","subway":"yes"}},{"type":"node","id":21596803,"lat":51.5540389,"lon":0.2188012,"tags":{"name":"Hornchurch","operator":"Transport for London","public_transport":"stop_position","railway":"stop","ref":"2","source":"Survey of 2014-08-31","subway":"yes"}},{"type":"node","id":25318238,"lat":51.4809254,"lon":-0.1944093,"tags":{"name":"Fulham Broadway","network":"London Underground","network:wikidata":"Q20075","operator":"Transport for London","public_transport":"stop_position","railway":"stop","subway":"yes"}},{"type":"node","id":26007544,"lat":51.4683469,"lon":-0.2088114,"tags":{"name":"Putney Bridge","operator":"Transport for London","operator:wikidata":"Q682520","public_transport":"stop_position","railway":"stop","subway":"yes"}},{"type":"node","id":26374027,"lat":51.5123038,"lon":-0.188251,"tags":{"name":"Bayswater","network":"London Underground","operator":"Transport for London","public_transport":"stop_position","railway":"stop","subway":"yes"}},{"type":"node","id":26854620,"lat":51.5941727,"lon":-0.2861855,"tags":{"name":"Queensbury","operator":"Transport for London","public_transport":"stop_position","railway":"stop","subway":"yes"}},{"type":"node","id":27511953,"lat":51.5417108,"lon":0.146783,"tags":{"name":"Dagenham Heathway","operator":"Transport for London","public_transport":"stop_position","railway":"stop","ref":"2","source":"Survey of 2014-09-01","subway":"yes","train":"yes"}},{"type":"node","id":28108910,"lat":51.5130521,"lon":-0.1244469,"tags":{"name":"Covent Garden","operator":"Transport for London","public_transport":"stop_position","railway":"stop","subway":"yes","wheelchair":"no"}},{"type":"node","id":34059992,"lat":51.4975933,"lon":-0.0641945,"tags":{"level":"-2","name":"Bermondsey","network":"London Underground","network:wikidata":"Q20075","operator":"Transport for London","public_transport":"stop_position","railway":"stop","subway":"yes"}},{"type":"node","id":34060600,"lat":51.5008073,"lon":0.0047467,"tags":{"level":"-6","name":"North Greenwich","operator":"Transport for London","public_transport":"stop_position","railway":"stop","subway":"yes"}},{"type":"node","id":34577401,"lat":51.4951505,"lon":-0.254427,"tags":{"level":"1","name":"Turnham Green","network":"London Underground","network:wikidata":"Q20075","operator":"Transport for London","public_transport":"stop_position","railway":"stop","ref":"3","subway":"yes"}},{"type":"node","id":34577402,"lat":51.4952391,"lon":-0.2544167,"tags":{"level":"1","name":"Turnham Green","network":"London Underground","network:wikidata":"Q20075","operator":"Transport for London","public_transport":"stop_position","railway":"stop","ref":"4","subway":"yes"}},{"type":"node","id":64767750,"lat":51.5098716,"lon":-0.0766367,"tags":{"name":"Tower Hill","operator":"London Underground","public_transport":"stop_position","railway":"stop","subway":"yes"}},{"type":"node","id":64772416,"lat":51.5114806,"lon":-0.0903013,"tags":{"name":"Cannon Street","operator":"London Underground","public_transport":"stop_position","railway":"stop","subway":"yes"}},{"type":"node","id":64775110,"lat":51.5118216,"lon":-0.0952117,"tags":{"name":"Mansion House","network":"London Underground","operator":"Transport for London","public_transport":"stop_position","railway":"stop","subway":"yes"}},{"type":"node","id":96093147,"lat":51.4941486,"lon":-0.1743191,"tags":{"name":"South Kensington","operator":"London Underground","public_transport":"stop_position","railway":"stop","subway":"yes"}},{"type":"node","id":117921884,"lat":51.535378,"lon":0.0350852,"tags":{"name":"Upton Park","operator":"Transport for London","public_transport":"stop_position","railway":"stop","subway":"yes"}},{"type":"node","id":118208899,"lat":51.5396162,"lon":0.0810967,"tags":{"name":"Barking","operator":"London Underground","operator:wikidata":"Q20075","public_transport":"stop_position","railway":"stop","ref":"2","subway":"yes"}},