{"elements":[{"type":"node","id":1259867919,"lat":49.9566191,"lon":82.6459951,"tags":{"name":"Усть-Каменогорский вокзал","public_transport":"stop_position","railway":"tram_stop","tram":"yes"}},{"type":"node","id":2304213515,"lat":50.0025675,"lon":82.5611531,"tags":{"name":"Бажова","public_transport":"stop_position","railway":"tram_stop","tram":"yes"}},{"type":"node","id":3784833445,"lat":49.9495183,"lon":82.6289552,"tags":{"name":"Кинотеатр Юбилейный","public_transport":"platform","railway":"tram_stop","tactile_paving":"no","tram":"yes","wheelchair":"no"}},{"type":"node","id":10707675274,"lat":49.9740329,"lon":82.6148633,"tags":{"name":"Союзтеплострой","public_transport":"stop_position","railway":"tram_stop","tram":"yes"}},{"type":"node","id":10707675299,"lat":49.9829228,"lon":82.6314788,"tags":{"name":"Переезд","public_transport":"stop_position","railway":"tram_stop","tram":"yes"}},{"type":"node","id":10707686313,"lat":49.9666882,"lon":82.6163793,"tags":{"name":"Дом юстиции","public_transport":"stop_position","railway":"tram_stop","tram":"yes"}},{"type":"node","id":10707686365,"lat":50.0025805,"lon":82.5611288,"tags":{"name":"Бажова","public_transport":"stop_position","railway":"tram_stop","tram":"yes"}},{"type":"node","id":10712208017,"lat":49.955853,"lon":82.6344215,"tags":{"name":"Библиотека имени Пушкина","public_transport":"stop_position","railway":"tram_stop","tram":"yes"}},{"type":"node","id":13057463594,"lat":49.949207,"lon":82.6287468,"tags":{"bench":"no","covered":"no","name":"Кинотеатр Юбилейный","public_transport":"platform","railway":"tram_stop","shelter":"no","sign":"yes","tactile_paving":"no","tram":"yes","wheelchair":"no"}},{"type":"node","id":13316137562,"lat":49.9594158,"lon":82.6374003,"tags":{"name":"Трамвайный парк","public_transport":"stop_position","railway":"tram_stop","tram":"yes"}},{"type":"node","id":13316137572,"lat":49.9559538,"lon":82.6344778,"tags":{"name":"Библиотека имени Пушкина","public_transport":"stop_position","railway":"tram_stop","tram":"yes"}},{"type":"node","id":13316137577,"lat":49.953473,"lon":82.6323004,"tags":{"name":"Дом связи","public_transport":"stop_position","railway":"tram_stop","tram":"yes"}},{"type":"node","id":13316137578,"lat":49.9534939,"lon":82.6323604,"tags":{"name":"Дом связи","public_transport":"stop_position","railway":"tram_stop","tram":"yes"}},{"type":"node","id":13316137716,"lat":49.950828,"lon":82.6225978,"tags":{"name":"улица Кирова","public_transport":"stop_position","railway":"tram_stop","tram":"yes"}},{"type":"node","id":13316137717,"lat":49.9507729,"lon":82.6226823,"tags":{"name":"улица Кирова","public_transport":"stop_position","railway":"tram_stop","tram":"yes"}},{"type":"node","id":13316137718,"lat":49.9508506,"lon":82.6226149,"tags":{"highway":"bus_stop","name":"улица Кирова","public_transport":"platform","shelter":"yes","tram":"yes"}},{"type":"node","id":13316137733,"lat":49.9524744,"lon":82.6176819,"tags":{"name":"Халык банк","public_transport":"stop_position","railway":"tram_stop","tram":"yes"}},{"type":"node","id":13316137734,"lat":49.9524076,"lon":82.6178033,"tags":{"name":"Халык банк","public_transport":"stop_position","railway":"tram_stop","tram":"yes"}},{"type":"node","id":13316294585,"lat":49.9587078,"lon":82.6145773,"tags":{"name":"Автовокзал","public_transport":"stop_position","railway":"tram_stop","tram":"yes"}},{"type":"node","id":13316294586,"lat":49.958425,"lon":82.6145218,"tags":{"name":"Дворец спорта","public_transport":"stop_position","railway":"tram_stop","tram":"yes"}},{"type":"node","id":13316316625,"lat":49.9636776,"lon":82.614812,"tags":{"name":"улица Михаэлиса","public_transport":"stop_position","railway":"tram_stop","tram":"yes"}},{"type":"node","id":13316316626,"lat":49.9637596,"lon":82.6147925,"tags":{"name":"улица Михаэлиса","public_transport":"stop_position","railway":"tram_stop","tram":"yes"}},{"type":"node","id":13316316658,"lat":49.9663471,"lon":82.6165261,"tags":{"name":"Дом юстиции","public_transport":"stop_position","railway":"tram_stop","tram":"yes"}},{"type":"node","id":13316316669,"lat":49.9668562,"lon":82.6168458,"tags":{"name":"Дом юстиции","public_transport":"stop_position","railway":"tram_stop","tram":"yes"}},{"type":"node","id":13316316670,"lat":49.9689142,"lon":82.6183415,"tags":{"name":"улица Лермонтова","public_transport":"stop_position","railway":"tram_stop","tram":"yes"}},{"type":"node","id":13316316671,"lat":49.9692762,"lon":82.6185527,"tags":{"name":"улица Лермонтова","public_transport":"stop_position","railway":"tram_stop","tram":"yes"}},{"type":"node","id":13316316672,"lat":49.971821,"lon":82.6203963,"tags":{"name":"улица Шолохова","public_transport":"stop_position","railway":"tram_stop","tram":"yes"}},{"type":"node","id":13316316673,"lat":49.9724718,"lon":82.6208081,"tags":{"name":"улица Шолохова","public_transport":"stop_position","railway":"tram_stop","tram":"yes"}},{"type":"node","id":13316316694,"lat":49.9762336,"lon":82.6239389,"tags":{"name":"Тракторная улица","public_transport":"stop_position","railway":"tram_stop","tram":"yes"}},{"type":"node","id":13316316695,"lat":49.9761919,"lon":82.6238219,"tags":{"name":"Тракторная улица","public_transport":"stop_position","railway":"tram_stop","tram":"yes"}},{"type":"node","id":13316520617,"lat":49.9733747,"lon":82.6166173,"tags":{"name":"Союзтеплострой","public_transport":"stop_position","railway":"tram_stop","tram":"yes"}},{"type":"node","id":13316520618,"lat":49.9776861,"lon":82.6149364,"tags":{"name":"Казцинк","public_transport":"stop_position","railway":"tram_stop","tram":"yes"}},{"type":"node","id":13316520631,"lat":49.9722536,"lon":82.6201611,"tags":{"name":"улица Шолохова","public_transport":"stop_position","railway":"tram_stop","tram":"yes"}},{"type":"node","id":13318656348,"lat":49.959489,"lon":82.6379528,"tags":{"name":"Трамвайный парк","public_transport":"stop_position","railway":"tram_stop","tram":"yes"}},{"type":"node","id":13392257721,"lat":49.9681505,"lon":82.6106646,"tags":{"name":"Смирнова","public_transport":"stop_position","railway":"tram_stop","tram":"yes"}},{"type":"node","id":13392257722,"lat":49.9682691,"lon":82.6100672,"tags":{"name":"Смирнова","public_transport":"stop_position","railway":"tram_stop","tram":"yes"}},{"type":"node","id":13392257754,"lat":49.9691455,"lon":82.6067428,"tags":{"name":"Тургенева","public_transport":"stop_position","railway":"tram_stop","tram":"yes"}},{"type":"node","id":13392257755,"lat":49.9692021,"lon":82.6064071,"tags":{"name":"Тургенева","public_transport":"stop_position","railway":"tram_stop","tram":"yes"}},{"type":"node","id":13392257757,"lat":49.9710973,"lon":82.5995375,"tags":{"name":"Казгипроцветмет","public_transport":"stop_position","railway":"tram_stop","tram":"yes"}},{"type":"node","id":13392257758,"lat":49.9712716,"lon":82.5988877,"tags":{"name":"Казгипроцветмет","public_transport":"stop_position","railway":"tram_stop","tram":"yes"}},{"type":"node","id":13392257759,"lat":49.9725546,"lon":82.5956776,"tags":{"name":"Хлебзавод","public_transport":"stop_position","railway":"tram_stop","tram":"yes"}},{"type":"node","id":13392257760,"lat":49.9726061,"lon":82.5954675,"tags":{"name":"Хлебзавод","public_transport":"stop_position","railway":"tram_stop","tram":"yes"}},{"type":"node","id":13392257761,"lat":49.9747122,"lon":82.5909119,"tags":{"name":"Дом дружбы","public_transport":"stop_position","railway":"tram_stop","tram":"yes"}},{"type":"node","id":13392257762,"lat":49.9750599,"lon":82.5904259,"tags":{"name":"Дом дружбы","public_transport":"stop_position","railway":"tram_stop","tram":"yes"}},{"type":"node","id":13392257779,"lat":49.9781732,"lon":82.5865323,"tags":{"name":"Машзавод","public_transport":"stop_position","railway":"tram_stop","tram":"yes"}},{"type":"node","id":13392257780,"lat":49.9781578,"lon":82.5864961,"tags":{"name":"Машзавод","public_transport":"stop_position","railway":"tram_stop","tram":"yes"}},{"type":"node","id":13392257781,"lat":49.9779162,"lon":82.5864045,"tags":{"name":"Машзавод","public_transport":"stop_position","railway":"tram_stop","tram":"yes"}},{"type":"node","id":13392257797,"lat":49.9818588,"lon":82.5779821,"tags":{"name":"Гипермаркет Адем","public_transport":"stop_position","railway":"tram_stop","tram":"yes"}},{"type":"node","id":13392257798,"lat":49.981445,"lon":82.5784591,"tags":{"name":"Гипермаркет Адем","public_transport":"stop_position","railway":"tram_stop","tram":"yes"}},{"type":"node","id":13392257799,"lat":49.9834889,"lon":82.5758718,"tags":{"name":"Училище","public_transport":"stop_position","railway":"tram_stop","tram":"yes"}},{"type":"node","id":13392257800,"lat":49.9834851,"lon":82.5758198,"tags":{"name":"Училище","public_transport":"stop_position","railway":"tram_stop","tram":"yes"}},{"type":"node","id":13392257801,"lat":49.9861136,"lon":82.5726152,"tags":{"name":"Электротовары","public_transport":"stop_position","railway":"tram_stop","tram":"yes"}},{"type":"node","id":13392257802,"lat":49.9864294,"lon":82.572191,"tags":{"name":"Электротовары","public_transport":"stop_position","railway":"tram_stop","tram":"yes"}},{"type":"node","id":13392257803,"lat":49.9891457,"lon":82.5690707,"tags":{"name":"Пограничная","public_transport":"stop_position","railway":"tram_stop","tram":"yes"}},{"type":"node","id":13392257804,"lat":49.9894086,"lon":82.5687421,"tags":{"name":"Пограничная","public_transport":"stop_position","railway":"tram_stop","tram":"yes"}},{"type":"node","id":13392257817,"lat":49.9945529,"lon":82.5645956,"tags":{"name":"Кривонога","public_transport":"stop_position","railway":"tram_stop","tram":"yes"}},{"type":"node","id":13392257818,"lat":49.9945403,"lon":82.5645595,"tags":{"name":"Кривонога","public_transport":"stop_position","railway":"tram_stop","tram":"yes"}},{"type":"node","id":13392257839,"lat":49.9982853,"lon":82.5621293,"tags":{"name":"Авроры","public_transport":"stop_position","railway":"tram_stop","tram":"yes"}},{"type":"node","id":13392257840,"lat":49.9982802,"lon":82.562094,"tags":{"name":"Авроры","public_transport":"stop_position","railway":"tram_stop","tram":"yes"}}]}