{"elements":[{"type":"relation","id":5990742,"tags":{"colour":"#FEBEB5","distance":"6.56","from":"紅樹林","from:en":"Hongshulin","name":"淡海輕軌藍海線","network":"淡海輕軌","operator":"新北大眾捷運股份有限公司","ref":"V","route":"light_rail","to":"淡水漁人碼頭","type":"route","wikidata":"Q85884091","wikipedia":"zh:藍海線"},"members":[{"type":"node","ref":6522737084,"role":""},{"type":"node","ref":3743802021,"role":""},{"type":"node","ref":6155745376,"role":""},{"type":"node","ref":6155745377,"role":""},{"type":"node","ref":6155745378,"role":""},{"type":"node","ref":6155745379,"role":""},{"type":"node","ref":6155745371,"role":""},{"type":"node","ref":6155745372,"role":""},{"type":"node","ref":6155745368,"role":""},{"type":"node","ref":4014856069,"role":"stop"},{"type":"node","ref":9001013375,"role":""},{"type":"node","ref":8043755931,"role":""}]},{"type":"relation","id":9154523,"tags":{"colour":"#FEBEB5","from":"紅樹林","from:en":"Hongshulin","from:ko":"홍수린","name":"淡海輕軌 紅樹林-崁頂 (上行)","name:en":"Danhai LRT Hongshulin-Kanding (Outbound)","name:ja":"淡海ライトレール 紅樹林-崁頂(上り)","name:ko":"단하이 라이트 레일 홍수린-칸딩 (상행)","name:zh":"淡海輕軌 紅樹林-崁頂 (上行)","network":"淡海輕軌","network:en":"New Taipei Metro","network:ja":"新北メトロ","network:ko":"신베이 지하철","operator":"新北大眾捷運股份有限公司","operator:en":"New Taipei Metro Corporation","ref":"V","route":"light_rail","to":"崁頂","to:en":"Kanding","to:ko":"칸딩","type":"route","wikidata":"Q51691675","wikipedia":"zh:綠山線","wikipedia:en":"Green Mountain line"},"members":[{"type":"node","ref":6522737084,"role":"stop"},{"type":"node","ref":3743802021,"role":"stop"},{"type":"node","ref":6155745376,"role":"stop"},{"type":"node","ref":6155745377,"role":"stop"},{"type":"node","ref":6155745378,"role":"stop"},{"type":"node","ref":6155745379,"role":"stop"},{"type":"node","ref":6155745371,"role":"stop"},{"type":"node","ref":6155745372,"role":"stop"},{"type":"node","ref":6155745368,"role":"stop"},{"type":"node","ref":6155745369,"role":"stop"},{"type":"node","ref":6522757003,"role":"stop"}]},{"type":"relation","id":9154524,"tags":{"colour":"#FEBEB5","from":"崁頂","from:en":"Kanding","from:ko":"홍수린","name":"淡海輕軌 崁頂-紅樹林 (下行)","name:en":"Danhai LRT Kanding-Hongshulin (Inbound)","name:ja":"淡海ライトレール 紅樹林-崁頂(下り)","name:ko":"단하이 라이트 레일 칸딩-홍수린 (하행)","name:zh":"淡海輕軌 崁頂-紅樹林 (下行)","network":"淡海輕軌","network:ko":"신베이 지하철","operator":"新北捷運","operator:en":"New Taipei Metro","ref":"V","route":"light_rail","to":"紅樹林","to:en":"Hongshulin","to:ko":"홍수린","type":"route","wikidata":"Q51691675","wikipedia":"zh:綠山線"},"members":[{"type":"node","ref":6522757004,"role":"stop"},{"type":"node","ref":6155745369,"role":"stop"},{"type":"node","ref":6155745368,"role":"stop"},{"type":"node","ref":6155745372,"role":"stop"},{"type":"node","ref":6155745371,"role":"stop"},{"type":"node","ref":6155745379,"role":"stop"},{"type":"node","ref":6155745378,"role":"stop"},{"type":"node","ref":6155745377,"role":"stop"},{"type":"node","ref":6155745376,"role":"stop"},{"type":"node","ref":5742593072,"role":"stop"},{"type":"node","ref":6522738085,"role":"stop"}]},{"type":"relation","id":13611116,"tags":{"colour":"#FEBEB5","from":"淡水漁人碼頭","name":"淡海輕軌藍海線","network":"淡海輕軌","operator":"新北大眾捷運股份有限公司","ref":"V","route":"light_rail","to":"紅樹林","to:en":"Hongshulin","type":"route","wikidata":"Q85884091","wikipedia":"zh:藍海線"},"members":[{"type":"node","ref":8043755931,"role":""},{"type":"node","ref":9001013374,"role":""},{"type":"node","ref":4014856069,"role":"stop"},{"type":"node","ref":6155745368,"role":""},{"type":"node","ref":6155745372,"role":""},{"type":"node","ref":6155745371,"role":""},{"type":"node","ref":6155745379,"role":""},{"type":"node","ref":6155745378,"role":""},{"type":"node","ref":6155745377,"role":""},{"type":"node","ref":6155745376,"role":""},{"type":"node","ref":5742593072,"role":""},{"type":"node","ref":6522738085,"role":""}]},{"type":"relation","id":15443525,"tags":{"colour":"#c3b091","from":"雙城","name":"安坑輕軌(東向)","name:en":"Ankeng Light Rail (Eastbound)","name:hak":"Ôn-hâng Khiâng-kúi","name:ja":"安坑軽軌","name:ko":"신베이 첩운 안컹 경전철","name:nan":"Àm-khiⁿ Khin-thih(Hiong-tang)","name:nan-Hant":"安坑輕鐵(向東)","name:nan-Latn-pehoeji":"Àm-khiⁿ Khin-thih(Hiong-tang)","name:nan-Latn-tailo":"Àm-khinn Khin-thih(Hiong-tang)","name:vi":"Đường sắt nhẹ An Khanh","name:zh":"安坑輕軌(東向)","network":"新北捷運","operator":"新北捷運公司","public_transport:version":"2","ref":"K","route":"light_rail","to":"十四張","type":"route","wikidata":"Q10914168","wikipedia":"zh:安坑輕軌","wikipedia:hak":"Ôn-hâng Khiâng-thiet","wikipedia:nan":"Àm-kheⁿ Khin-thih"},"members":[{"type":"node","ref":12031041863,"role":"stop"},{"type":"node","ref":10678684636,"role":"stop"},{"type":"node","ref":6794461155,"role":"stop"},{"type":"node","ref":10678684635,"role":"stop"},{"type":"node","ref":10679298298,"role":"stop"},{"type":"node","ref":10679298296,"role":"stop"},{"type":"node","ref":10678684639,"role":"stop"},{"type":"node","ref":10678684640,"role":"stop"},{"type":"node","ref":10678684642,"role":"stop"},{"type":"node","ref":13851870615,"role":""}]},{"type":"relation","id":15443526,"tags":{"colour":"#c3b091","from":"十四張","name":"安坑輕軌(西向)","name:en":"Ankeng Light Rail (Westbound)","name:hak":"Ôn-hâng Khiâng-kúi","name:ja":"安坑軽軌","name:ko":"신베이 첩운 안컹 경전철","name:nan":"Àm-khiⁿ Khin-thih(Hiong-se)","name:nan-Hant":"安坑輕鐵(向西)","name:nan-Latn-pehoeji":"Àm-khiⁿ Khin-thih(Hiong-se)","name:nan-Latn-tailo":"Àm-khinn Khin-thih(Hiong-se)","name:vi":"Đường sắt nhẹ An Khanh","name:zh":"安坑輕軌(西向)","network":"新北捷運","operator":"新北捷運公司","public_transport:version":"2","ref":"K","route":"light_rail","to":"雙城","type":"route","wikidata":"Q10914168","wikipedia":"zh:安坑輕軌","wikipedia:hak":"Ôn-hâng Khiâng-thiet","wikipedia:nan":"Àm-kheⁿ Khin-thih"},"members":[{"type":"node","ref":10678684643,"role":"stop"},{"type":"node","ref":10678684641,"role":"stop"},{"type":"node","ref":10678684638,"role":"stop"},{"type":"node","ref":10605446231,"role":"stop"},{"type":"node","ref":10679298295,"role":"stop"},{"type":"node","ref":10679298297,"role":"stop"},{"type":"node","ref":6794461126,"role":"stop"},{"type":"node","ref":6790847314,"role":"stop"},{"type":"node","ref":10678684637,"role":"stop"},{"type":"node","ref":12031041863,"role":"stop"}]},{"type":"node","id":3743802021,"lat":25.1621847,"lon":121.4562585},{"type":"node","id":4014856069,"lat":25.1911611,"lon":121.426285},{"type":"node","id":5742593072,"lat":25.1621836,"lon":121.4561859},{"type":"node","id":6155745368,"lat":25.1904655,"lon":121.4316345},{"type":"node","id":6155745369,"lat":25.1956548,"lon":121.4324753},{"type":"node","id":6155745371,"lat":25.1889533,"lon":121.4445041},{"type":"node","id":6155745372,"lat":25.1897184,"lon":121.4373723},{"type":"node","id":6155745376,"lat":25.1693035,"lon":121.4608263},{"type":"node","id":6155745377,"lat":25.1770757,"lon":121.4559765},{"type":"node","id":6155745378,"lat":25.1812144,"lon":121.452165},{"type":"node","id":6155745379,"lat":25.1838978,"lon":121.4481232},{"type":"node","id":6522737084,"lat":25.155448,"lon":121.4589646},{"type":"node","id":6522738085,"lat":25.155446,"lon":121.4588663},{"type":"node","id":6522757003,"lat":25.2009352,"lon":121.4346598},{"type":"node","id":6522757004,"lat":25.2009639,"lon":121.4345819},{"type":"node","id":6790847314,"lat":24.9506463,"lon":121.4936708},{"type":"node","id":6794461126,"lat":24.9537058,"lon":121.4993655},{"type":"node","id":6794461155,"lat":24.9505828,"lon":121.4937379},{"type":"node","id":8043755931,"lat":25.1820049,"lon":121.4186124},{"type":"node","id":9001013374,"lat":25.1874203,"lon":121.4172517},{"type":"node","id":9001013375,"lat":25.1874774,"lon":121.4172113},{"type":"node","id":10605446231,"lat":24.9651802,"lon":121.5172299},{"type":"node","id":10678684635,"lat":24.9536831,"lon":121.499373},{"type":"node","id":10678684636,"lat":24.946319,"lon":121.4896824},{"type":"node","id":10678684637,"lat":24.9463435,"lon":121.4896421},{"type":"node","id":10678684638,"lat":24.9723161,"lon":121.5194839},{"type":"node","id":10678684639,"lat":24.9723041,"lon":121.519538},{"type":"node","id":10678684640,"lat":24.9834205,"lon":121.5185914},{"type":"node","id":10678684641,"lat":24.9834682,"lon":121.518588},{"type":"node","id":10678684642,"lat":24.9843413,"lon":121.5272821},{"type":"node","id":10678684643,"lat":24.9843961,"lon":121.5273372},{"type":"node","id":10679298295,"lat":24.955568,"lon":121.5104064},{"type":"node","id":10679298296,"lat":24.9555463,"lon":121.5104249},{"type":"node","id":10679298297,"lat":24.9544702,"lon":121.5042172},{"type":"node","id":10679298298,"lat":24.9544763,"lon":121.5051168},{"type":"node","id":12031041863,"lat":24.9431702,"lon":121.4867799},{"type":"node","id":13851870615,"lat":24.9651443,"lon":121.5173601}]}