{"elements":[{"type":"node","id":21477249,"lat":-27.6087887,"lon":152.9014958,"tags":{"gtfs:stop_id":"place_goosta","name":"Goodna","network":"Translink","network:wikidata":"Q7833625","operator":"Queensland Rail","operator:wikidata":"Q379439","public_transport":"station","railway":"station","toilets:wheelchair":"yes","train":"yes","wheelchair":"yes","wikidata":"Q5583487","wikipedia":"en:Goodna railway station"}},{"type":"node","id":21477255,"lat":-27.6021013,"lon":152.9191475,"tags":{"gtfs:stop_id":"place_gaista","name":"Gailes","network":"Translink","network:wikidata":"Q7833625","operator":"Queensland Rail","operator:wikidata":"Q379439","public_transport":"station","railway":"station","train":"yes","wheelchair":"limited","wikidata":"Q5517180","wikipedia":"en:Gailes railway station"}},{"type":"node","id":21477257,"lat":-27.589173,"lon":152.9243501,"tags":{"gtfs:stop_id":"place_wacsta","name":"Wacol","network":"Translink","network:wikidata":"Q7833625","operator":"Queensland Rail","operator:wikidata":"Q379439","public_transport":"station","railway":"station","train":"yes","wikidata":"Q7958870","wikipedia":"en:Wacol railway station"}},{"type":"node","id":21477658,"lat":-27.4766028,"lon":152.9967565,"tags":{"gtfs_id":"place_aucsta","gtfs_location_type":"1","name":"Auchenflower","network":"Translink","network:wikidata":"Q7833625","operator":"Queensland Rail","operator:wikidata":"Q379439","public_transport":"station","railway":"station","train":"yes","wheelchair":"yes","wikidata":"Q4819395","wikipedia":"en:Auchenflower railway station"}},{"type":"node","id":26337486,"lat":-27.4290524,"lon":153.0404703,"tags":{"gtfs:location_type":"1","gtfs:stop_id":"place_albsta","name":"Albion","network":"Translink","network:wikidata":"Q7833625","operator":"Queensland Rail","operator:wikidata":"Q379439","public_transport":"station","railway":"station","train":"yes","wheelchair":"yes","wikidata":"Q4712573","wikipedia":"en:Albion railway station, Brisbane"}},{"type":"node","id":26341699,"lat":-27.4079227,"lon":153.0586704,"tags":{"gtfs:stop_id":"place_tomsta","name":"Toombul","network":"Translink","network:wikidata":"Q7833625","operator":"Queensland Rail","operator:wikidata":"Q379439","public_transport":"station","railway":"station","toilets:wheelchair":"yes","train":"yes","wheelchair":"yes","wikidata":"Q7824124","wikipedia":"en:Toombul railway station"}},{"type":"node","id":26342934,"lat":-27.4182154,"lon":153.0578224,"tags":{"gtfs:stop_id":"place_clasta","name":"Clayfield","network":"Translink","network:wikidata":"Q7833625","operator":"Queensland Rail","operator:wikidata":"Q379439","public_transport":"station","railway":"station","train":"yes","wikidata":"Q5130090","wikipedia":"en:Clayfield railway station"}},{"type":"node","id":59958634,"lat":-27.5521072,"lon":152.9738541,"tags":{"gtfs:stop_id":"place_oxlsta","name":"Oxley","network":"Translink","network:wikidata":"Q7833625","operator":"Queensland Rail","operator:wikidata":"Q379439","public_transport":"station","railway":"station","toilets:wheelchair":"yes","train":"yes","wheelchair":"yes","wikidata":"Q7115694","wikipedia":"en:Oxley railway station"}},{"type":"node","id":60410704,"lat":-27.4232196,"lon":153.0008299,"tags":{"gtfs:location_type":"1","gtfs:stop_id":"place_aldsta","name":"Alderley","network":"Translink","network:wikidata":"Q7833625","operator":"Queensland Rail","operator:wikidata":"Q379439","public_transport":"station","railway":"station","toilets:wheelchair":"no","train":"yes","wheelchair":"yes","wikidata":"Q4713684","wikipedia":"en:Alderley railway station, Brisbane"}},{"type":"node","id":72422608,"lat":-27.4353436,"lon":153.0290659,"tags":{"gtfs:location_type":"1","gtfs:stop_id":"place_winsta","name":"Windsor","network":"Translink","network:wikidata":"Q7833625","operator":"Queensland Rail","operator:wikidata":"Q379439","public_transport":"station","railway":"station","train":"yes","wheelchair":"limited","wikidata":"Q8024756","wikipedia":"en:Windsor railway station, Brisbane"}},{"type":"node","id":72422629,"lat":-27.436212,"lon":153.0191922,"tags":{"gtfs:stop_id":"place_wilsta","name":"Wilston","network":"Translink","network:wikidata":"Q7833625","operator":"Queensland Rail","operator:wikidata":"Q379439","public_transport":"station","railway":"station","toilets:wheelchair":"no","train":"yes","wheelchair":"no","wikidata":"Q8023329","wikipedia":"en:Wilston railway station"}},{"type":"node","id":72438166,"lat":-27.4203274,"lon":152.9923929,"tags":{"gtfs:stop_id":"place_enosta","name":"Enoggera","network":"Translink","network:wikidata":"Q7833625","operator":"Queensland Rail","operator:wikidata":"Q379439","public_transport":"station","railway":"station","train":"yes","wheelchair":"limited","wikidata":"Q5379364","wikipedia":"en:Enoggera railway station"}},{"type":"node","id":72438183,"lat":-27.4192267,"lon":152.9849743,"tags":{"gtfs:stop_id":"place_gaysta","name":"Gaythorne","network":"Translink","network:wikidata":"Q7833625","operator":"Queensland Rail","operator:wikidata":"Q379439","public_transport":"station","railway":"station","toilets:wheelchair":"no","train":"yes","wheelchair":"limited","wikidata":"Q5528923","wikipedia":"en:Gaythorne railway station"}},{"type":"node","id":72438208,"lat":-27.4116762,"lon":152.9759985,"tags":{"gtfs:stop_id":"place_mitsta","name":"Mitchelton","network":"Translink","network:wikidata":"Q7833625","operator":"Queensland Rail","operator:wikidata":"Q379439","public_transport":"station","railway":"station","toilets:wheelchair":"yes","train":"yes","wheelchair":"yes","wikidata":"Q6881504","wikipedia":"en:Mitchelton railway station"}},{"type":"node","id":72502715,"lat":-27.4045119,"lon":152.9691588,"tags":{"addr:postcode":"4053","addr:state":"QLD","addr:street":"Scanlan Road","addr:suburb":"Mitchelton","gtfs:stop_id":"place_oxfsta","name":"Oxford Park","network":"Translink","network:wikidata":"Q7833625","operator":"Queensland Rail","operator:wikidata":"Q379439","public_transport":"station","railway":"station","toilets:wheelchair":"yes","train":"yes","wheelchair":"yes","wikidata":"Q7115411","wikipedia":"en:Oxford Park railway station"}},{"type":"node","id":72502739,"lat":-27.4045829,"lon":152.9625215,"tags":{"addr:postcode":"4054","addr:state":"QLD","addr:street":"Blaker Road","addr:suburb":"Keperra","gtfs:stop_id":"place_grosta","name":"Grovely","network":"Translink","network:wikidata":"Q7833625","operator":"Queensland Rail","operator:wikidata":"Q379439","public_transport":"station","railway":"station","toilets:wheelchair":"yes","train":"yes","wheelchair":"yes","wikidata":"Q14935429","wikipedia":"en:Grovely railway station"}},{"type":"node","id":72502795,"lat":-27.4008849,"lon":152.93449,"tags":{"addr:postcode":"4055","addr:state":"QLD","addr:street":"Conavalla Street","addr:suburb":"Ferny Grove","gtfs:stop_id":"place_fersta","name":"Ferny Grove","network":"Translink","network:wikidata":"Q7833625","operator":"Queensland Rail","operator:wikidata":"Q379439","public_transport":"station","railway":"station","toilets:wheelchair":"yes","train":"yes","wheelchair":"yes","wikidata":"Q5445173","wikipedia":"en:Ferny Grove railway station"}},{"type":"node","id":72595172,"lat":-27.400844,"lon":153.0620376,"tags":{"alt_name":"Nundah Train Station","gtfs:location_type":"1","gtfs:stop_id":"place_nunsta","name":"Nundah","network":"Translink","network:wikidata":"Q7833625","operator":"Queensland Rail","operator:wikidata":"Q379439","public_transport":"station","railway":"station","toilets:wheelchair":"yes","train":"yes","wheelchair":"limited","wikidata":"Q7069792","wikipedia":"en:Nundah railway station"}},{"type":"node","id":72595201,"lat":-27.3929532,"lon":153.0692217,"tags":{"gtfs:stop_id":"place_norsta","name":"Northgate","network":"Translink","network:wikidata":"Q7833625","operator":"Queensland Rail","operator:wikidata":"Q379439","public_transport":"station","railway":"station","toilets:wheelchair":"yes","train":"yes","wheelchair":"yes","wikidata":"Q7059471","wikipedia":"en:Northgate railway station, Brisbane"}},{"type":"node","id":72602540,"lat":-27.358573,"lon":153.0366768,"tags":{"gtfs:stop_id":"place_zllsta","gtfs_location_type":"1","name":"Zillmere station","network":"Translink","network:wikidata":"Q7833625","operator":"Queensland Rail","operator:wikidata":"Q379439","public_transport":"station","railway":"station","toilets:wheelchair":"yes","train":"yes","wheelchair":"yes","wikidata":"Q14935604","wikipedia":"en:Zillmere railway station"}},{"type":"node","id":72612219,"lat":-27.3208468,"lon":153.0110408,"tags":{"gtfs:stop_id":"place_balsta","name":"Bald Hills station","network":"Translink","network:wikidata":"Q7833625","operator":"Queensland Rail","operator:wikidata":"Q379439","public_transport":"station","railway":"station","toilets:wheelchair":"yes","train":"yes","wheelchair":"yes","wikidata":"Q4850325","wikipedia":"en:Bald Hills railway station"}},{"type":"node","id":72627546,"lat":-27.311379,"lon":152.9895459,"tags":{"gtfs:stop_id":"place_strsta","name":"Strathpine","network":"Translink","network:wikidata":"Q7833625","operator":"Queensland Rail","operator:wikidata":"Q379439","public_transport":"station","railway":"station","train":"yes","wheelchair":"limited","wikidata":"Q7622163","wikipedia":"en:Strathpine railway station"}},{"type":"node","id":72627580,"lat":-27.2684344,"lon":152.982095,"tags":{"addr:postcode":"4502","addr:state":"QLD","addr:street":"Station Street","addr:suburb":"Petrie","gtfs:stop_id":"place_petsta","internet_access":"no","name":"Petrie","network":"Translink","network:wikidata":"Q7833625","operator":"Queensland Rail","operator:wikidata":"Q379439","public_transport":"station","railway":"station","toilets:wheelchair":"yes","train":"yes","website":"https://jp.translink.com.au/plan-your-journey/stops/petrie-station","wheelchair":"yes","wikidata":"Q7178801","wikipedia":"en:Petrie railway station"}},{"type":"node","id":74863065,"lat":-27.4708987,"lon":153.0694657,"tags":{"gtfs_id":"place_mgssta","gtfs_location_type":"1","name":"Morningside","network":"Translink","network:wikidata":"Q7833625","operator":"Queensland Rail","operator:wikidata":"Q379439","public_transport":"station","railway":"station","train":"yes","wikidata":"Q14935505","wikipedia":"en:Morningside railway station, Queensland"}},{"type":"node","id":74870755,"lat":-27.5247942,"lon":153.0141843,"tags":{"gtfs:location_type":"1","gtfs:stop_id":"place_yeesta","name":"Yeerongpilly","network":"Translink","network:wikidata":"Q7833625","operator":"QueenslandRail - City network","public_transport":"station","railway":"station","source":"http://translink.com.au/about-translink/reporting-and-publications/public-transport-performance-data","train":"yes","wheelchair":"yes"}},{"type":"node","id":74882361,"lat":-27.5765696,"lon":153.0465488,"tags":{"gtfs:stop_id":"place_bansta","name":"Banoon","network":"Translink","network:wikidata":"Q7833625","operator":"Queensland Rail","operator:wikidata":"Q379439","public_transport":"station","railway":"station","train":"yes","wheelchair":"yes","wikidata":"Q4857030","wikipedia":"en:Banoon railway station"}},{"type":"node","id":74902279,"lat":-27.6381447,"lon":153.1037968,"tags":{"gtfs:stop_id":"place_wdrsta","name":"Woodridge","network":"Translink","network:wikidata":"Q7833625","operator":"Queensland Rail","operator:wikidata":"Q379439","public_transport":"station","railway":"station","toilets:wheelchair":"yes","train":"yes","wheelchair":"yes","wikidata":"Q8033147","wikipedia":"en:Woodridge railway station"}},{"type":"node","id":77717088,"lat":-27.5447116,"lon":153.0141081,"tags":{"gtfs:location_type":"1","gtfs:stop_id":"place_rocsta","name":"Rocklea","network":"Translink","network:wikidata":"Q7833625","operator":"Queensland Rail","operator:wikidata":"Q379439","public_transport":"station","railway":"station","train":"yes","wheelchair":"limited","wikidata":"Q7355473","wikipedia":"en:Rocklea railway station"}},{"type":"node","id":80597615,"lat":-27.439756,"lon":153.1661233,"tags":{"gtfs:stop_id":"place_wnmsta","name":"Wynnum station","network":"Translink","network:wikidata":"Q7833625","operator":"Queensland Rail","operator:wikidata":"Q379439","public_transport":"station","railway":"station","train":"yes","wheelchair":"no","wikidata":"Q8040237","wikipedia":"en:Wynnum railway station"}},{"type":"node","id":80598461,"lat":-27.4451863,"lon":153.1701303,"tags":{"gtfs:location_type":"1","gtfs:stop_id":"place_wynsta","name":"Wynnum Central station","network":"Translink","network:wikidata":"Q7833625","operator":"Queensland Rail","operator:wikidata":"Q379439","public_transport":"station","railway":"station","train":"yes","wikidata":"Q8040229","wikipedia":"en:Wynnum Central railway station"}},{"type":"node","id":80726056,"lat":-27.4700879,"lon":153.1885347,"tags":{"gtfs:stop_id":"place_lotsta","name":"Lota station","network":"Translink","network:wikidata":"Q7833625","operator":"Queensland Rail","operator:wikidata":"Q379439","public_transport":"station","railway":"station","train":"yes","wheelchair":"yes","wikidata":"Q6684611","wikipedia":"en:Lota railway station"}},{"type":"node","id":80806109,"lat":-27.494379,"lon":153.2417439,"tags":{"gtfs:stop_id":"place_welsta","name":"Wellington Point station","network":"Translink","network:wikidata":"Q7833625","operator":"Queensland Rail","operator:wikidata":"Q379439","public_transport":"station","railway":"station","train":"yes","wheelchair":"yes","wikidata":"Q7981461","wikipedia":"en:Wellington Point railway station"}},{"type":"node","id":80845684,"lat":-27.5145911,"lon":153.2558464,"tags":{"alt_name":"Ormiston","gtfs:location_type":"1","gtfs:stop_id":"place_ormsta","name":"Ormiston","network":"Translink","network:wikidata":"Q7833625","operator":"Queensland Rail","operator:wikidata":"Q379439","public_transport":"station","railway":"station","train":"yes","wheelchair":"yes","wikidata":"Q7103422","wikipedia":"en:Ormiston railway station"}},{"type":"node","id":80866438,"lat":-27.5241885,"lon":153.2652239,"tags":{"alt_name":"Cleveland Station","gtfs:stop_id":"place_clesta","name":"Cleveland","network":"Translink","network:wikidata":"Q7833625","operator":"Queensland Rail","operator:wikidata":"Q379439","public_transport":"station","railway":"station","toilets:wheelchair":"yes","train":"yes","wheelchair":"yes","wikidata":"Q5132313","wikipedia":"en:Cleveland railway station"}},{"type":"node","id":80926498,"lat":-27.6573298,"lon":153.1183024,"tags":{"gtfs:stop_id":"place_kgtsta","name":"Kingston","network":"Translink","network:wikidata":"Q7833625","operator":"Queensland Rail","operator:wikidata":"Q379439","public_transport":"station","railway":"station","toilets:wheelchair":"yes","train":"yes","wheelchair":"yes","wikidata":"Q6413644","wikipedia":"en:Kingston railway station, Brisbane"}},{"type":"node","id":80950753,"lat":-27.6707016,"lon":153.1379342,"tags":{"gtfs:location_type":"1","gtfs:stop_id":"place_logsta","name":"Loganlea","network":"Translink","network:wikidata":"Q7833625","operator":"Queensland Rail","operator:wikidata":"Q379439","public_transport":"station","railway":"station","train":"yes","wheelchair":"yes","wikidata":"Q6667286","wikipedia":"en:Loganlea railway station"}},{"type":"node","id":94539820,"lat":-27.2304611,"lon":152.9757656,"tags":{"gtfs:stop_id":"place_daksta","name":"Dakabin","network":"Translink","network:wikidata":"Q7833625","operator":"Queensland Rail","operator:wikidata":"Q379439","public_transport":"station","railway":"station","toilets:wheelchair":"yes","train":"yes","wheelchair":"yes","wikidata":"Q5209910","wikipedia":"en:Dakabin railway station"}},{"type":"node","id":94541420,"lat":-27.2023184,"lon":152.9598779,"tags":{"gtfs:stop_id":"place_narsta","name":"Narangba station","network":"Translink","network:wikidata":"Q7833625","operator":"Queensland Rail","operator:wikidata":"Q379439","public_transport":"station","railway":"station","toilets:wheelchair":"yes","train":"yes","wheelchair":"yes","wikidata":"Q6965351","wikipedia":"en:Narangba railway station"}},{"type":"node","id":94542590,"lat":-27.1624539,"lon":152.9572115,"tags":{"gtfs:stop_id":"place_bursta","name":"Burpengary","network":"Translink","network:wikidata":"Q7833625","operator":"Queensland Rail","operator:wikidata":"Q379439","public_transport":"station","railway":"station","toilets:wheelchair":"yes","train":"yes","wheelchair":"limited","wheelchair:description":"Overhead bridge between platforms with no lifts","wikidata":"Q5000288","wikipedia":"en:Burpengary railway station"}},{"type":"node","id":106812669,"lat":-27.6074945,"lon":152.8048151,"tags":{"gtfs:stop_id":"place_bunsta","name":"Bundamba","network":"Translink","network:wikidata":"Q7833625","operator":"Queensland Rail","operator:wikidata":"Q379439","public_transport":"station","railway":"station","toilets:wheelchair":"yes","train":"yes","wheelchair":"no","wikidata":"Q4997499","wikipedia":"en:Bundamba railway station"}},{"type":"node","id":124682385,"lat":-27.0829034,"lon":152.9537941,"tags":{"gtfs:stop_id:AU-QLD-Translink-SEQ":"place_cabstn","name":"Caboolture","name:zh":"卡布丘","network":"Translink","network:wikidata":"Q7833625","operator":"Queensland Rail","operator:wikidata":"Q379439","public_transport":"station","railway":"station","toilets:wheelchair":"yes","train":"yes","wheelchair":"yes","wheelchair:description":"Lifts on all three platforms, boarding ramps for wheelchairs","wikidata":"Q5015755","wikipedia":"en:Caboolture railway station"}},{"type":"node","id":124978784,"lat":-27.3467501,"lon":153.0679874,"tags":{"gtfs:stop_id":"place_bdlsta","name":"Boondall","network":"Translink","network:wikidata":"Q7833625","operator":"Queensland Rail","operator:wikidata":"Q379439","public_transport":"station","railway":"station","train":"yes","wheelchair":"yes","wikidata":"Q4943586","wikipedia":"en:Boondall railway station"}},{"type":"node","id":124981834,"lat":-27.3274352,"lon":153.063404,"tags":{"gtfs:stop_id":"place_deasta","name":"Deagon","network":"Translink","network:wikidata":"Q7833625","operator":"Queensland Rail","operator:wikidata":"Q379439","public_transport":"station","railway":"station","train":"yes","wheelchair":"yes","wikidata":"Q5245811","wikipedia":"en:Deagon railway station"}},{"type":"node","id":124989538,"lat":-27.3269657,"lon":153.0801166,"tags":{"gtfs:stop_id":"place_shnsta","name":"Shorncliffe","network":"Translink","network:wikidata":"Q7833625","operator":"Queensland Rail","operator:wikidata":"Q379439","public_transport":"station","railway":"station","train":"yes","wheelchair":"yes","wikidata":"Q7501517","wikipedia":"en:Shorncliffe railway station"}},{"type":"node","id":124995292,"lat":-27.3660824,"lon":153.0834119,"tags":{"gtfs:stop_id":"place_nudsta","name":"Nudgee","network":"Translink","network:wikidata":"Q7833625","operator":"Queensland Rail","operator:wikidata":"Q379439","public_transport":"station","railway":"station","train":"yes","wheelchair":"yes","wikidata":"Q7068371","wikipedia":"en:Nudgee railway station"}},{"type":"node","id":124999503,"lat":-27.3828324,"lon":153.0726715,"tags":{"addr:street":"Northlink Place","air_conditioning":"no","baby_feeding":"no","gtfs:stop_id":"place_binsta","internet_access":"no","name":"Bindha","network":"Translink","network:wikidata":"Q7833625","operator":"Queensland Rail","operator:wikidata":"Q379439","public_transport":"station","railway":"station","train":"yes","wheelchair":"no","wikidata":"Q4913992","wikipedia":"en:Bindha railway station"}},{"type":"node","id":157935302,"lat":-27.5206427,"lon":152.975874,"tags":{"gtfs:stop_id":"place_grasta","name":"Graceville","network":"Translink","network:wikidata":"Q7833625","operator":"Queensland Rail","operator:wikidata":"Q379439","public_transport":"station","railway":"station","train":"yes","wheelchair":"yes","wikidata":"Q5591479","wikipedia":"en:Graceville railway station"}},{"type":"node","id":157937538,"lat":-27.511992,"lon":152.9727635,"tags":{"gtfs:stop_id":"place_chesta","name":"Chelmer","network":"Translink","network:wikidata":"Q7833625","operator":"Queensland Rail","operator:wikidata":"Q379439","public_transport":"station","railway":"station","toilets:wheelchair":"no","train":"yes","wheelchair":"no","wikidata":"Q5089951","wikipedia":"en:Chelmer railway station"}},{"type":"node","id":158587304,"lat":-27.5311213,"lon":152.97948,"tags":{"gtfs:location_type":"1","gtfs:stop_id":"place_shesta","name":"Sherwood","network":"Translink","network:wikidata":"Q7833625","operator":"Queensland Rail","operator:wikidata":"Q379439","public_transport":"station","railway":"station","toilets:wheelchair":"no","train":"yes","wheelchair":"no","wikidata":"Q7495571","wikipedia":"en:Sherwood railway station, Brisbane"}},{"type":"node","id":180848703,"lat":-27.4329029,"lon":153.0106302,"tags":{"gtfs:stop_id":"place_newsta","name":"Newmarket","network":"Translink","network:wikidata":"Q7833625","operator":"Queensland Rail","operator:wikidata":"Q379439","public_transport":"station","railway":"station","toilets:wheelchair":"no","train":"yes","wheelchair":"yes"}},{"type":"node","id":194089284,"lat":-26.6605331,"lon":152.9628291,"tags":{"bench":"yes","gtfs:stop_id":"place_wbysta","name":"Woombye","network":"Translink","network:wikidata":"Q7833625","operator":"Queensland Rail","operator:wikidata":"Q379439","public_transport":"station","railway":"station","shelter":"yes","toilets:wheelchair":"no","train":"yes","wheelchair":"yes","wikidata":"Q8034004","wikipedia":"en:Woombye railway station"}},{"type":"node","id":332339550,"lat":-26.8569903,"lon":152.9583651,"tags":{"gtfs:stop_id":"place_bwrsta","name":"Beerwah","network":"Translink","network:wikidata":"Q7833625","operator":"Queensland Rail","operator:wikidata":"Q379439","public_transport":"station","railway":"station","toilets:wheelchair":"yes","train":"yes","wheelchair":"yes","wikidata":"Q4880097","wikipedia":"en:Beerwah railway station"}},{"type":"node","id":332803407,"lat":-27.5949777,"lon":152.850542,"tags":{"gtfs:stop_id":"place_rivsta","name":"Riverview","network":"Translink","network:wikidata":"Q7833625","operator":"Queensland Rail","operator:wikidata":"Q379439","public_transport":"station","railway":"station","toilets:wheelchair":"yes","train":"yes","wheelchair":"no","wikidata":"Q7338783","wikipedia":"en:Riverview railway station"}},{"type":"node","id":371255554,"lat":-27.5675046,"lon":153.0359212,"tags":{"gtfs:stop_id":"place_cppsta","name":"Coopers Plains","network":"Translink","network:wikidata":"Q7833625","operator":"Queensland Rail","operator:wikidata":"Q379439","public_transport":"station","railway":"station","train":"yes","wheelchair":"yes"}},{"type":"node","id":409523005,"lat":-27.4853426,"lon":152.9931507,"tags":{"addr:postcode":"4066","addr:suburb":"Toowong","gtfs_id":"place_twgsta","level":"-1","name":"Toowong","network":"Translink","network:wikidata":"Q7833625","operator":"Queensland Rail","operator:wikidata":"Q379439","public_transport":"station","railway":"station","toilets:wheelchair":"yes","train":"yes","wheelchair":"yes","wheelchair:description":"Unisex accessible toilet, no emergency button. Service counter (too high) inaccessible. Ramps to/from carpark inaccessible due to poor handrails. Wheelchair accessible Park’n’Ride carpark (3 parking slots), lift, entrance and path of travel available."}},{"type":"node","id":552609149,"lat":-27.8618645,"lon":153.3181868,"tags":{"name":"Wildlife","operator":"Ardent Leisure","railway":"halt"}},{"type":"node","id":552609171,"lat":-27.8629782,"lon":153.316674,"tags":{"name":"Central Park","operator":"Ardent Leisure","railway":"halt"}},{"type":"node","id":598737194,"lat":-27.4567001,"lon":153.1802938,"tags":{"gtfs:stop_id":"place_mansta","name":"Manly station","network":"Translink","network:wikidata":"Q7833625","operator":"Queensland Rail","operator:wikidata":"Q379439","public_transport":"station","railway":"station","train":"yes","wheelchair":"yes","wikidata":"Q6750629"}},{"type":"node","id":671909843,"lat":-27.5538617,"lon":153.0227655,"tags":{"gtfs:stop_id":"place_slysta","name":"Salisbury","network":"Translink","network:wikidata":"Q7833625","operator":"Queensland Rail","operator:wikidata":"Q379439","public_transport":"station","railway":"station","train":"yes","wikidata":"Q1976733","wikipedia":"en:Salisbury railway station"}},{"type":"node","id":761956852,"lat":-27.2994473,"lon":152.9861486,"tags":{"gtfs:stop_id:AU-QLD-Translink-SEQ":"place_brasta","name":"Bray Park","network":"Translink","network:wikidata":"Q7833625","operator":"Queensland Rail","operator:wikidata":"Q379439","public_transport":"station","railway":"station","train":"yes","wikidata":"Q4958525","wikipedia":"en:Bray Park railway station"}},{"type":"node","id":834962127,"lat":-27.0109689,"lon":152.9458398,"tags":{"gtfs:stop_id:AU-QLD-Translink-SEQ":"place_elmsta","name":"Elimbah","network":"Translink","network:wikidata":"Q7833625","operator":"Queensland Rail","operator:wikidata":"Q379439","public_transport":"station","railway":"station","toilets:wheelchair":"no","train":"yes","wheelchair":"yes","wikidata":"Q5361041","wikipedia":"en:Elimbah railway station"}},{"type":"node","id":1170486290,"lat":-27.6601814,"lon":152.9218282,"tags":{"gtfs:stop_id":"place_sprsta","name":"Springfield","network":"Translink","network:wikidata":"Q7833625","operator":"Queensland Rail","operator:wikidata":"Q379439","public_transport":"station","railway":"station","toilets:wheelchair":"yes","train":"yes","wheelchair":"yes","wikidata":"Q7581107","wikipedia":"en:Springfield railway station, Ipswich"}},{"type":"node","id":1514977324,"lat":-27.5097306,"lon":153.0279198,"tags":{"departures_board":"realtime","gtfs:location_type":"1","gtfs:stop_id":"place_faista","name":"Fairfield","network":"Translink","network:wikidata":"Q7833625","operator":"Queensland Rail","operator:wikidata":"Q379439","public_transport":"station","railway":"station","train":"yes","wheelchair":"limited","wikidata":"Q5430410","wikipedia":"en:Fairfield railway station, Brisbane"}},{"type":"node","id":1515149437,"lat":-27.5008079,"lon":153.0284819,"tags":{"gtfs_id":"place_dupsta","name":"Dutton Park","network":"Translink","network:wikidata":"Q7833625","operator":"Queensland Rail","operator:wikidata":"Q379439","public_transport":"station","railway":"station","train":"yes","wheelchair":"yes","wikidata":"Q5317557","wikipedia":"en:Dutton Park railway station"}},{"type":"node","id":1551218768,"lat":-27.4936653,"lon":153.0307399,"tags":{"gtfs_id":"place_parsta","name":"Boggo Road","network":"Translink","network:wikidata":"Q7833625","operator":"Queensland Rail","operator:wikidata":"Q379439","public_transport":"station","railway":"station","toilets:wheelchair":"yes","train":"yes","wheelchair":"yes","wikidata":"Q7137982"}},{"type":"node","id":1576419660,"lat":-27.4819333,"lon":153.0230021,"tags":{"gtfs_id":"place_sbasta","name":"South Bank","network":"Translink","network:wikidata":"Q7833625","operator":"Queensland Rail","operator:wikidata":"Q379439","public_transport":"station","railway":"station","train":"yes","wheelchair":"yes","wikidata":"Q7566239","wikipedia":"en:South Bank railway station, Brisbane"}},{"type":"node","id":1585256638,"lat":-27.4965485,"lon":153.0404486,"tags":{"name":"Buranda","network":"Translink","network:wikidata":"Q7833625","note":"\"The station is now closed until 2025 while major work is underway.\"","operator":"Queensland Rail","operator:wikidata":"Q379439","public_transport":"station","railway":"station","train":"yes","wheelchair":"yes","wikidata":"Q4998111","wikipedia":"en:Buranda railway station"}},{"type":"node","id":1727256242,"lat":-27.5960538,"lon":152.9469027,"tags":{"gtfs:location_type":"1","gtfs:stop_id":"place_rchstn","name":"Richlands","network":"Translink","network:wikidata":"Q7833625","operator":"Queensland Rail","operator:wikidata":"Q379439","platforms":"2","public_transport":"station","railway":"station","toilets:wheelchair":"yes","train":"yes","wheelchair":"yes","wikidata":"Q7330711","wikipedia":"en:Richlands railway station"}},{"type":"node","id":1764783030,"lat":-27.6885156,"lon":153.1587019,"tags":{"gtfs:location_type":"1","gtfs:stop_id":"place_betsta","name":"Bethania station","network":"Translink","network:wikidata":"Q7833625","operator":"Queensland Rail","operator:wikidata":"Q379439","public_transport":"station","railway":"station","train":"yes","wheelchair":"yes","wikidata":"Q4897695","wikipedia":"en:Bethania railway station"}},{"type":"node","id":1764783031,"lat":-27.6093284,"lon":152.789867,"tags":{"gtfs:stop_id":"place_bvlsta","name":"Booval","network":"Translink","network:wikidata":"Q7833625","operator":"Queensland Rail","operator:wikidata":"Q379439","platforms":"2","public_transport":"station","railway":"station","train":"yes","wikidata":"Q4944115","wikipedia":"en:Booval railway station"}},{"type":"node","id":1764783033,"lat":-27.6981039,"lon":153.1709432,"tags":{"gtfs:stop_id":"place_edesta","name":"Edens Landing","network":"Translink","network:wikidata":"Q7833625","operator":"Queensland Rail","operator:wikidata":"Q379439","public_transport":"station","railway":"station","train":"yes","wheelchair":"yes","wikidata":"Q5336782","wikipedia":"en:Eden's Landing railway station"}},{"type":"node","id":1764783037,"lat":-27.7095975,"lon":153.1875982,"tags":{"gtfs:stop_id":"place_holsta","name":"Holmview","network":"Translink","network:wikidata":"Q7833625","operator":"Queensland Rail","operator:wikidata":"Q379439","public_transport":"station","railway":"station","toilets:wheelchair":"no","train":"yes","wheelchair":"yes","wikidata":"Q14935442","wikipedia":"en:Holmview railway station"}},{"type":"node","id":1764783038,"lat":-27.6128766,"lon":152.7604193,"tags":{"gtfs:stop_id":"place_ipssta","internet_access":"no","name":"Ipswich","network":"Translink","network:wikidata":"Q7833625","operator":"Queensland Rail","operator:wikidata":"Q379439","public_transport":"station","railway":"station","toilets:wheelchair":"yes","train":"yes","wheelchair":"yes","wikidata":"Q14935450"}},{"type":"node","id":1875325765,"lat":-27.582802,"lon":153.0637229,"tags":{"gtfs:location_type":"1","gtfs:stop_id":"place_altsta","name":"Altandi","network":"Translink","network:wikidata":"Q7833625","operator":"Queensland Rail","operator:wikidata":"Q379439","public_transport":"station","railway":"station","train":"yes","wheelchair":"yes","wikidata":"Q4736152","wikipedia":"en:Altandi railway station"}},{"type":"node","id":1875325766,"lat":-27.3745474,"lon":153.0774268,"tags":{"gtfs:stop_id":"place_baysta","name":"Banyo","network":"Translink","network:wikidata":"Q7833625","operator":"Queensland Rail","operator:wikidata":"Q379439","public_transport":"station","railway":"station","train":"yes","wheelchair":"yes","wikidata":"Q4857365","wikipedia":"en:Banyo railway station"}},{"type":"node","id":1875325767,"lat":-26.9599338,"lon":152.9591884,"tags":{"gtfs:location_type":"1","gtfs:stop_id":"place_bbrsta","name":"Beerburrum","network":"Translink","network:wikidata":"Q7833625","operator":"Queensland Rail","operator:wikidata":"Q379439","public_transport":"station","railway":"station","toilets:wheelchair":"no","train":"yes","wheelchair":"yes","wheelchair:description":"Ramp access from car park to platform and lifts to travel over to southbound platform","wikidata":"Q4880056","wikipedia":"en:Beerburrum railway station"}},{"type":"node","id":1875325768,"lat":-27.3470687,"lon":153.0288395,"tags":{"gtfs:stop_id":"place_cassta","name":"Carseldine","network":"Translink","network:wikidata":"Q7833625","operator":"Queensland Rail","operator:wikidata":"Q379439","public_transport":"station","railway":"station","toilets:wheelchair":"yes","train":"yes","wheelchair":"yes","wikidata":"Q5046864","wikipedia":"en:Carseldine railway station"}},{"type":"node","id":1875325769,"lat":-27.5980946,"lon":153.0795497,"tags":{"gtfs:stop_id":"place_frusta","name":"Fruitgrove","network":"Translink","network:wikidata":"Q7833625","operator":"Queensland Rail","operator:wikidata":"Q379439","public_transport":"station","railway":"station","toilets:wheelchair":"yes","train":"yes","wheelchair":"yes","wikidata":"Q5506439","wikipedia":"en:Fruitgrove railway station"}},{"type":"node","id":1875325770,"lat":-27.6048157,"lon":153.0911787,"tags":{"gtfs:stop_id":"place_kursta","name":"Kuraby","network":"Translink","network:wikidata":"Q7833625","operator":"Queensland Rail","operator:wikidata":"Q379439","public_transport":"station","railway":"station","source":"bing","toilets:wheelchair":"yes","train":"yes","wheelchair":"yes","wikidata":"Q6445514","wikipedia":"en:Kuraby railway station"}},{"type":"node","id":1875325771,"lat":-27.5925791,"lon":153.0688031,"tags":{"gtfs:stop_id":"place_runsta","name":"Runcorn","network":"Translink","network:wikidata":"Q7833625","operator":"Queensland Rail","operator:wikidata":"Q379439","public_transport":"station","railway":"station","train":"yes","wheelchair":"yes","wikidata":"Q7379740","wikipedia":"en:Runcorn railway station, Brisbane"}},{"type":"node","id":1875325772,"lat":-27.5808267,"lon":153.0541119,"tags":{"gtfs:stop_id":"place_sunsta","name":"Sunnybank","network":"Translink","network:wikidata":"Q7833625","operator":"Queensland Rail","operator:wikidata":"Q379439","public_transport":"station","railway":"station","train":"yes","wheelchair":"yes","wikidata":"Q7640774","wikipedia":"en:Sunnybank railway station"}},{"type":"node","id":1875330646,"lat":-26.4176809,"lon":152.9111931,"tags":{"gtfs:stop_id":"place_crysta","name":"Cooroy","network":"Translink","network:wikidata":"Q7833625","operator":"Queensland Rail","operator:wikidata":"Q379439","public_transport":"station","railway":"station","train":"yes","wikidata":"Q5168051","wikipedia":"en:Cooroy railway station"}},{"type":"node","id":1875330648,"lat":-26.7254121,"lon":152.9568508,"tags":{"gtfs:stop_id":"place_eudsta","name":"Eudlo","network":"Translink","network:wikidata":"Q7833625","operator":"Queensland Rail","operator:wikidata":"Q379439","public_transport":"station","railway":"station","route_ref":"BRGY;BRNA;GYBR;IPNA;NABR;NAIP;NASP;RWNA;SPNA","toilets:wheelchair":"no","train":"yes","transport:zone":"5","url":"http://translink.com.au/stop/600490/gtfs/","wheelchair":"yes","wikidata":"Q5406545","wikipedia":"en:Eudlo railway station"}},{"type":"node","id":1875330650,"lat":-26.8992079,"lon":152.9562394,"tags":{"gtfs:stop_id":"place_gmtsta","name":"Glass House Mountains","network":"Translink","network:wikidata":"Q7833625","operator":"Queensland Rail","operator:wikidata":"Q379439","public_transport":"station","railway":"station","toilets:wheelchair":"no","train":"yes","wheelchair":"yes","wikidata":"Q5567166","wikipedia":"en:Glasshouse Mountains railway station"}},{"type":"node","id":1875330651,"lat":-26.8078971,"lon":152.9664042,"tags":{"gtfs:stop_id":"place_lansta","name":"Landsborough","network":"Translink","network:wikidata":"Q7833625","operator":"Queensland Rail","operator:wikidata":"Q379439","public_transport":"station","railway":"station","train":"yes","wheelchair":"yes","wikidata":"Q6485047","wikipedia":"en:Landsborough railway station"}},{"type":"node","id":1875330652,"lat":-26.7658274,"lon":152.9631605,"tags":{"gtfs:location_type":"1","gtfs:stop_id":"place_molsta","name":"Mooloolah","network":"Translink","network:wikidata":"Q7833625","operator":"Queensland Rail","operator:wikidata":"Q379439","public_transport":"station","railway":"station","toilets:wheelchair":"no","train":"yes","wheelchair":"yes","wikidata":"Q6907381","wikipedia":"en:Mooloolah railway station"}},{"type":"node","id":1875330653,"lat":-26.6254905,"lon":152.9580181,"tags":{"bench":"yes","gtfs:stop_id":"place_namsta","name":"Nambour","name:ja":"ナンボー","network":"Translink","network:wikidata":"Q7833625","operator":"Queensland Rail","operator:wikidata":"Q379439","public_transport":"station","railway":"station","shelter":"yes","train":"yes","wheelchair":"yes","wikidata":"Q6961411","wikipedia":"en:Nambour railway station"}},{"type":"node","id":1875506624,"lat":-27.4897559,"lon":153.0551958,"tags":{"gtfs_id":"place_coosta","name":"Coorparoo","network":"Translink","network:wikidata":"Q7833625","operator":"Queensland Rail","operator:wikidata":"Q379439","public_transport":"station","railway":"station","train":"yes","wheelchair":"yes","wikidata":"Q5168053","wikipedia":"en:Coorparoo railway station"}},{"type":"node","id":1875506631,"lat":-27.5390822,"lon":152.9801166,"tags":{"gtfs:stop_id":"place_corsta","name":"Corinda","network":"Translink","network:wikidata":"Q7833625","operator":"Queensland Rail","operator:wikidata":"Q379439","public_transport":"station","railway":"station","toilets:wheelchair":"yes","train":"yes","wheelchair":"yes","wikidata":"Q5170547","wikipedia":"en:Corinda railway station"}},{"type":"node","id":1875506635,"lat":-27.5659207,"lon":152.9523917,"tags":{"gtfs:stop_id":"place_darsta","name":"Darra station","network":"Translink","network:wikidata":"Q7833625","operator":"Queensland Rail","operator:wikidata":"Q379439","public_transport":"station","railway":"station","train":"yes","wheelchair":"yes","wikidata":"Q5224220","wikipedia":"en:Darra railway station"}},{"type":"node","id":1875506640,"lat":-27.5962555,"lon":152.8334865,"tags":{"air_conditioning":"no","internet_access":"no","name":"Dinmore","network":"Translink","network:wikidata":"Q7833625","operator":"Queensland Rail","operator:wikidata":"Q379439","public_transport":"station","railway":"station","train":"yes","wheelchair":"yes","wikidata":"Q5278392","wikipedia":"en:Dinmore railway station"}},{"type":"node","id":1875506645,"lat":-27.6033123,"lon":152.8221361,"tags":{"air_conditioning":"no","gtfs:stop_id":"place_ebbsta","name":"Ebbw Vale","network":"Translink","network:wikidata":"Q7833625","operator":"Queensland Rail","operator:wikidata":"Q379439","public_transport":"station","railway":"station","toilets:wheelchair":"no","train":"yes","wheelchair":"no"}},{"type":"node","id":1875506650,"lat":-27.4501081,"lon":153.0311046,"tags":{"gtfs_id":"place_exhsta","gtfs_location_type":"1","name":"Exhibition","network":"Translink","network:wikidata":"Q7833625","operator":"Queensland Rail","operator:wikidata":"Q379439","public_transport":"station","railway":"station","train":"yes","wikidata":"Q5420232","wikipedia":"en:Exhibition railway station, Brisbane"}},{"type":"node","id":1875506654,"lat":-27.3686814,"lon":153.0472237,"tags":{"gtfs:stop_id":"place_geesta","name":"Geebung station","network":"Translink","network:wikidata":"Q7833625","operator":"Queensland Rail","operator:wikidata":"Q379439","public_transport":"station","railway":"station","train":"yes","wheelchair":"yes","wikidata":"Q5529768","wikipedia":"en:Geebung railway station"}},{"type":"node","id":1875506684,"lat":-27.4816609,"lon":153.0623072,"tags":{"name":"Norman Park","network":"Translink","network:wikidata":"Q7833625","operator":"Queensland Rail","operator:wikidata":"Q379439","public_transport":"station","railway":"station","train":"yes","wheelchair":"limited","wikidata":"Q7052673","wikipedia":"en:Norman Park railway station"}},{"type":"node","id":1875506687,"lat":-27.3222807,"lon":153.0695096,"tags":{"gtfs:stop_id":"place_sansta","name":"Sandgate","network":"Translink","network:wikidata":"Q7833625","operator":"Queensland Rail","operator:wikidata":"Q379439","public_transport":"station","railway":"station","train":"yes","wheelchair":"yes","wikidata":"Q7416234","wikipedia":"en:Sandgate railway station, Brisbane"}},{"type":"node","id":1875506691,"lat":-27.3756865,"lon":153.0561703,"tags":{"gtfs:stop_id":"place_snssta","name":"Sunshine station","network":"Translink","network:wikidata":"Q7833625","operator":"Queensland Rail","operator:wikidata":"Q379439","public_transport":"station","railway":"station","train":"yes","wheelchair":"yes","wikidata":"Q7641611","wikipedia":"en:Sunshine railway station, Brisbane"}},{"type":"node","id":1875506696,"lat":-27.6268335,"lon":152.6298072,"tags":{"gtfs:location_type":"1","gtfs:stop_id":"place_thasta","name":"Thagoona","network":"Translink","network:wikidata":"Q7833625","operator":"Queensland Rail","operator:wikidata":"Q379439","public_transport":"station","railway":"station","train":"yes","wheelchair":"limited","wikidata":"Q7709075","wikipedia":"en:Thagoona railway station"}},{"type":"node","id":1875506706,"lat":-27.3821745,"lon":153.0624636,"tags":{"gtfs:stop_id":"place_virsta","name":"Virginia","network":"Translink","network:wikidata":"Q7833625","operator":"Queensland Rail","operator:wikidata":"Q379439","public_transport":"station","railway":"station","route_ref":"RPBR;RPIP;RPSP","toilets:wheelchair":"yes","train":"yes","transport:zone":"2","url":"http://translink.com.au/stop/600437/gtfs/","wheelchair":"yes","wikidata":"Q7934707","wikipedia":"en:Virginia railway station"}},{"type":"node","id":1875506710,"lat":-27.4198761,"lon":153.0434785,"tags":{"gtfs:stop_id":"place_wolsta","name":"Wooloowin","network":"Translink","network:wikidata":"Q7833625","operator":"Queensland Rail","operator:wikidata":"Q379439","public_transport":"station","railway":"station","train":"yes","wheelchair":"yes","wikidata":"Q8033910","wikipedia":"en:Wooloowin railway station"}},{"type":"node","id":1886174959,"lat":-27.33868,"lon":153.0606857,"tags":{"gtfs:stop_id":"place_nobsta","name":"North Boondall","network":"Translink","network:wikidata":"Q7833625","operator":"Queensland Rail","operator:wikidata":"Q379439","public_transport":"station","railway":"station","train":"yes","wheelchair":"yes","wikidata":"Q7054224","wikipedia":"en:North Boondall railway station"}},{"type":"node","id":2101353266,"lat":-28.1357551,"lon":153.4847138,"tags":{"name":"Kangaroo","operator":"Currumbin Wildlife Sanctuary","railway":"halt"}},{"type":"node","id":2101353305,"lat":-28.1362127,"lon":153.4887562,"tags":{"name":"Lorikeet","operator":"Currumbin Wildlife Sanctuary","railway":"halt"}},{"type":"node","id":2101353387,"lat":-28.1373569,"lon":153.4854276,"tags":{"name":"Wild","operator":"Currumbin Wildlife Sanctuary","railway":"halt"}},{"type":"node","id":2270234343,"lat":-27.2566193,"lon":152.9999358,"tags":{"gtfs:stop_id":"place_kalsta","name":"Kallangur","network":"Translink","network:wikidata":"Q7833625","operator":"Queensland Rail","operator:wikidata":"Q379439","public_transport":"station","railway":"station","train":"yes","wheelchair":"yes","wikidata":"Q6353561","wikipedia":"en:Kallangur railway station"}},{"type":"node","id":2270234344,"lat":-27.233522,"lon":153.0359018,"tags":{"gtfs:stop_id":"place_mhesta","name":"Mango Hill East","network":"Translink","network:wikidata":"Q7833625","operator":"Queensland Rail","operator:wikidata":"Q379439","public_transport":"station","railway":"station","train":"yes","wheelchair":"yes","wikidata":"Q6414250","wikipedia":"en:Mango Hill East railway station"}},{"type":"node","id":2270234346,"lat":-27.2523865,"lon":153.0115415,"tags":{"gtfs:stop_id":"place_mudsta","name":"Murrumba Downs","network":"Translink","network:wikidata":"Q7833625","operator":"Queensland Rail","operator:wikidata":"Q379439","public_transport":"station","railway":"station","train":"yes","wheelchair":"yes","wikidata":"Q6939633","wikipedia":"en:Murrumba Downs railway station"}},{"type":"node","id":2455570809,"lat":-27.4091674,"lon":152.9567405,"tags":{"addr:postcode":"4054","addr:state":"QLD","addr:street":"Silvertop Street","addr:suburb":"Keperra","gtfs:stop_id":"place_kepsta","name":"Keperra","network":"Translink","network:wikidata":"Q7833625","operator":"Queensland Rail","operator:wikidata":"Q379439","platforms":"2","public_transport":"station","railway":"station","toilets:wheelchair":"yes","train":"yes","wheelchair":"yes","wikidata":"Q6393116","wikipedia":"en:Keperra railway station"}},{"type":"node","id":2518427768,"lat":-26.6886909,"lon":152.9607632,"tags":{"bench":"yes","gtfs:stop_id":"place_palsta","name":"Palmwoods","network":"Translink","network:wikidata":"Q7833625","operator":"Queensland Rail","operator:wikidata":"Q379439","public_transport":"station","railway":"station","shelter":"yes","toilets:wheelchair":"no","train":"yes","wheelchair":"yes","wikidata":"Q7128447","wikipedia":"en:Palmwoods railway station"}},{"type":"node","id":2548824718,"lat":-27.517806,"lon":153.0168916,"tags":{"gtfs:location_type":"1","gtfs:stop_id":"place_yersta","name":"Yeronga","network":"Translink","network:wikidata":"Q7833625","operator":"Queensland Rail","operator:wikidata":"Q379439","public_transport":"station","railway":"station","toilets:wheelchair":"yes","train":"yes","wheelchair":"yes","wikidata":"Q8052645","wikipedia":"en:Yeronga railway station"}},{"type":"node","id":2550578520,"lat":-27.4452317,"lon":153.0375993,"tags":{"name":"Bowen Hills","network":"Translink","network:wikidata":"Q7833625","operator":"Queensland Rail","operator:wikidata":"Q379439","public_transport":"station","railway":"station","train":"yes","wheelchair":"yes","wikidata":"Q4950814","wikipedia":"en:Bowen Hills railway station"}},{"type":"node","id":2555532841,"lat":-27.431404,"lon":153.0747349,"tags":{"gtfs:stop_id":"place_dbnsta","name":"Doomben","network":"Translink","network:wikidata":"Q7833625","operator":"QueenslandRail - City network","operator:wikidata":"Q379439","public_transport":"station","railway":"station","train":"yes","wikidata":"Q5297080","wikipedia":"en:Doomben railway station"}},{"type":"node","id":2845294901,"lat":-26.4804077,"lon":152.9550344,"tags":{"gtfs:stop_id":"place_eumsta","name":"Eumundi","network":"Translink","network:wikidata":"Q7833625","operator":"Queensland Rail","operator:wikidata":"Q379439","public_transport":"station","railway":"station","route_ref":"BRGY;GYBR","train":"yes","transport:zone":"7","url":"http://translink.com.au/stop/600495/gtfs/","wikidata":"Q5409655","wikipedia":"en:Eumundi railway station"}},{"type":"node","id":2924645157,"lat":-27.613902,"lon":152.8012195,"tags":{"name":"Bundamba Racecourse","operator":"Queensland Pioneer Steam Railway","railway":"halt"}},{"type":"node","id":2985676707,"lat":-27.606649,"lon":152.758657,"tags":{"gtfs:stop_id":"place_rivrsc","name":"RiverLink Shopping Centre","network":"Translink","network:wikidata":"Q7833625","public_transport":"station","railway":"station","train":"yes"}},{"type":"node","id":3450098562,"lat":-28.0280264,"lon":153.4296732,"tags":{"brand":"G:Link","brand:wikidata":"Q10329246","gtfs:stop_id":"place_brnstn","light_rail":"yes","name":"Broadbeach North","network":"Translink","network:wikidata":"Q7833625","operator":"Keolis Downer","operator:wikidata":"Q6328065","public_transport":"station","railway":"station","station":"light_rail","wheelchair":"yes","wikidata":"Q55639370","wikipedia":"en:Broadbeach North light rail station"}},{"type":"node","id":3450098563,"lat":-28.0354209,"lon":153.4310628,"tags":{"brand":"G:Link","brand:wikidata":"Q10329246","gtfs:stop_id":"place_brsstn","light_rail":"yes","name":"Broadbeach South","network":"Translink","network:wikidata":"Q7833625","operator":"Keolis Downer","operator:wikidata":"Q6328065","public_transport":"station","railway":"station","station":"light_rail","wheelchair":"yes","wikidata":"Q17001750","wikipedia":"en:Broadbeach South light rail station"}},{"type":"node","id":3450098564,"lat":-27.9735149,"lon":153.41878,"tags":{"brand":"G:Link","brand:wikidata":"Q10329246","gtfs:stop_id":"place_brostn","light_rail":"yes","name":"Broadwater Parklands","network":"Translink","network:wikidata":"Q7833625","operator":"Keolis Downer","operator:wikidata":"Q6328065","public_transport":"station","railway":"station","station":"light_rail","wheelchair":"yes","wikidata":"Q55639372","wikipedia":"en:Broadwater Parklands light rail station"}},{"type":"node","id":3450098565,"lat":-28.001497,"lon":153.428369,"tags":{"brand":"G:Link","brand:wikidata":"Q10329246","gtfs:stop_id":"place_cavsta","light_rail":"yes","name":"Cavill Avenue","network":"Translink","network:wikidata":"Q7833625","operator":"Keolis Downer","operator:wikidata":"Q6328065","public_transport":"station","railway":"station","station":"light_rail","wheelchair":"yes","wikidata":"Q55639416","wikipedia":"en:Cavill Avenue light rail station"}},{"type":"node","id":3450098566,"lat":-27.9965164,"lon":153.4291636,"tags":{"brand":"G:Link","brand:wikidata":"Q10329246","gtfs:stop_id":"place_cypsta","light_rail":"yes","name":"Cypress Avenue","network":"Translink","network:wikidata":"Q7833625","operator":"Keolis Downer","operator:wikidata":"Q6328065","public_transport":"station","railway":"station","station":"light_rail","wheelchair":"yes","wikidata":"Q55639495","wikipedia":"en:Cypress Avenue light rail station"}},{"type":"node","id":3450098567,"lat":-28.0173386,"lon":153.4292753,"tags":{"brand":"G:Link","brand:wikidata":"Q10329246","gtfs:stop_id":"place_flostn","light_rail":"yes","name":"Florida Gardens","network":"Translink","network:wikidata":"Q7833625","operator":"Keolis Downer","operator:wikidata":"Q6328065","public_transport":"station","railway":"station","station":"light_rail","wheelchair":"yes","wikidata":"Q55639723","wikipedia":"en:Florida Gardens light rail station"}},{"type":"node","id":3450098569,"lat":-27.9633383,"lon":153.384692,"tags":{"brand":"G:Link","brand:wikidata":"Q10329246","gtfs:stop_id":"place_gristn","light_rail":"yes","name":"Griffith University","network":"Translink","network:wikidata":"Q7833625","operator":"Keolis Downer","operator:wikidata":"Q6328065","public_transport":"station","railway":"station","station":"light_rail","wheelchair":"yes","wikidata":"Q55639823","wikipedia":"en:Griffith University light rail station"}},{"type":"node","id":3450098570,"lat":-27.9820587,"lon":153.4234697,"tags":{"brand":"G:Link","brand:wikidata":"Q10329246","departures_board":"realtime","departures_board:speech_output":"yes","gtfs:stop_id":"place_maistn","light_rail":"yes","name":"Main Beach","network":"Translink","network:wikidata":"Q7833625","operator":"Keolis Downer","operator:wikidata":"Q6328065","public_transport":"station","railway":"station","station":"light_rail","wheelchair":"yes","wikidata":"Q55640967","wikipedia":"en:Main Beach light rail station"}},{"type":"node","id":3450098571,"lat":-27.9706699,"lon":153.4085075,"tags":{"brand":"G:Link","brand:wikidata":"Q10329246","gtfs:stop_id":"place_nerstn","light_rail":"yes","name":"Nerang Street","network":"Translink","network:wikidata":"Q7833625","operator":"Keolis Downer","operator:wikidata":"Q6328065","public_transport":"station","railway":"station","station":"light_rail","wheelchair":"yes","wikidata":"Q55641244","wikipedia":"en:Nerang Street light rail station"}},{"type":"node","id":3450098572,"lat":-28.0100551,"lon":153.4294949,"tags":{"brand":"G:Link","brand:wikidata":"Q10329246","gtfs:stop_id":"place_norstn","light_rail":"yes","name":"Northcliffe","network":"Translink","network:wikidata":"Q7833625","operator":"Keolis Downer","operator:wikidata":"Q6328065","public_transport":"station","railway":"station","station":"light_rail","wheelchair":"yes","wikidata":"Q55625457","wikipedia":"en:Northcliffe light rail station"}},{"type":"node","id":3450098573,"lat":-27.9701756,"lon":153.3944107,"tags":{"brand":"G:Link","brand:wikidata":"Q10329246","gtfs:stop_id":"place_qssstn","light_rail":"yes","name":"Queen Street","network":"Translink","network:wikidata":"Q7833625","operator":"Keolis Downer","operator:wikidata":"Q6328065","public_transport":"station","railway":"station","station":"light_rail","wheelchair":"yes","wikidata":"Q55641524","wikipedia":"en:Queen Street light rail station"}},{"type":"node","id":3450098574,"lat":-27.9725514,"lon":153.415546,"tags":{"brand":"G:Link","brand:wikidata":"Q10329246","gtfs:stop_id":"place_sosstn","light_rail":"yes","name":"Southport South","network":"Translink","network:wikidata":"Q7833625","operator":"Keolis Downer","operator:wikidata":"Q6328065","public_transport":"station","railway":"station","station":"light_rail","wheelchair":"yes","wikidata":"Q55641798","wikipedia":"en:Southport South light rail station"}},{"type":"node","id":3450098575,"lat":-27.9678395,"lon":153.4135619,"tags":{"brand":"G:Link","brand:wikidata":"Q10329246","gtfs:stop_id":"place_soustn","light_rail":"yes","name":"Southport","network":"Translink","network:wikidata":"Q7833625","operator":"Keolis Downer","operator:wikidata":"Q6328065","public_transport":"station","railway":"station","station":"light_rail","wheelchair":"yes","wikidata":"Q55641799","wikipedia":"en:Southport light rail station"}},{"type":"node","id":3450098576,"lat":-27.992619,"lon":153.4292567,"tags":{"brand":"G:Link","brand:wikidata":"Q10329246","gtfs:stop_id":"place_spnstn","light_rail":"yes","name":"Surfers Paradise North","network":"Translink","network:wikidata":"Q7833625","operator":"Keolis Downer","operator:wikidata":"Q6328065","public_transport":"station","railway":"station","station":"light_rail","wheelchair":"yes","wikidata":"Q55642181","wikipedia":"en:Surfers Paradise North light rail station"}},{"type":"node","id":3592172701,"lat":-26.6252403,"lon":152.9551095,"tags":{"name":"Sunshine Railway Modellers Society.","operator":"Sunshine Coast Railway Modellers Society Incorporated","railway":"halt"}},{"type":"node","id":4037697744,"lat":-28.0061229,"lon":153.4290694,"tags":{"brand":"G:Link","brand:wikidata":"Q10329246","gtfs:stop_id":"place_surstn","light_rail":"yes","name":"Surfers Paradise","network":"Translink","network:wikidata":"Q7833625","operator":"Keolis Downer","operator:wikidata":"Q6328065","public_transport":"station","railway":"station","station":"light_rail","wheelchair":"yes","wikidata":"Q55642182","wikipedia":"en:Surfers Paradise light rail station"}},{"type":"node","id":4433469296,"lat":-27.2240933,"lon":153.0479701,"tags":{"gtfs:stop_id":"place_rotsta","name":"Rothwell","network":"Translink","network:wikidata":"Q7833625","operator":"Queensland Rail","operator:wikidata":"Q379439","public_transport":"station","railway":"station","train":"yes","wikidata":"Q7370530","wikipedia":"en:Rothwell railway station"}},{"type":"node","id":4512483108,"lat":-27.6147798,"lon":152.74565,"tags":{"air_conditioning":"no","gtfs:stop_id":"place_thmsta","internet_access":"no","name":"Thomas Street","network":"Translink","network:wikidata":"Q7833625","operator":"Queensland Rail","operator:wikidata":"Q379439","public_transport":"station","railway":"station","train":"yes","wheelchair":"limited","wikidata":"Q7794242","wikipedia":"en:Thomas Street railway station"}},{"type":"node","id":4512483109,"lat":-27.6136054,"lon":152.732754,"tags":{"gtfs:location_type":"1","gtfs:stop_id":"place_wulsta","name":"Wulkuraka","network":"Translink","network:wikidata":"Q7833625","operator":"Queensland Rail","operator:wikidata":"Q379439","public_transport":"station","railway":"station","train":"yes","wheelchair":"yes","wikidata":"Q8039210","wikipedia":"en:Wulkuraka railway station"}},{"type":"node","id":4512483137,"lat":-27.6044244,"lon":152.7090779,"tags":{"gtfs:location_type":"1","gtfs:stop_id":"place_karsta","name":"Karrabin","network":"Translink","network:wikidata":"Q7833625","operator":"Queensland Rail","operator:wikidata":"Q379439","public_transport":"station","railway":"station","train":"yes","wheelchair":"limited","wikidata":"Q6373338","wikipedia":"en:Karrabin railway station"}},{"type":"node","id":4512483152,"lat":-27.6073451,"lon":152.6679831,"tags":{"gtfs:location_type":"1","gtfs:stop_id":"place_walsta","name":"Walloon","network":"Translink","network:wikidata":"Q7833625","operator":"Queensland Rail","operator:wikidata":"Q379439","public_transport":"station","railway":"station","train":"yes","wheelchair":"limited","wikidata":"Q7963184","wikipedia":"en:Walloon railway station"}},{"type":"node","id":4512483186,"lat":-27.6430219,"lon":152.5929254,"tags":{"gtfs:stop_id:AU-QLD-Translink-SEQ":"place_rossta","name":"Rosewood","network":"Translink","network:wikidata":"Q7833625","operator":"Queensland Rail","operator:wikidata":"Q379439","public_transport":"station","railway":"station","train":"yes","wheelchair":"yes","wikidata":"Q7368781","wikipedia":"en:Rosewood railway station"}},{"type":"node","id":4542186537,"lat":-27.2816645,"lon":152.9809094,"tags":{"gtfs:location_type":"1","gtfs:stop_id":"place_lawsta","name":"Lawnton","network":"Translink","network:wikidata":"Q7833625","operator":"Queensland Rail","operator:wikidata":"Q379439","public_transport":"station","railway":"station","train":"yes","wheelchair":"yes","wikidata":"Q6503722","wikipedia":"en:Lawnton railway station"}},{"type":"node","id":4717747448,"lat":-27.5994539,"lon":152.8724921,"tags":{"gtfs:location_type":"1","gtfs:stop_id":"place_rbksta","name":"Redbank","network":"Translink","network:wikidata":"Q7833625","operator":"Queensland Rail","operator:wikidata":"Q379439","public_transport":"station","railway":"station","toilets:wheelchair":"yes","train":"yes","wheelchair":"yes","wikidata":"Q7305460","wikipedia":"en:Redbank railway station"}},{"type":"node","id":4943269139,"lat":-27.1103742,"lon":152.9526408,"tags":{"gtfs:stop_id:AU-QLD-Translink-SEQ":"place_myesta","name":"Morayfield","network":"Translink","network:wikidata":"Q7833625","operator":"Queensland Rail","operator:wikidata":"Q379439","public_transport":"station","railway":"station","toilets:wheelchair":"yes","train":"yes","wheelchair":"yes","wikidata":"Q6909461","wikipedia":"en:Morayfield railway station"}},{"type":"node","id":5185704284,"lat":-27.2255501,"lon":153.0814912,"tags":{"gtfs:stop_id":"place_kprsta","name":"Kippa-Ring","network":"Translink","network:wikidata":"Q7833625","operator":"Queensland Rail","operator:wikidata":"Q379439","public_transport":"station","railway":"station","train":"yes","wikidata":"Q6414669","wikipedia":"en:Kippa-Ring railway station"}},{"type":"node","id":5369046255,"lat":-27.963052,"lon":153.3646652,"tags":{"brand":"G:Link","brand:wikidata":"Q10329246","gtfs:stop_id":"place_paestn","light_rail":"yes","name":"Parkwood East","network":"Translink","network:wikidata":"Q7833625","operator":"Keolis Downer","operator:wikidata":"Q6328065","public_transport":"station","railway":"station","station":"light_rail","wheelchair":"yes","wikidata":"Q55075170","wikipedia":"en:Parkwood East light rail station"}},{"type":"node","id":5369046256,"lat":-27.9519232,"lon":153.3471401,"tags":{"brand":"G:Link","brand:wikidata":"Q10329246","gtfs:stop_id":"place_parstn","light_rail":"yes","name":"Parkwood","network":"Translink","network:wikidata":"Q7833625","operator":"Keolis Downer","operator:wikidata":"Q6328065","public_transport":"station","railway":"station","station":"light_rail","wheelchair":"yes","wikidata":"Q55075171","wikipedia":"en:Parkwood light rail station"}},{"type":"node","id":5369046258,"lat":-27.9259349,"lon":153.3392609,"tags":{"brand":"G:Link","brand:wikidata":"Q10329246","gtfs:stop_id":"place_helsta","internet_access":"no","light_rail":"yes","name":"Helensvale","network":"Translink","network:wikidata":"Q7833625","operator":"Keolis Downer","operator:wikidata":"Q6328065","public_transport":"station","railway":"station","station":"light_rail","wheelchair":"yes","wikidata":"Q55075173","wikipedia":"en:Helensvale railway station"}},{"type":"node","id":5575091985,"lat":-27.6099905,"lon":152.7749713,"tags":{"gtfs:stop_id":"place_eassta","name":"East Ipswich","network":"Translink","network:wikidata":"Q7833625","old_name":"Limestone Railway Station","operator":"Queensland Rail","operator:wikidata":"Q379439","platforms":"2","public_transport":"station","railway":"station","toilets:wheelchair":"no","train":"yes","wheelchair":"yes","wikidata":"Q5328648","wikipedia":"en:East Ipswich railway station"}},{"type":"node","id":6955094203,"lat":-27.4750958,"lon":153.0184576,"tags":{"gtfs_id":"place_sousta","name":"South Brisbane","network":"Translink","network:wikidata":"Q7833625","operator":"Queensland Rail","operator:wikidata":"Q379439","public_transport":"station","railway":"station","train":"yes","wheelchair":"yes","wikidata":"Q7566410","wikipedia":"en:South Brisbane railway station"}},{"type":"node","id":7142532924,"lat":-26.6710974,"lon":152.9929055,"tags":{"name":"Koala","operator":"Big Pineapple","railway":"halt"}},{"type":"node","id":7885735988,"lat":-27.4472974,"lon":153.1274944,"tags":{"gtfs:location_type":"1","gtfs:stop_id":"place_hemsta","name":"Hemmant station","network":"Translink","network:wikidata":"Q7833625","operator":"Queensland Rail","operator:wikidata":"Q379439","public_transport":"station","railway":"station","train":"yes","wikidata":"Q5712322","wikipedia":"en:Hemmant railway station"}},{"type":"node","id":7951162750,"lat":-28.1391827,"lon":153.4846401,"tags":{"name":"Conservation","operator":"Currumbin Wildlife Sanctuary","railway":"halt"}},{"type":"node","id":8609032626,"lat":-27.2463131,"lon":153.0276923,"tags":{"gtfs:stop_id":"place_mahsta","name":"Mango Hill","network":"Translink","network:wikidata":"Q7833625","operator":"Queensland Rail","operator:wikidata":"Q379439","public_transport":"station","railway":"station","train":"yes","wheelchair":"yes","wikidata":"Q6749083","wikipedia":"en:Mango Hill railway station"}},{"type":"node","id":9027220592,"lat":-27.455896,"lon":153.0339375,"tags":{"level":"-1","name":"Fortitude Valley","name:en":"Fortitude Valley","name:zh":"華麗區站中國城","network":"Translink","network:wikidata":"Q7833625","operator":"Queensland Rail","operator:wikidata":"Q379439","public_transport":"station","railway":"station","train":"yes","wheelchair":"yes","wikidata":"Q5472690","wikipedia":"en:Fortitude Valley railway station"}},{"type":"node","id":9027220593,"lat":-27.4658449,"lon":153.0258422,"tags":{"gtfs_id":"place_censta","level":"-1","name":"Brisbane Central","network":"Translink","network:wikidata":"Q7833625","operator":"Queensland Rail","operator:wikidata":"Q379439","public_transport":"station","railway":"station","train":"yes","wheelchair":"yes","wikidata":"Q5062143"}},{"type":"node","id":9090213360,"lat":-27.4153654,"lon":153.0496018,"tags":{"name":"Eagle Junction","network":"Translink","network:wikidata":"Q7833625","operator":"Queensland Rail","operator:wikidata":"Q379439","public_transport":"station","railway":"station","train":"yes","wheelchair":"yes","wikidata":"Q5325147","wikipedia":"en:Eagle Junction railway station"}},{"type":"node","id":9174791077,"lat":-27.5986622,"lon":152.7597624,"tags":{"air_conditioning":"no","baby_feeding":"no","internet_access":"no","museum":"railway","name":"The Workshops Rail Museum","old_name":"North Ipswich","operator":"Queensland Rail","public_transport":"station","railway":"station","wheelchair":"yes"}},{"type":"node","id":9509524013,"lat":-27.9608318,"lon":153.3808455,"tags":{"brand":"G:Link","brand:wikidata":"Q10329246","gtfs:stop_id":"place_gcustn","light_rail":"yes","name":"Gold Coast University Hospital","network":"Translink","network:wikidata":"Q7833625","operator":"Keolis Downer","operator:wikidata":"Q6328065","public_transport":"station","railway":"station","station":"light_rail","wheelchair":"yes","wikidata":"Q19873644","wikipedia":"en:Gold Coast University Hospital light rail station"}},{"type":"node","id":9547032694,"lat":-27.3856545,"lon":153.1184918,"tags":{"alt_name":"Domestic Terminal","alt_name:1":"Airport Domestic","alt_name:2":"Domestic","alt_name:3":"Airtrain","alt_name:4":"Airport (Domestic)","gtfs:stop_id":"place_domsta","internet_access":"yes","internet_access:fee":"no","name":"Domestic Airport station","name:en":"Domestic Airport","name:zh":"国内机场站","name:zh-Hans":"国内机场站","network":"Translink","network:wikidata":"Q7833625","note:name":"This station has many variations on its name. It appears in QR timetables as Domestic Airport","operator":"Queensland Rail","operator:wikidata":"Q379439","owner":"Airtrain Citylink Limited","owner:wikidata":"Q28224670","ownership":"private","public_transport":"station","railway":"station","train":"yes","wheelchair":"yes","wikidata":"Q5290175","wikipedia":"en:Domestic Terminal railway station, Brisbane"}},{"type":"node","id":9586829503,"lat":-27.4649808,"lon":153.0183535,"tags":{"gtfs:stop_id:AU-NSW":"40001","gtfs:stop_id:AU-QLD":"place_romsta","name":"Roma Street","network":"Translink","network:wikidata":"Q7833625","note":"this is a rare case where the gtfs:* tags are required, because interstate services stop here","operator":"Queensland Rail","operator:wikidata":"Q379439","public_transport":"station","railway":"station","ref":"place_romsta","toilets:wheelchair":"yes","train":"yes","wheelchair":"yes","wikidata":"Q7361491","wikipedia":"en:Roma Street railway station"}},{"type":"node","id":9589502971,"lat":-27.4221958,"lon":153.062666,"tags":{"gtfs:stop_id":"place_hensta","name":"Hendra","network":"Translink","network:wikidata":"Q7833625","operator":"Queensland Rail","operator:wikidata":"Q379439","public_transport":"station","railway":"station","train":"yes","wikidata":"Q5713631","wikipedia":"en:Hendra railway station"}},{"type":"node","id":9589502972,"lat":-27.4294945,"lon":153.0633293,"tags":{"gtfs:location_type":"1","gtfs:stop_id":"place_ascsta","name":"Ascot","network":"Translink","network:wikidata":"Q7833625","operator":"Queensland Rail","operator:wikidata":"Q379439","public_transport":"station","railway":"station","train":"yes","wikidata":"Q4804048","wikipedia":"en:Ascot railway station, Brisbane"}},{"type":"node","id":9638845555,"lat":-27.4940051,"lon":153.2187802,"tags":{"gtfs:stop_id":"place_birsta","name":"Birkdale station","network":"Translink","network:wikidata":"Q7833625","operator":"Queensland Rail","operator:wikidata":"Q379439","public_transport":"station","railway":"station","train":"yes","wheelchair":"yes","wikidata":"Q4916405","wikipedia":"en:Birkdale railway station, Brisbane"}},{"type":"node","id":9658033653,"lat":-27.6317918,"lon":153.0978736,"tags":{"gtfs:stop_id":"place_trista","name":"Trinder Park","network":"Translink","network:wikidata":"Q7833625","operator":"Queensland Rail","operator:wikidata":"Q379439","public_transport":"station","railway":"station","toilets:wheelchair":"yes","train":"yes","wheelchair":"limited","wikidata":"Q14935585","wikipedia":"en:Trinder Park railway station"}},{"type":"node","id":9671379972,"lat":-26.9572428,"lon":152.7816709,"tags":{"name":"Woodford","operator":"Australian Narrow Gauge Railway Museum Society","railway":"halt"}},{"type":"node","id":9671718992,"lat":-27.6117135,"lon":152.5790252,"tags":{"name":"Cabanda","operator":"Rosewood Railway","railway":"halt"}},{"type":"node","id":9671721247,"lat":-27.6091627,"lon":152.5618356,"tags":{"name":"Kunkala","operator":"Rosewood Railway","railway":"halt"}},{"type":"node","id":10089713362,"lat":-27.4861066,"lon":153.1927309,"tags":{"gtfs:stop_id":"place_thosta","name":"Thorneside station","network":"Translink","network:wikidata":"Q7833625","operator":"Queensland Rail","operator:wikidata":"Q379439","public_transport":"station","railway":"station","train":"yes","wikidata":"Q7796391","wikipedia":"en:Thorneside railway station"}},{"type":"node","id":10110653441,"lat":-27.4653182,"lon":153.0886074,"tags":{"gtfs:location_type":"1","gtfs:stop_id":"place_cansta","name":"Cannon Hill","network":"Translink","network:wikidata":"Q7833625","operator":"Queensland Rail","operator:wikidata":"Q379439","public_transport":"station","railway":"station","train":"yes","wikidata":"Q5032774","wikipedia":"en:Cannon Hill railway station"}},{"type":"node","id":10110653443,"lat":-27.4647432,"lon":153.1057114,"tags":{"gtfs:location_type":"1","gtfs:stop_id":"place_mursta","name":"Murarrie","network":"Translink","network:wikidata":"Q7833625","operator":"Queensland Rail","operator:wikidata":"Q379439","public_transport":"station","railway":"station","train":"yes","wikidata":"Q6937362","wikipedia":"en:Murarrie railway station"}},{"type":"node","id":10110655267,"lat":-27.4372801,"lon":153.1588069,"tags":{"gtfs:stop_id":"place_wyhsta","name":"Wynnum North station","network":"Translink","network:wikidata":"Q7833625","operator":"Queensland Rail","operator:wikidata":"Q379439","public_transport":"station","railway":"station","train":"yes","wikidata":"Q14935599","wikipedia":"en:Wynnum North railway station"}},{"type":"node","id":10110676294,"lat":-27.4419176,"lon":153.1449418,"tags":{"gtfs:location_type":"1","gtfs:stop_id":"place_linsta","name":"Lindum station","network":"Translink","network:wikidata":"Q7833625","operator":"Queensland Rail","operator:wikidata":"Q379439","public_transport":"station","railway":"station","train":"yes","wheelchair":"yes","wikidata":"Q6552956","wikipedia":"en:Lindum railway station"}},{"type":"node","id":10156132141,"lat":-26.5608981,"lon":152.9581626,"tags":{"gtfs:stop_id":"place_yansta","name":"Yandina","network":"Translink","network:wikidata":"Q7833625","operator":"Queensland Rail","operator:wikidata":"Q379439","public_transport":"station","railway":"station","train":"yes","wikidata":"Q8048333","wikipedia":"en:Yandina railway station"}},{"type":"node","id":10156322860,"lat":-27.4689172,"lon":153.0052289,"tags":{"gtfs_id":"place_milsta","name":"Milton","network":"Translink","network:wikidata":"Q7833625","operator":"Queensland Rail","operator:wikidata":"Q379439","public_transport":"station","railway":"station","toilets:wheelchair":"yes","train":"yes","wheelchair":"yes","wheelchair:description":"Ramp access to platform 4. Lift access on all platforms. Attendants in morning and afternoon. Good height for go card and auditory train information.","wikidata":"Q6861559","wikipedia":"en:Milton railway station, Brisbane"}},{"type":"node","id":10156322863,"lat":-27.4931369,"lon":152.9816742,"tags":{"gtfs:location_type":"1","gtfs:stop_id":"place_tarsta","name":"Taringa","network":"Translink","network:wikidata":"Q7833625","operator":"Queensland Rail","operator:wikidata":"Q379439","public_transport":"station","railway":"station","toilets:wheelchair":"no","train":"yes","wheelchair":"no","wikidata":"Q7686117","wikipedia":"en:Taringa railway station"}},{"type":"node","id":10156322864,"lat":-27.5028297,"lon":152.9758788,"tags":{"gtfs:stop_id":"place_indsta","name":"Indooroopilly","network":"Translink","network:wikidata":"Q7833625","operator":"Queensland Rail","operator:wikidata":"Q379439","public_transport":"station","railway":"station","toilets:wheelchair":"yes","train":"yes","wheelchair":"yes","wheelchair:description":"2 accessible parks. 1 unisex, wheelchair accessible toilet on Level 1 (accessed via lift). All platforms accessible via lifts. Sufficient space to manoeuvre wheelchair in all necessary areas. Ticketing office on Level 1 with sufficient wheel-under space."}},{"type":"node","id":10156322866,"lat":-27.6742788,"lon":152.9027496,"tags":{"gtfs:location_type":"1","gtfs:stop_id":"place_spcsta","name":"Springfield Central","network":"Translink","network:wikidata":"Q7833625","operator":"Queensland Rail","operator:wikidata":"Q379439","public_transport":"station","railway":"station","train":"yes","wheelchair":"yes","wikidata":"Q7580944","wikipedia":"en:Springfield Central railway station"}},{"type":"node","id":10156322873,"lat":-27.7174025,"lon":153.2044387,"tags":{"gtfs:location_type":"1","gtfs:stop_id":"place_beesta","name":"Beenleigh station","network":"Translink","network:wikidata":"Q7833625","nohousenumber":"yes","operator":"Queensland Rail","operator:wikidata":"Q379439","public_transport":"station","railway":"station","source":"http://translink.com.au/about-translink/reporting-and-publications/public-transport-performance-data","toilets:wheelchair":"no","train":"yes","wheelchair":"yes","wikidata":"Q4879914","wikipedia":"en:Beenleigh railway station"}},{"type":"node","id":10156322874,"lat":-27.7991852,"lon":153.2824294,"tags":{"gtfs:location_type":"1","gtfs:stop_id":"place_omesta","name":"Ormeau","network":"Translink","network:wikidata":"Q7833625","operator":"Queensland Rail","operator:wikidata":"Q379439","public_transport":"station","railway":"station","toilets:wheelchair":"yes","train":"yes","wheelchair":"yes","wikidata":"Q7103380","wikipedia":"en:Ormeau railway station"}},{"type":"node","id":10156322875,"lat":-27.8523611,"lon":153.3170517,"tags":{"addr:postcode":"4209","addr:state":"QLD","addr:street":"Foxwell Road","addr:suburb":"Coomera","gtfs:stop_id":"place_cmrsta","gtfs_location_type":"1","name":"Coomera","network":"Translink","network:wikidata":"Q7833625","operator":"Queensland Rail","operator:wikidata":"Q379439","public_transport":"station","railway":"station","toilets:wheelchair":"yes","train":"yes","wheelchair":"yes","wikidata":"Q5167635","wikipedia":"en:Coomera railway station"}},{"type":"node","id":10156322876,"lat":-27.9254255,"lon":153.3389897,"tags":{"gtfs:stop_id":"place_helsta","gtfs_location_type":"1","name":"Helensvale","network":"Translink","network:wikidata":"Q7833625","operator":"Queensland Rail","operator:wikidata":"Q379439","public_transport":"station","railway":"station","toilets:wheelchair":"yes","train":"yes","wheelchair":"yes","wikidata":"Q5704052","wikipedia":"en:Helensvale railway station"}},{"type":"node","id":10156322877,"lat":-27.994108,"lon":153.3500265,"tags":{"gtfs:location_type":"1","gtfs:stop_id":"place_nrgsta","name":"Nerang","network":"Translink","network:wikidata":"Q7833625","operator":"Queensland Rail","operator:wikidata":"Q379439","public_transport":"station","railway":"station","toilets:wheelchair":"yes","train":"yes","wheelchair":"yes","wikidata":"Q6995905","wikipedia":"en:Nerang railway station"}},{"type":"node","id":10156322878,"lat":-28.0712214,"lon":153.3779723,"tags":{"gtfs:location_type":"1","gtfs:stop_id":"place_rbnsta","name":"Robina","network":"Translink","network:wikidata":"Q7833625","operator":"Queensland Rail","operator:wikidata":"Q379439","public_transport":"station","railway":"station","toilets:wheelchair":"yes","train":"yes","wheelchair":"yes","wikidata":"Q7352927","wikipedia":"en:Robina railway station"}},{"type":"node","id":10156322879,"lat":-28.0971316,"lon":153.3992325,"tags":{"gtfs:stop_id":"place_varsta","name":"Varsity Lakes","network":"Translink","network:wikidata":"Q7833625","operator":"Queensland Rail","operator:wikidata":"Q379439","public_transport":"station","railway":"station","toilets":"yes","toilets:wheelchair":"yes","train":"yes","wheelchair":"yes","wikidata":"Q7916152","wikipedia":"en:Varsity Lakes railway station"}},{"type":"node","id":11072195267,"lat":-27.8161082,"lon":153.2964328,"tags":{"gtfs:location_type":"1","gtfs:stop_id":"place_pimsta","name":"Pimpama","network":"Translink","network:wikidata":"Q7833625","operator":"Queensland Rail","operator:wikidata":"Q379439","public_transport":"station","railway":"station","toilets:wheelchair":"yes","train":"yes","wheelchair":"yes","wikidata":"Q70902860","wikipedia":"en:Pimpama railway station"}},{"type":"node","id":11824333107,"lat":-27.4026695,"lon":153.1087144,"tags":{"alt_name":"International Terminal","alt_name:1":"Airport International","alt_name:2":"International","alt_name:3":"Airtrain","alt_name:4":"Airport (International)","gtfs:stop_id":"place_intsta","internet_access":"yes","internet_access:fee":"no","name":"International Airport station","name:en":"International Airport","name:zh":"国际机场站","name:zh-Hans":"国际机场站","network":"Translink","network:wikidata":"Q7833625","note:name":"This station has many variations on its name. It appears in QR timetables as International Airport","operator":"Queensland Rail","operator:wikidata":"Q379439","owner":"Airtrain Citylink Limited","owner:wikidata":"Q28224670","ownership":"private","public_transport":"station","railway":"station","train":"yes","wheelchair":"yes","wikidata":"Q6053903","wikipedia":"en:International Terminal railway station, Brisbane"}},{"type":"node","id":13843538904,"lat":-27.879675,"lon":153.3313206,"tags":{"gtfs:location_type":"1","gtfs:stop_id":"place_hopsta","name":"Hope Island","network":"Translink","network:wikidata":"Q7833625","operator":"Queensland Rail","operator:wikidata":"Q379439","public_transport":"station","railway":"station","toilets:wheelchair":"yes","train":"yes","wheelchair":"yes","wikidata":"Q70902803","wikipedia":"en:Hope Island railway station"}},{"type":"node","id":353439929,"lat":-26.6252591,"lon":152.9551685,"tags":{"building":"transportation","name":"Sunshine Railway Modellers Society.","public_transport":"station","railway":"station","train":"yes"}},{"type":"node","id":1095047807,"lat":-27.6537726,"lon":152.8146974,"tags":{"building":"yes","name":"Swanbank","operator":"Queensland Pioneer Steam Railway","public_transport":"station","railway":"station"}},{"type":"node","id":1263622295,"lat":-27.8799411,"lon":153.3305904,"tags":{"landuse":"railway","name":"Hope Island","network":"Translink","network:wikidata":"Q7833625","operator":"Queensland Rail","operator:wikidata":"Q379439","public_transport":"station","railway":"station","train":"yes","wheelchair":"yes","wikidata":"Q70902803","wikipedia":"en:Hope Island railway station"}}]}