{"elements":[{"type":"node","id":1072923140,"lat":39.0005323,"lon":121.611805,"tags":{"name":"泉水","name:en":"Quanshui","public_transport":"stop_position","railway":"stop","subway":"yes"}},{"type":"node","id":1980682181,"lat":39.059328,"lon":121.7972867,"tags":{"name":"保税区","name:en":"Free Trade Zone","public_transport":"stop_position","railway":"stop","subway":"yes"}},{"type":"node","id":2156657158,"lat":39.0625615,"lon":121.866823,"tags":{"name":"双D港","name:en":"DD Port","public_transport":"stop_position","railway":"stop","subway":"yes"}},{"type":"node","id":2406247673,"lat":39.0205194,"lon":121.6326689,"tags":{"name":"后盐","name:en":"Houyan","public_transport":"stop_position","railway":"stop","subway":"yes"}},{"type":"node","id":2406247907,"lat":39.0344342,"lon":121.7046304,"tags":{"name":"大连湾","name:en":"Dalianwan","public_transport":"stop_position","railway":"stop","subway":"yes"}},{"type":"node","id":2406248320,"lat":39.0480788,"lon":121.7385787,"tags":{"name":"金马路","name:en":"Jinma Road","public_transport":"stop_position","railway":"stop","subway":"yes"}},{"type":"node","id":2406249416,"lat":39.0526499,"lon":121.769282,"tags":{"name":"开发区","name:en":"Dalian Development Area","public_transport":"stop_position","railway":"stop","subway":"yes"}},{"type":"node","id":2406251970,"lat":39.0758259,"lon":121.8941983,"tags":{"name":"小窑湾","name:en":"Xiaoyaowan","public_transport":"stop_position","railway":"stop","subway":"yes"}},{"type":"node","id":2406252572,"lat":39.085508,"lon":122.0008965,"tags":{"name":"金石滩","name:en":"Golden Pebble Beach","public_transport":"stop_position","railway":"stop","subway":"yes"}},{"type":"node","id":2559491898,"lat":39.1471878,"lon":121.7369297,"tags":{"name":"九里","name:en":"Jiuli","public_transport":"stop_position","railway":"stop","subway":"yes"}},{"type":"node","id":2559491900,"lat":39.1066021,"lon":121.7201215,"tags":{"name":"和平路","name:en":"Heping Road","public_transport":"stop_position","railway":"stop","subway":"yes"}},{"type":"node","id":3733552169,"lat":38.9607083,"lon":121.534767,"tags":{"name":"机场","public_transport":"stop_position","railway":"stop","station":"subway","subway":"yes"}},{"type":"node","id":3733552170,"lat":38.9122405,"lon":121.6178076,"tags":{"name":"一二九街","public_transport":"stop_position","railway":"stop","source":"survey","station":"subway","subway":"yes"}},{"type":"node","id":3733552172,"lat":38.9120563,"lon":121.5667707,"tags":{"name":"交通大学","public_transport":"stop_position","railway":"stop","source":"survey","station":"subway","subway":"yes"}},{"type":"node","id":3733552173,"lat":38.9099343,"lon":121.6054252,"tags":{"name":"人民广场","public_transport":"stop_position","railway":"stop","source":"survey","station":"subway","subway":"yes"}},{"type":"node","id":3733552174,"lat":38.9237173,"lon":121.6704074,"tags":{"name":"会议中心","name:en":"Conference Center","public_transport":"stop_position","railway":"stop","source":"survey","station":"subway","subway":"yes"}},{"type":"node","id":3733552175,"lat":38.9190251,"lon":121.6330329,"tags":{"name":"友好广场","public_transport":"stop_position","railway":"stop","source":"survey","station":"subway","subway":"yes"}},{"type":"node","id":3733552177,"lat":38.9237061,"lon":121.5368179,"tags":{"name":"湾家","public_transport":"stop_position","railway":"stop","source":"survey","station":"subway","subway":"yes"}},{"type":"node","id":3733552178,"lat":38.9268416,"lon":121.5282921,"tags":{"name":"红旗西路","public_transport":"stop_position","railway":"stop","source":"survey","subway":"yes"}},{"type":"node","id":3733552179,"lat":38.9131837,"lon":121.5912141,"tags":{"name":"联合路","public_transport":"stop_position","railway":"stop","source":"survey","station":"subway","subway":"yes"}},{"type":"node","id":3733552180,"lat":38.9546869,"lon":121.5381726,"tags":{"name":"虹港路","public_transport":"stop_position","railway":"stop","source":"survey","station":"subway","subway":"yes"}},{"type":"node","id":3733552181,"lat":38.9466791,"lon":121.5349899,"tags":{"name":"虹锦路","public_transport":"stop_position","railway":"stop","source":"survey","station":"subway","subway":"yes"}},{"type":"node","id":3733552182,"lat":38.9089615,"lon":121.5824797,"tags":{"name":"西安路（2号线）","public_transport":"stop_position","railway":"stop","source":"survey","subway":"yes"}},{"type":"node","id":3733552183,"lat":38.9151452,"lon":121.559138,"tags":{"name":"辽师大","public_transport":"stop_position","railway":"stop","source":"survey","station":"subway","subway":"yes"}},{"type":"node","id":3733552184,"lat":38.9158207,"lon":121.626008,"tags":{"name":"青泥洼桥（2号线）","public_transport":"stop_position","railway":"stop","source":"survey","station":"subway","subway":"yes"}},{"type":"node","id":3733552185,"lat":38.9192466,"lon":121.5495282,"tags":{"name":"马栏广场","public_transport":"stop_position","railway":"stop","source":"survey","station":"subway","subway":"yes"}},{"type":"node","id":3808558070,"lat":39.0223749,"lon":121.6142138,"tags":{"name":"姚家","name:en":"Yaojia","public_transport":"stop_position","railway":"stop","subway":"yes"}},{"type":"node","id":4068276082,"lat":38.854777,"lon":121.4436527,"tags":{"name":"黄泥川","public_transport":"stop_position","railway":"stop","subway":"yes"}},{"type":"node","id":4068315026,"lat":38.89074,"lon":121.5806414,"tags":{"alt_name":"Huizhanzhongxin","name":"会展中心","network":"Metro Line 1","public_transport":"stop_position","railway":"stop","station":"subway","subway":"yes"}},{"type":"node","id":4068315027,"lat":38.9160389,"lon":121.5834877,"tags":{"name":"兴工街","public_transport":"stop_position","railway":"stop","station":"subway","subway":"yes"}},{"type":"node","id":4068315028,"lat":38.8979865,"lon":121.5797376,"tags":{"name":"富国街","public_transport":"stop_position","railway":"stop","station":"subway","subway":"yes"}},{"type":"node","id":4068315029,"lat":38.9351757,"lon":121.5773668,"tags":{"name":"春柳","public_transport":"stop_position","railway":"stop","station":"subway","subway":"yes"}},{"type":"node","id":4068315050,"lat":38.9304689,"lon":121.5836031,"tags":{"name":"香工街","public_transport":"stop_position","railway":"stop","station":"subway","subway":"yes"}},{"type":"node","id":4068315070,"lat":38.9232142,"lon":121.5870004,"tags":{"name":"中长街","public_transport":"stop_position","railway":"stop","station":"subway","subway":"yes"}},{"type":"node","id":5249566787,"lat":38.865226,"lon":121.5293967,"tags":{"name":"海事大学","network":"大连地铁","operator":"大连交通集团","public_transport":"stop_position","railway":"stop","station":"subway","subway":"yes"}},{"type":"node","id":5249566799,"lat":38.8739175,"lon":121.5402301,"tags":{"name":"学苑广场","public_transport":"stop_position","railway":"stop","subway":"yes"}},{"type":"node","id":5249566813,"lat":38.8737682,"lon":121.5524085,"tags":{"name":"黑石礁","name:en":"Heishijiao","public_transport":"stop_position","railway":"stop","station":"subway","subway":"yes"}},{"type":"node","id":5249568423,"lat":38.8808369,"lon":121.5658857,"tags":{"name":"大医二院","public_transport":"stop_position","railway":"stop","station":"subway","subway":"yes"}},{"type":"node","id":5249568439,"lat":38.9143252,"lon":121.6977125,"tags":{"name":"东海","name:en":"Donghai","public_transport":"stop_position","railway":"stop","station":"subway","subway":"yes"}},{"type":"node","id":5249568441,"lat":38.910101,"lon":121.7102857,"tags":{"name":"海之韵","name:en":"Haizhiyun","public_transport":"stop_position","railway":"stop","station":"subway","subway":"yes"}},{"type":"node","id":5249568458,"lat":38.9193353,"lon":121.6845174,"tags":{"name":"东港","name:en":"Donggang","public_transport":"stop_position","railway":"stop","station":"subway","subway":"yes"}},{"type":"node","id":5343124001,"lat":39.0139708,"lon":121.602848,"tags":{"name":"大连北站（1号线）","public_transport":"stop_position","railway":"stop","subway":"yes"}},{"type":"node","id":5343709480,"lat":39.1283693,"lon":121.7249644,"tags":{"name":"十九局","name:en":"China Railway 19th Bureau","public_transport":"stop_position","railway":"stop","subway":"yes"}},{"type":"node","id":5343709500,"lat":38.9670141,"lon":121.5965598,"tags":{"name":"金家街","name:en":"Jinjia Street","public_transport":"stop_position","railway":"stop","subway":"yes"}},{"type":"node","id":5343709501,"lat":38.9670078,"lon":121.5966095,"tags":{"name":"金家街","name:en":"Jinjia Street","public_transport":"stop_position","railway":"stop","subway":"yes"}},{"type":"node","id":5343709502,"lat":38.9278609,"lon":121.5986828,"tags":{"name":"香炉礁","name:en":"Xianglujiao","public_transport":"stop_position","railway":"stop","subway":"yes"}},{"type":"node","id":5343709503,"lat":38.9278317,"lon":121.5986445,"tags":{"name":"香炉礁","name:en":"Xianglujiao","public_transport":"stop_position","railway":"stop","subway":"yes"}},{"type":"node","id":5343709504,"lat":38.9224954,"lon":121.6252755,"tags":{"name":"大连站（3号线）","public_transport":"stop_position","railway":"stop","subway":"yes"}},{"type":"node","id":5343709505,"lat":38.9224492,"lon":121.625193,"tags":{"name":"大连站（3号线）","public_transport":"stop_position","railway":"stop","subway":"yes"}},{"type":"node","id":5343734987,"lat":38.8431522,"lon":121.2475376,"tags":{"name":"旅顺","name:en":"Lüshun","public_transport":"stop_position","subway":"yes"}},{"type":"node","id":5343734988,"lat":38.8430383,"lon":121.2476319,"tags":{"name":"旅顺","name:en":"Lüshun","public_transport":"stop_position","subway":"yes"}},{"type":"node","id":5343741054,"lat":38.8011416,"lon":121.1724553,"tags":{"name":"铁山","name:en":"Tieshan","public_transport":"stop_position","subway":"yes"}},{"type":"node","id":5343741057,"lat":38.8058903,"lon":121.1396822,"tags":{"name":"旅顺新港","name:en":"Lüshun New Port","public_transport":"stop_position","railway":"stop","subway":"yes"}},{"type":"node","id":5374874284,"lat":38.8500639,"lon":121.4895231,"tags":{"name":"蔡大岭","public_transport":"stop_position","railway":"stop","subway":"yes"}},{"type":"node","id":6137175560,"lat":39.3569679,"lon":121.8343938,"tags":{"name":"普湾体育场","public_transport":"stop_position","railway":"stop","subway":"yes"}},{"type":"node","id":6466992223,"lat":38.8347093,"lon":121.3979714,"tags":{"alt_name:en":"Longwangtang Station","name":"龙王塘","public_transport":"stop_position","railway":"stop","subway":"yes"}},{"type":"node","id":6466992224,"lat":38.822561,"lon":121.3361654,"tags":{"name":"塔河湾","public_transport":"stop_position","railway":"stop","subway":"yes"}},{"type":"node","id":6574686985,"lat":38.8562136,"lon":121.5222632,"tags":{"name":"七贤岭","name:en":"Qixianling","public_transport":"stop_position","railway":"stop","station":"subway","subway":"yes"}},{"type":"node","id":6898666831,"lat":39.0142046,"lon":121.6027026,"tags":{"name":"大连北站（2号线）","public_transport":"stop_position","railway":"stop","subway":"yes"}},{"type":"node","id":7319836776,"lat":38.8769573,"lon":121.6815708,"tags":{"name":"虎滩新区","name:en":"Hutan Xinqu","public_transport":"stop_position","railway":"stop","subway":"yes"}},{"type":"node","id":7319836777,"lat":38.8771432,"lon":121.6684853,"tags":{"name":"虎滩公园","name:en":"Hutan Park","public_transport":"stop_position","railway":"stop","subway":"yes"}},{"type":"node","id":7319886600,"lat":38.8825592,"lon":121.6547368,"tags":{"name":"秀月街","name:en":"Xiuyue Street","public_transport":"stop_position","railway":"stop","subway":"yes"}},{"type":"node","id":7319886615,"lat":38.8864543,"lon":121.6465,"tags":{"name":"桃源","name:en":"Taoyuan","public_transport":"stop_position","railway":"stop","subway":"yes"}},{"type":"node","id":7319886623,"lat":38.8931183,"lon":121.6440584,"tags":{"name":"青云街","name:en":"Qingyun Street","public_transport":"stop_position","railway":"stop","subway":"yes"}},{"type":"node","id":7319886630,"lat":38.8998479,"lon":121.6398566,"tags":{"name":"石葵路","name:en":"Shikui Road","public_transport":"stop_position","railway":"stop","subway":"yes"}},{"type":"node","id":7319886635,"lat":38.9095712,"lon":121.6348644,"tags":{"name":"劳动公园","name:en":"Labor Park","public_transport":"stop_position","railway":"stop","subway":"yes"}},{"type":"node","id":7319886657,"lat":38.9225141,"lon":121.6243294,"tags":{"name":"大连站（5号线）","name:en":"Dalian Railway Station","network":"大连地铁","operator":"大连交通集团","public_transport":"stop_position","railway":"stop","station":"subway","subway":"yes"}},{"type":"node","id":7319886701,"lat":38.9794785,"lon":121.6267154,"tags":{"name":"甘北路","name:en":"Ganbei Road","public_transport":"stop_position","railway":"stop","subway":"yes"}},{"type":"node","id":7319886746,"lat":39.005473,"lon":121.6308648,"tags":{"name":"泉水东","name:en":"Quanshui East","public_transport":"stop_position","railway":"stop","subway":"yes"}},{"type":"node","id":7319886771,"lat":39.0209332,"lon":121.6337342,"tags":{"name":"后盐","name:en":"Houyan","public_transport":"stop_position","railway":"stop","station":"subway","subway":"yes"}},{"type":"node","id":7319886782,"lat":39.0523665,"lon":121.6318537,"tags":{"name":"后关","name:en":"Houguan","public_transport":"stop_position","railway":"stop","subway":"yes"}},{"type":"node","id":7319886783,"lat":39.0129966,"lon":121.6343365,"tags":{"name":"龙华路","name:en":"Longhua Road","public_transport":"stop_position","railway":"stop","subway":"yes"}},{"type":"node","id":7595880563,"lat":38.9157677,"lon":121.6261889,"tags":{"name":"青泥洼桥（2号线）","public_transport":"stop_position","railway":"stop","subway":"yes"}},{"type":"node","id":7602012829,"lat":38.9145788,"lon":121.6281914,"tags":{"name":"青泥洼桥（5号线）","name:en":"Qingniwaqiao","public_transport":"stop_position","railway":"stop","station":"subway","subway":"yes"}},{"type":"node","id":7605210316,"lat":39.1283722,"lon":121.7250068,"tags":{"name":"十九局","name:en":"China Railway 19th Bureau","public_transport":"stop_position","railway":"stop","subway":"yes"}},{"type":"node","id":7605310225,"lat":38.8839342,"lon":121.5773574,"tags":{"name":"星海广场","public_transport":"stop_position","railway":"stop","station":"subway","subway":"yes"}},{"type":"node","id":7607458362,"lat":38.9528814,"lon":121.6145332,"tags":{"name":"梭鱼湾南","name:en":"Suoyuwan South","public_transport":"stop_position","railway":"stop","station":"subway","subway":"yes"}},{"type":"node","id":7633796880,"lat":38.925783,"lon":121.6549575,"tags":{"name":"港湾广场","public_transport":"stop_position","railway":"stop","source":"survey","subway":"yes"}},{"type":"node","id":7641875940,"lat":38.9704292,"lon":121.5095565,"tags":{"name":"辛寨子","public_transport":"stop_position","railway":"stop","station":"subway","subway":"yes"}},{"type":"node","id":7707988401,"lat":39.0668512,"lon":121.7622024,"tags":{"name":"通世泰","name:en":"Tostem","public_transport":"stop_position","railway":"stop","subway":"yes"}},{"type":"node","id":7710148077,"lat":39.0810287,"lon":121.7462605,"tags":{"name":"鸿玮澜山","name:en":"Phoenix Peak","public_transport":"stop_position","railway":"stop","subway":"yes"}},{"type":"node","id":8653715499,"lat":39.2640112,"lon":121.7796501,"tags":{"name":"三十里堡","public_transport":"stop_position","railway":"stop","subway":"yes"}},{"type":"node","id":8653715500,"lat":39.2639704,"lon":121.7797106,"tags":{"name":"三十里堡","public_transport":"stop_position","railway":"stop","subway":"yes"}},{"type":"node","id":8653754960,"lat":39.1955746,"lon":121.7515629,"tags":{"name":"二十里堡","public_transport":"stop_position","railway":"stop","subway":"yes"}},{"type":"node","id":8653755131,"lat":39.1716732,"lon":121.7532227,"tags":{"name":"十三里","public_transport":"stop_position","railway":"stop","subway":"yes"}},{"type":"node","id":8653755132,"lat":39.171662,"lon":121.7532866,"tags":{"name":"十三里","public_transport":"stop_position","railway":"stop","subway":"yes"}},{"type":"node","id":8653755166,"lat":39.1955873,"lon":121.7516389,"tags":{"name":"二十里堡","public_transport":"stop_position","railway":"stop","subway":"yes"}},{"type":"node","id":8653782695,"lat":39.3262427,"lon":121.8158087,"tags":{"name":"石河黄旗","public_transport":"stop_position","railway":"stop","subway":"yes"}},{"type":"node","id":8653782696,"lat":39.3262192,"lon":121.8158796,"tags":{"name":"石河黄旗","public_transport":"stop_position","railway":"stop","subway":"yes"}},{"type":"node","id":8653782751,"lat":39.3569598,"lon":121.8343461,"tags":{"name":"普湾体育场","public_transport":"stop_position","railway":"stop","subway":"yes"}},{"type":"node","id":8653782782,"lat":39.3585211,"lon":121.8573415,"tags":{"name":"石河北海","public_transport":"stop_position","railway":"stop","subway":"yes"}},{"type":"node","id":8653782783,"lat":39.3584766,"lon":121.8573704,"tags":{"name":"石河北海","public_transport":"stop_position","railway":"stop","subway":"yes"}},{"type":"node","id":8653782822,"lat":39.37857,"lon":121.8921447,"tags":{"name":"长店堡","public_transport":"stop_position","railway":"stop","subway":"yes"}},{"type":"node","id":8653782823,"lat":39.3784974,"lon":121.892175,"tags":{"name":"长店堡","public_transport":"stop_position","railway":"stop","subway":"yes"}},{"type":"node","id":8653782865,"lat":39.3853606,"lon":121.9291129,"tags":{"name":"大医三院","public_transport":"stop_position","railway":"stop","subway":"yes"}},{"type":"node","id":8653782866,"lat":39.3853306,"lon":121.9291742,"tags":{"name":"大医三院","public_transport":"stop_position","railway":"stop","subway":"yes"}},{"type":"node","id":8653782911,"lat":39.3979128,"lon":121.94155,"tags":{"name":"海湾高中","public_transport":"stop_position","railway":"stop","subway":"yes"}},{"type":"node","id":8653782912,"lat":39.3978838,"lon":121.9416705,"tags":{"name":"海湾高中","public_transport":"stop_position","railway":"stop","subway":"yes"}},{"type":"node","id":8653782923,"lat":39.4111826,"lon":121.944318,"tags":{"name":"普兰店开发区","public_transport":"stop_position","railway":"stop","subway":"yes"}},{"type":"node","id":8653782924,"lat":39.4112001,"lon":121.9443909,"tags":{"name":"普兰店开发区","public_transport":"stop_position","railway":"stop","subway":"yes"}},{"type":"node","id":8653782971,"lat":39.4309949,"lon":121.9191391,"tags":{"name":"普兰店振兴街","public_transport":"stop_position","railway":"stop","subway":"yes"}},{"type":"node","id":8653782972,"lat":39.4309474,"lon":121.9190882,"tags":{"name":"普兰店振兴街","public_transport":"stop_position","railway":"stop","subway":"yes"}},{"type":"node","id":8681578899,"lat":39.000526,"lon":121.6118474,"tags":{"name":"泉水","name:en":"Quanshui","public_transport":"stop_position","railway":"stop","subway":"yes"}},{"type":"node","id":8681578900,"lat":39.0204839,"lon":121.6326591,"tags":{"name":"后盐","name:en":"Houyan","public_transport":"stop_position","railway":"stop","subway":"yes"}},{"type":"node","id":8681578901,"lat":39.0344069,"lon":121.7046231,"tags":{"name":"大连湾","name:en":"Dalianwan","public_transport":"stop_position","railway":"stop","subway":"yes"}},{"type":"node","id":8681578902,"lat":39.0480427,"lon":121.7385791,"tags":{"name":"金马路","name:en":"Jinma Road","public_transport":"stop_position","railway":"stop","subway":"yes"}},{"type":"node","id":8681578903,"lat":39.0525272,"lon":121.7694264,"tags":{"name":"开发区","name:en":"Dalian Development Area","public_transport":"stop_position","railway":"stop","subway":"yes"}},{"type":"node","id":8681578904,"lat":39.0525032,"lon":121.7694556,"tags":{"name":"开发区","name:en":"Dalian Development Area","public_transport":"stop_position","railway":"stop","subway":"yes"}},{"type":"node","id":8681578905,"lat":39.0526789,"lon":121.7692475,"tags":{"name":"开发区","name:en":"Dalian Development Area","public_transport":"stop_position","railway":"stop","subway":"yes"}},{"type":"node","id":8681578906,"lat":39.0593674,"lon":121.7972881,"tags":{"name":"保税区","name:en":"Free Trade Zone","public_transport":"stop_position","railway":"stop","subway":"yes"}},{"type":"node","id":8681578907,"lat":39.0625241,"lon":121.8668513,"tags":{"name":"双D港","name:en":"DD Port","public_transport":"stop_position","railway":"stop","subway":"yes"}},{"type":"node","id":8681578908,"lat":39.0757845,"lon":121.8942273,"tags":{"name":"小窑湾","name:en":"Xiaoyaowan","public_transport":"stop_position","railway":"stop","subway":"yes"}},{"type":"node","id":8681578910,"lat":39.085466,"lon":122.0009165,"tags":{"name":"金石滩","name:en":"Golden Pebble Beach","public_transport":"stop_position","railway":"stop","subway":"yes"}},{"type":"node","id":8681578911,"lat":39.0668353,"lon":121.7621736,"tags":{"name":"通世泰","name:en":"Tostem","name:zh":"通世泰","public_transport":"stop_position","railway":"stop","subway":"yes"}},{"type":"node","id":8681578912,"lat":39.0810464,"lon":121.7462923,"tags":{"name":"鸿玮澜山","name:en":"Phoenix Peak","public_transport":"stop_position","railway":"stop","subway":"yes"}},{"type":"node","id":8681578913,"lat":39.0911516,"lon":121.7322918,"tags":{"name":"东山路","name:en":"Dong Shan Road","public_transport":"stop_position","railway":"stop","subway":"yes"}},{"type":"node","id":8681578914,"lat":39.0911342,"lon":121.7322607,"tags":{"name":"东山路","name:en":"Dong Shan Road","public_transport":"stop_position","railway":"stop","subway":"yes"}},{"type":"node","id":8681578915,"lat":39.1066007,"lon":121.7201695,"tags":{"name":"和平路","name:en":"Heping Road","public_transport":"stop_position","railway":"stop","subway":"yes"}},{"type":"node","id":8681578916,"lat":39.1471811,"lon":121.736972,"tags":{"name":"九里","name:en":"Jiuli","public_transport":"stop_position","railway":"stop","subway":"yes"}},{"type":"node","id":8681688332,"lat":38.8429015,"lon":121.5087723,"tags":{"name":"河口（1号线）","public_transport":"stop_position","railway":"stop","subway":"yes"}},{"type":"node","id":9425074869,"lat":38.8428239,"lon":121.5088442,"tags":{"name":"河口（12号线）","public_transport":"stop_position","railway":"stop","subway":"yes"}},{"type":"node","id":10722119756,"lat":38.9142658,"lon":121.6976699,"tags":{"name":"东海","name:en":"Donghai","public_transport":"stop_position","railway":"stop","station":"subway","subway":"yes"}},{"type":"node","id":10722119761,"lat":38.9099529,"lon":121.7102846,"tags":{"name":"海之韵","name:en":"Haizhiyun","public_transport":"stop_position","railway":"stop","station":"subway","subway":"yes"}},{"type":"node","id":10722121558,"lat":38.9192657,"lon":121.6844696,"tags":{"name":"东港","name:en":"Donggang","public_transport":"stop_position","railway":"stop","subway":"yes"}},{"type":"node","id":10722121609,"lat":38.9236559,"lon":121.670414,"tags":{"name":"会议中心","name:en":"Conference Center","public_transport":"stop_position","railway":"stop","subway":"yes"}},{"type":"node","id":10722121713,"lat":38.9256471,"lon":121.6550152,"tags":{"name":"港湾广场","public_transport":"stop_position","railway":"stop","subway":"yes"}},{"type":"node","id":10722121765,"lat":38.9206914,"lon":121.638846,"tags":{"name":"中山广场","name:en":"Zhongshan Square","public_transport":"stop_position","railway":"stop","subway":"yes","wheelchair":"yes"}},{"type":"node","id":10722121766,"lat":38.9208156,"lon":121.6387888,"tags":{"name":"中山广场","name:en":"Zhongshan Square","public_transport":"stop_position","railway":"stop","subway":"yes"}},{"type":"node","id":10722121767,"lat":38.9188918,"lon":121.6331018,"tags":{"name":"友好广场","public_transport":"stop_position","railway":"stop","subway":"yes"}},{"type":"node","id":10722771093,"lat":38.9123775,"lon":121.6178069,"tags":{"name":"一二九街","public_transport":"stop_position","railway":"stop","subway":"yes"}},{"type":"node","id":10722780238,"lat":38.9100789,"lon":121.6053759,"tags":{"name":"人民广场","public_transport":"stop_position","railway":"stop","subway":"yes"}},{"type":"node","id":10722780361,"lat":38.9133327,"lon":121.5913835,"tags":{"name":"联合路","public_transport":"stop_position","railway":"stop","subway":"yes"}},{"type":"node","id":10724048168,"lat":38.9089668,"lon":121.5822147,"tags":{"name":"西安路（2号线）","public_transport":"stop_position","railway":"stop","subway":"yes"}},{"type":"node","id":10724048177,"lat":38.9089484,"lon":121.5822343,"tags":{"name":"西安路（1号线）","public_transport":"stop_position","railway":"stop","subway":"yes"}},{"type":"node","id":10724048183,"lat":38.9089411,"lon":121.5824556,"tags":{"name":"西安路（1号线）","public_transport":"stop_position","railway":"stop","subway":"yes"}},{"type":"node","id":10726796386,"lat":38.9121749,"lon":121.566847,"tags":{"name":"交通大学","public_transport":"stop_position","railway":"stop","subway":"yes"}},{"type":"node","id":10726799541,"lat":38.915265,"lon":121.5592112,"tags":{"name":"辽师大","public_transport":"stop_position","railway":"stop","subway":"yes"}},{"type":"node","id":10726799613,"lat":38.9193505,"lon":121.5496381,"tags":{"name":"马栏广场","public_transport":"stop_position","railway":"stop","subway":"yes"}},{"type":"node","id":10728836817,"lat":38.9238392,"lon":121.5368759,"tags":{"name":"湾家","public_transport":"stop_position","railway":"stop","subway":"yes"}},{"type":"node","id":10728836887,"lat":38.9268976,"lon":121.5284638,"tags":{"name":"红旗西路","public_transport":"stop_position","railway":"stop","subway":"yes"}},{"type":"node","id":10728836965,"lat":38.9466482,"lon":121.5351914,"tags":{"name":"虹锦路","public_transport":"stop_position","railway":"stop","subway":"yes"}},{"type":"node","id":10728837032,"lat":38.9546346,"lon":121.5383663,"tags":{"name":"虹港路","public_transport":"stop_position","railway":"stop","subway":"yes"}},{"type":"node","id":10731123681,"lat":38.9608535,"lon":121.5348035,"tags":{"name":"机场","public_transport":"stop_position","railway":"stop","subway":"yes"}},{"type":"node","id":10731139427,"lat":38.9703911,"lon":121.509779,"tags":{"name":"辛寨子","public_transport":"stop_position","railway":"stop","subway":"yes"}},{"type":"node","id":10733101942,"lat":38.8979894,"lon":121.579912,"tags":{"name":"富国街","public_transport":"stop_position","railway":"stop","subway":"yes"}},{"type":"node","id":10733101999,"lat":38.8907402,"lon":121.5808203,"tags":{"name":"会展中心","public_transport":"stop_position","railway":"stop","subway":"yes"}},{"type":"node","id":10740321256,"lat":38.9956564,"lon":121.6346577,"tags":{"name":"中华东路","name:en":"Zhonghua East Road","public_transport":"stop_position","railway":"stop","subway":"yes"}},{"type":"node","id":10740462320,"lat":38.8838068,"lon":121.5774355,"tags":{"name":"星海广场","public_transport":"stop_position","railway":"stop","subway":"yes"}},{"type":"node","id":10740462346,"lat":38.8807133,"lon":121.5659363,"tags":{"name":"大医二院","public_transport":"stop_position","railway":"stop","subway":"yes"}},{"type":"node","id":10740462566,"lat":38.8736641,"lon":121.5525293,"tags":{"name":"黑石礁","public_transport":"stop_position","railway":"stop","subway":"yes"}},{"type":"node","id":10740462641,"lat":38.8737943,"lon":121.5402731,"tags":{"name":"学苑广场","name:en":"Xueyuan Square","public_transport":"stop_position","railway":"stop","subway":"yes"}},{"type":"node","id":10743732950,"lat":38.8651515,"lon":121.5295442,"tags":{"name":"海事大学","public_transport":"stop_position","railway":"stop","subway":"yes"}},{"type":"node","id":10743733000,"lat":38.8561412,"lon":121.5224129,"tags":{"name":"七贤岭","public_transport":"stop_position","railway":"stop","subway":"yes"}},{"type":"node","id":10743742133,"lat":38.8427573,"lon":121.5089006,"tags":{"name":"河口（1号线）","public_transport":"stop_position","railway":"stop","subway":"yes"}},{"type":"node","id":10743742147,"lat":38.8428346,"lon":121.508834,"tags":{"name":"河口（12号线）","public_transport":"stop_position","railway":"stop","subway":"yes"}},{"type":"node","id":10744563159,"lat":38.8226032,"lon":121.3361661,"tags":{"name":"塔河湾","public_transport":"stop_position","railway":"stop","subway":"yes"}},{"type":"node","id":10744563262,"lat":38.850097,"lon":121.4895462,"tags":{"name":"蔡大岭","public_transport":"stop_position","railway":"stop","subway":"yes"}},{"type":"node","id":10744563367,"lat":38.8548095,"lon":121.443626,"tags":{"name":"黄泥川","public_transport":"stop_position","railway":"stop","subway":"yes"}},{"type":"node","id":10744563502,"lat":38.834708,"lon":121.3980252,"tags":{"name":"龙王塘","public_transport":"stop_position","railway":"stop","subway":"yes"}},{"type":"node","id":10744592026,"lat":38.8011732,"lon":121.1724745,"tags":{"name":"铁山","public_transport":"stop_position","railway":"stop","subway":"yes"}},{"type":"node","id":10744592036,"lat":38.8059222,"lon":121.1396789,"tags":{"name":"旅顺新港","public_transport":"stop_position","railway":"stop","subway":"yes"}},{"type":"node","id":10751365691,"lat":38.9159927,"lon":121.5836582,"tags":{"name":"兴工街","public_transport":"stop_position","railway":"stop","subway":"yes"}},{"type":"node","id":10751370387,"lat":38.9231651,"lon":121.5871814,"tags":{"name":"中长街","public_transport":"stop_position","railway":"stop","subway":"yes"}},{"type":"node","id":10751688830,"lat":38.9305627,"lon":121.5837321,"tags":{"name":"香工街","public_transport":"stop_position","railway":"stop","subway":"yes"}},{"type":"node","id":10751695332,"lat":38.9352785,"lon":121.5774886,"tags":{"name":"春柳","public_transport":"stop_position","railway":"stop","subway":"yes"}},{"type":"node","id":10751695361,"lat":38.9552658,"lon":121.5751667,"tags":{"name":"东纬路","public_transport":"stop_position","railway":"stop","subway":"yes"}},{"type":"node","id":10753912349,"lat":38.9553058,"lon":121.5753449,"tags":{"name":"东纬路","public_transport":"stop_position","railway":"stop","subway":"yes"}},{"type":"node","id":10753912571,"lat":38.9685224,"lon":121.573002,"tags":{"name":"松江路","public_transport":"stop_position","railway":"stop","subway":"yes"}},{"type":"node","id":10753912572,"lat":38.9684803,"lon":121.5731822,"tags":{"name":"松江路","public_transport":"stop_position","railway":"stop","subway":"yes"}},{"type":"node","id":10754555855,"lat":38.9146235,"lon":121.6283582,"tags":{"name":"青泥洼桥（5号线）","name:en":"Qingniwaqiao","public_transport":"stop_position","railway":"stop","subway":"yes"}},{"type":"node","id":10754555861,"lat":38.9782832,"lon":121.576794,"tags":{"name":"千山路","public_transport":"stop_position","railway":"stop","subway":"yes"}},{"type":"node","id":10754555868,"lat":38.9783373,"lon":121.576601,"tags":{"name":"千山路","public_transport":"stop_position","railway":"stop","subway":"yes"}},{"type":"node","id":10754605929,"lat":38.9889104,"lon":121.5814275,"tags":{"name":"华南广场","public_transport":"stop_position","railway":"stop","subway":"yes"}},{"type":"node","id":10754605931,"lat":38.9889264,"lon":121.5812436,"tags":{"name":"华南广场","public_transport":"stop_position","railway":"stop","subway":"yes"}},{"type":"node","id":10754605963,"lat":38.9996614,"lon":121.5809189,"tags":{"name":"华南北","public_transport":"stop_position","railway":"stop","subway":"yes"}},{"type":"node","id":10754605990,"lat":38.9996959,"lon":121.5811128,"tags":{"name":"华南北","public_transport":"stop_position","railway":"stop","subway":"yes"}},{"type":"node","id":10755169450,"lat":39.0076525,"lon":121.5893622,"tags":{"name":"华北路","public_transport":"stop_position","railway":"stop","subway":"yes"}},{"type":"node","id":10755169457,"lat":39.0077739,"lon":121.5892709,"tags":{"name":"华北路","public_transport":"stop_position","railway":"stop","subway":"yes"}},{"type":"node","id":10755243933,"lat":39.0138337,"lon":121.6029244,"tags":{"name":"大连北站（1号线）","public_transport":"stop_position","railway":"stop","subway":"yes"}},{"type":"node","id":10755244042,"lat":39.0223748,"lon":121.6143864,"tags":{"name":"姚家","public_transport":"stop_position","railway":"stop","subway":"yes"}},{"type":"node","id":10755302186,"lat":38.9822188,"lon":121.513271,"tags":{"name":"前革","name:en":"Qiange","public_transport":"stop_position","railway":"stop","subway":"yes"}},{"type":"node","id":10755302187,"lat":38.9977834,"lon":121.517088,"tags":{"name":"中革","name:en":"Zhongge","public_transport":"stop_position","railway":"stop","subway":"yes"}},{"type":"node","id":10755302188,"lat":39.0071522,"lon":121.5247876,"tags":{"name":"革镇堡","name:en":"Gezhenpu","public_transport":"stop_position","railway":"stop","subway":"yes"}},{"type":"node","id":10755302189,"lat":39.0141202,"lon":121.5377113,"tags":{"name":"后革","name:en":"Houge","public_transport":"stop_position","railway":"stop","subway":"yes"}},{"type":"node","id":10755302190,"lat":39.0142173,"lon":121.5525122,"tags":{"name":"卫生中心","name:en":"Health Center","public_transport":"stop_position","railway":"stop","subway":"yes"}},{"type":"node","id":10755302191,"lat":39.0152052,"lon":121.5666946,"tags":{"name":"体育中心","name:en":"Sports Center","public_transport":"stop_position","railway":"stop","subway":"yes"}},{"type":"node","id":10755302192,"lat":39.0172582,"lon":121.5838453,"tags":{"name":"南关岭","name:en":"Nanguanling","public_transport":"stop_position","railway":"stop","subway":"yes"}},{"type":"node","id":10765874594,"lat":39.0140802,"lon":121.6027796,"tags":{"name":"大连北站（2号线）","public_transport":"stop_position","railway":"stop","subway":"yes"}},{"type":"node","id":10765887017,"lat":39.0171303,"lon":121.5838423,"tags":{"name":"南关岭","name:en":"Nanguanling","public_transport":"stop_position","railway":"stop","subway":"yes"}},{"type":"node","id":10765887030,"lat":39.0150697,"lon":121.5667734,"tags":{"name":"体育中心","name:en":"Sports Center","public_transport":"stop_position","railway":"stop","subway":"yes"}},{"type":"node","id":10765887039,"lat":39.0140777,"lon":121.5525137,"tags":{"name":"卫生中心","name:en":"Health Center","public_transport":"stop_position","railway":"stop","subway":"yes"}},{"type":"node","id":10765887043,"lat":39.0139761,"lon":121.5377061,"tags":{"name":"后革","name:en":"Houge","public_transport":"stop_position","railway":"stop","subway":"yes"}},{"type":"node","id":10765887060,"lat":39.0070886,"lon":121.5249598,"tags":{"name":"革镇堡","name:en":"Gezhenpu","public_transport":"stop_position","railway":"stop","subway":"yes"}},{"type":"node","id":10765887071,"lat":38.9977525,"lon":121.517262,"tags":{"name":"中革","name:en":"Zhongge","public_transport":"stop_position","railway":"stop","subway":"yes"}},{"type":"node","id":10765887086,"lat":38.9821974,"lon":121.5134619,"tags":{"name":"前革","name:en":"Qiange","public_transport":"stop_position","railway":"stop","subway":"yes"}},{"type":"node","id":10776938731,"lat":38.9225725,"lon":121.6244985,"tags":{"name":"大连站（5号线）","name:en":"Dalian Railway Station","public_transport":"stop_position","railway":"stop","subway":"yes"}},{"type":"node","id":10776938803,"lat":38.9529248,"lon":121.6146334,"tags":{"name":"梭鱼湾南","name:en":"Suoyuwan South","public_transport":"stop_position","railway":"stop","subway":"yes"}},{"type":"node","id":10776938890,"lat":38.9617,"lon":121.6207598,"tags":{"name":"梭鱼湾","name:en":"Suoyuwan","public_transport":"stop_position","railway":"stop","subway":"yes"}},{"type":"node","id":10776938891,"lat":38.9616147,"lon":121.6209075,"tags":{"name":"梭鱼湾","name:en":"Suoyuwan","public_transport":"stop_position","railway":"stop","subway":"yes"}},{"type":"node","id":10776938959,"lat":38.9730777,"lon":121.6218672,"tags":{"name":"甘井子街","name:en":"Ganjingzi Street","public_transport":"stop_position","railway":"stop","subway":"yes"}},{"type":"node","id":10776938961,"lat":38.9730349,"lon":121.6220419,"tags":{"name":"甘井子街","name:en":"Ganjingzi Street","public_transport":"stop_position","railway":"stop","subway":"yes"}},{"type":"node","id":12076284798,"lat":38.979365,"lon":121.6268327,"tags":{"name":"甘北路","name:en":"Ganbei Road","public_transport":"stop_position","railway":"stop","subway":"yes"}},{"type":"node","id":12076284820,"lat":38.9956748,"lon":121.6347804,"tags":{"name":"中华东路","name:en":"Zhonghua East Road","public_transport":"stop_position","railway":"stop","subway":"yes"}},{"type":"node","id":12076284835,"lat":39.0054559,"lon":121.6310639,"tags":{"name":"泉水东","name:en":"Quanshui East","public_transport":"stop_position","railway":"stop","subway":"yes"}},{"type":"node","id":12076284844,"lat":39.0129158,"lon":121.6344673,"tags":{"name":"龙华路","name:en":"Longhua Road","public_transport":"stop_position","railway":"stop","subway":"yes"}},{"type":"node","id":12076284853,"lat":39.0209718,"lon":121.6338811,"tags":{"name":"后盐","name:en":"Houyan","public_transport":"stop_position","railway":"stop","station":"subway","subway":"yes"}},{"type":"node","id":12076289281,"lat":39.0523656,"lon":121.6319164,"tags":{"name":"后关","name:en":"Houguan","public_transport":"stop_position","railway":"stop","subway":"yes"}},{"type":"node","id":12076312274,"lat":38.9095934,"lon":121.634956,"tags":{"name":"劳动公园","name:en":"Labor Park","public_transport":"stop_position","railway":"stop","subway":"yes"}},{"type":"node","id":12076312282,"lat":38.8998839,"lon":121.6399661,"tags":{"name":"石葵路","name:en":"Shikui Road","public_transport":"stop_position","railway":"stop","subway":"yes"}},{"type":"node","id":12076312293,"lat":38.8931265,"lon":121.6441257,"tags":{"name":"青云街","name:en":"Qingyun Street","public_transport":"stop_position","railway":"stop","subway":"yes"}},{"type":"node","id":12076312300,"lat":38.8864728,"lon":121.6465877,"tags":{"name":"桃源","name:en":"Taoyuan","public_transport":"stop_position","railway":"stop","subway":"yes"}},{"type":"node","id":12076312319,"lat":38.8826231,"lon":121.6547819,"tags":{"name":"秀月街","name:en":"Xiuyue Street","public_transport":"stop_position","railway":"stop","subway":"yes"}},{"type":"node","id":12076312329,"lat":38.8771907,"lon":121.6684923,"tags":{"name":"虎滩公园","name:en":"Hutan Park","public_transport":"stop_position","railway":"stop","subway":"yes"}},{"type":"node","id":12076312340,"lat":38.8770774,"lon":121.6815922,"tags":{"name":"虎滩新区","name:en":"Hutan Xinqu","public_transport":"stop_position","railway":"stop","subway":"yes"}}]}