{"elements":[{"type":"node","id":2123702893,"lat":47.1022997,"lon":37.6362912,"tags":{"name":"Бульвар Меотиди","name:en":"Maeotian Boulevard","name:ru":"Бульвар Меотиды","name:uk":"Бульвар Меотиди","old_name:uk":"Бульвар 50 років Жовтня","public_transport":"platform","website":"https://m.martrans.gov.ua"}},{"type":"node","id":2123702894,"lat":47.1018268,"lon":37.6447567,"tags":{"alt_name:ru":"Утренний рынок","alt_name:uk":"Ранковий ринок","name":"Міський палац культури","name:en":"The City Palace of Culture","name:ru":"Городской дворец культуры","name:uk":"Міський палац культури","old_name:uk":"Палац культури Будівельників","old_short_name:ru":"ДК Строителей","old_short_name:uk":"ПК Будівельників","public_transport":"platform","website":"https://m.martrans.gov.ua"}},{"type":"node","id":2123702895,"lat":47.1164871,"lon":37.645178,"tags":{"name":"Вулиця Бєлінського","name:en":"Belinsky Street","name:ru":"Улица Белинского","name:uk":"Вулиця Бєлінського","public_transport":"platform","website":"https://m.martrans.gov.ua"}},{"type":"node","id":2123702898,"lat":47.1076339,"lon":37.6516602,"tags":{"alt_name:ru":"Парк Радуга","alt_name:uk":"Парк Веселка","bench":"yes","name":"Вулиця Пашковського","name:en":"Pashkovsky Street","name:ru":"Улица Пашковского","name:uk":"Вулиця Пашковського","old_name:uk":"Кінотеатр Союз","public_transport":"platform","shelter":"yes","website":"https://m.martrans.gov.ua"}},{"type":"node","id":2123702899,"lat":47.1094096,"lon":37.6308178,"tags":{"name":"Вулиця Миклухо-Маклая","name:en":"Miklouho-Maclay Street","name:ru":"Улица Миклухо-Маклая","name:uk":"Вулиця Миклухо-Маклая","public_transport":"platform","website":"https://m.martrans.gov.ua"}},{"type":"node","id":2123702903,"lat":47.1132308,"lon":37.6219704,"tags":{"name":"Вулиця Мерзляка","name:en":"Merzlyak Street","name:ru":"Улица Мерзляка","name:uk":"Вулиця Мерзляка","public_transport":"platform","website":"https://m.martrans.gov.ua"}},{"type":"node","id":2123702904,"lat":47.1165798,"lon":37.6382794,"tags":{"highway":"bus_stop","name":"Вулиця Різдвяна","name:en":"Christmas Street","name:ru":"Улица Рождественская","name:uk":"Вулиця Різдвяна","old_name:uk":"Вулиця Сергія Лазо","public_transport":"platform","website":"https://m.martrans.gov.ua"}},{"type":"node","id":2123702906,"lat":47.1116928,"lon":37.651952,"tags":{"name":"Вулиця Барикадна","name:en":"Barricades Street","name:ru":"Улица Баррикадная","name:uk":"Вулиця Барикадна","public_transport":"platform","website":"https://m.martrans.gov.ua"}},{"type":"node","id":2123702907,"lat":47.1092886,"lon":37.6357429,"tags":{"name":"Проспект Єдності","name:en":"Unity Avenue","name:ru":"Проспект Единства","name:uk":"Проспект Єдності","old_name:uk":"Проспект 1 Травня","public_transport":"platform","website":"https://m.martrans.gov.ua"}},{"type":"node","id":2123702908,"lat":47.1170932,"lon":37.6388599,"tags":{"name":"Вулиця Різдвяна","name:en":"Christmas Street","name:ru":"Улица Рождественская","name:uk":"Вулиця Різдвяна","old_name:uk":"Вулиця Сергія Лазо","public_transport":"platform","website":"https://m.martrans.gov.ua"}},{"type":"node","id":2123702909,"lat":47.1087519,"lon":37.6210261,"tags":{"alt_name:ru":"Парк Лепорского","alt_name:uk":"Парк Лепорського","name":"Проспект Перемоги","name:en":"Victory Avenue","name:ru":"Проспект Победы","name:uk":"Проспект Перемоги","public_transport":"platform","shelter":"yes","website":"https://m.martrans.gov.ua"}},{"type":"node","id":2123702910,"lat":47.1016667,"lon":37.6436854,"tags":{"alt_name:ru":"Утренний рынок","alt_name:uk":"Ранковий ринок","name":"Міський палац культури","name:en":"The City Palace of Culture","name:ru":"Городской дворец культуры","name:uk":"Міський палац культури","old_name:uk":"Палац культури Будівельників","old_short_name:ru":"ДК Строителей","old_short_name:uk":"ПК Будівельників","public_transport":"platform","website":"https://m.martrans.gov.ua"}},{"type":"node","id":2123702911,"lat":47.1162463,"lon":37.6519599,"tags":{"name":"Вулиця Каховського","name:en":"Kakhovsky Street","name:ru":"Улица Каховского","name:uk":"Вулиця Каховського","public_transport":"platform","website":"https://m.martrans.gov.ua"}},{"type":"node","id":2123702912,"lat":47.1095784,"lon":37.6312133,"tags":{"name":"Вулиця Миклухо-Маклая","name:en":"Miklouho-Maclay Street","name:ru":"Улица Миклухо-Маклая","name:uk":"Вулиця Миклухо-Маклая","public_transport":"platform","website":"https://m.martrans.gov.ua"}},{"type":"node","id":2123702913,"lat":47.1160309,"lon":37.6521101,"tags":{"name":"Вулиця Каховського","name:en":"Kakhovsky Street","name:ru":"Улица Каховского","name:uk":"Вулиця Каховського","public_transport":"platform","website":"https://m.martrans.gov.ua"}},{"type":"node","id":2123702914,"lat":47.1166147,"lon":37.6460424,"tags":{"name":"Вулиця Бєлінського","name:en":"Belinsky Street","name:ru":"Улица Белинского","name:uk":"Вулиця Бєлінського","public_transport":"platform","website":"https://m.martrans.gov.ua"}},{"type":"node","id":2123702916,"lat":47.1032341,"lon":37.6511039,"tags":{"alt_name:ru":"Утренний рынок","alt_name:uk":"Ранковий ринок","name":"Вулиця Полтавська","name:en":"Poltava Street","name:ru":"Улица Полтавская","name:uk":"Вулиця Полтавська","public_transport":"platform","website":"https://m.martrans.gov.ua"}},{"type":"node","id":2123702919,"lat":47.1037619,"lon":37.6200221,"tags":{"name":"Східні прохідні","name:en":"East Gate","name:ru":"Восточные проходные","name:uk":"Східні прохідні","official_name:ru":"Восточные проходные Азовсталь","official_name:uk":"Східні прохідні Азовсталь","public_transport":"platform","website":"https://m.martrans.gov.ua"}},{"type":"node","id":2123702920,"lat":47.1090934,"lon":37.635866,"tags":{"name":"Проспект Єдності","name:en":"Unity Avenue","name:ru":"Проспект Единства","name:uk":"Проспект Єдності","old_name:uk":"Проспект 1 Травня","public_transport":"platform","website":"https://m.martrans.gov.ua"}},{"type":"node","id":2123702922,"lat":47.1076428,"lon":37.6515095,"tags":{"alt_name:ru":"Парк Радуга","alt_name:uk":"Парк Веселка","bench":"yes","name":"Вулиця Пашковського","name:en":"Pashkovsky Street","name:ru":"Улица Пашковского","name:uk":"Вулиця Пашковського","old_name:uk":"Кінотеатр Союз","public_transport":"platform","shelter":"yes","website":"https://m.martrans.gov.ua"}},{"type":"node","id":2123702924,"lat":47.1114144,"lon":37.6522541,"tags":{"name":"Вулиця Барикадна","name:en":"Barricades Street","name:ru":"Улица Баррикадная","name:uk":"Вулиця Барикадна","public_transport":"platform","website":"https://m.martrans.gov.ua"}},{"type":"node","id":2123702925,"lat":47.1028799,"lon":37.6269925,"tags":{"highway":"bus_stop","loc_name:ru":"Хлебокомбинат Золотой урожай","loc_name:uk":"Хлібокомбінат Золотий урожай","name":"Вулиця Ломізова","name:en":"Lomizova Street","name:ru":"Улица Ломизова","name:uk":"Вулиця Ломізова","old_name:uk":"Хлібозавод №4","public_transport":"platform","website":"https://m.martrans.gov.ua"}},{"type":"node","id":2579158226,"lat":47.0995565,"lon":37.5401222,"tags":{"bench":"yes","name":"Вулиця Казанцева","name:en":"Kazantseva Street","name:ru":"Улица Казанцева","name:uk":"Вулиця Казанцева","public_transport":"platform","shelter":"yes","website":"https://m.martrans.gov.ua"}},{"type":"node","id":2579158870,"lat":47.0999508,"lon":37.5400462,"tags":{"name":"Вулиця Казанцева","name:en":"Kazantseva Street","name:ru":"Улица Казанцева","name:uk":"Вулиця Казанцева","public_transport":"platform","website":"https://m.martrans.gov.ua"}},{"type":"node","id":2579159072,"lat":47.1002267,"lon":37.5452519,"tags":{"name":"Центральний ринок","name:en":"Central Market","name:ru":"Центральный рынок","name:uk":"Центральний ринок","public_transport":"platform","website":"https://m.martrans.gov.ua"}},{"type":"node","id":2579159074,"lat":47.1007177,"lon":37.5442348,"tags":{"name":"Центральний ринок","name:en":"Central Market","name:ru":"Центральный рынок","name:uk":"Центральний ринок","public_transport":"platform","website":"https://m.martrans.gov.ua"}},{"type":"node","id":2579397020,"lat":47.1069536,"lon":37.5586928,"tags":{"bench":"yes","name":"Бульвар Шевченка","name:en":"Shevchenko Boulevard","name:ru":"Бульвар Шевченко","name:uk":"Бульвар Шевченка","public_transport":"platform","shelter":"yes","website":"https://m.martrans.gov.ua"}},{"type":"node","id":2579397021,"lat":47.1062889,"lon":37.5602579,"tags":{"bench":"yes","name":"Бульвар Шевченка","name:en":"Shevchenko Boulevard","name:ru":"Бульвар Шевченко","name:uk":"Бульвар Шевченка","public_transport":"platform","shelter":"yes","website":"https://m.martrans.gov.ua"}},{"type":"node","id":2579397024,"lat":47.1067212,"lon":37.5589619,"tags":{"bench":"yes","name":"Бульвар Шевченка","name:en":"Shevchenko Boulevard","name:ru":"Бульвар Шевченко","name:uk":"Бульвар Шевченка","public_transport":"platform","shelter":"yes","website":"https://m.martrans.gov.ua"}},{"type":"node","id":2579397026,"lat":47.0983957,"lon":37.5504266,"tags":{"bench":"yes","name":"Вулиця Миколаївська","name:en":"Mykolaivska Street","name:ru":"Улица Николаевская","name:uk":"Вулиця Миколаївська","public_transport":"platform","shelter":"yes","website":"https://m.martrans.gov.ua"}},{"type":"node","id":2579397027,"lat":47.1092589,"lon":37.5533786,"tags":{"bench":"no","bin":"no","name":"Проспект Металургів","name:en":"Metalurhiv Avenue","name:ru":"Проспект Металлургов","name:uk":"Проспект Металургів","public_transport":"platform","shelter":"no","website":"https://m.martrans.gov.ua"}},{"type":"node","id":2579397030,"lat":47.0982815,"lon":37.5503333,"tags":{"bench":"yes","name":"Вулиця Миколаївська","name:en":"Mykolaivska Street","name:ru":"Улица Николаевская","name:uk":"Вулиця Миколаївська","public_transport":"platform","shelter":"yes","website":"https://m.martrans.gov.ua"}},{"type":"node","id":2579397031,"lat":47.1091091,"lon":37.553509,"tags":{"bench":"yes","bin":"yes","name":"Проспект Металургів","name:en":"Metalurhiv Avenue","name:ru":"Проспект Металлургов","name:uk":"Проспект Металургів","public_transport":"platform","shelter":"yes","website":"https://m.martrans.gov.ua"}},{"type":"node","id":2579397032,"lat":47.1061513,"lon":37.5604551,"tags":{"bench":"yes","name":"Бульвар Шевченка","name:en":"Shevchenko Boulevard","name:ru":"Бульвар Шевченко","name:uk":"Бульвар Шевченка","public_transport":"platform","shelter":"yes","website":"https://m.martrans.gov.ua"}},{"type":"node","id":2588264305,"lat":47.1136408,"lon":37.5091366,"tags":{"name":"Міська лікарня №2","name:en":"City Hospital #2","name:ru":"Городская больница №2","name:uk":"Міська лікарня №2","old_name":"Міська лікарня №2","old_name:en":"City Hospital №2","old_name:uk":"Міська лікарня №2","public_transport":"platform","website":"https://m.martrans.gov.ua"}},{"type":"node","id":2588264308,"lat":47.1165496,"lon":37.5212944,"tags":{"bench":"yes","bin":"yes","name":"Ринок Космос","name:en":"Space market","name:ru":"Рынок Космос","name:uk":"Ринок Космос","public_transport":"platform","shelter":"yes","website":"https://m.martrans.gov.ua"}},{"type":"node","id":2588264318,"lat":47.1171434,"lon":37.5130371,"tags":{"bench":"yes","bin":"yes","name":"Вулиця Купріна","name:en":"Kuprin Street","name:ru":"Улица Куприна","name:uk":"Вулиця Купріна","public_transport":"platform","shelter":"yes","website":"https://m.martrans.gov.ua"}},{"type":"node","id":2588264321,"lat":47.1137801,"lon":37.5094413,"tags":{"bench":"yes","name":"Міська лікарня №2","name:en":"City Hospital #2","name:ru":"Городская больница №2","name:uk":"Міська лікарня №2","old_name":"Міська лікарня №2","old_name:en":"City Hospital №2","old_name:uk":"Міська лікарня №2","public_transport":"platform","shelter":"yes","website":"https://m.martrans.gov.ua"}},{"type":"node","id":2588264340,"lat":47.1167547,"lon":37.5184489,"tags":{"bench":"yes","bin":"yes","name":"Вулиця 9-ї Авіадивізії","name:en":"9th Aviadyvizii Street","name:ru":"Улица 9-й Авиадивизии","name:uk":"Вулиця 9-ї Авіадивізії","public_transport":"platform","shelter":"yes","sorting_name":"Вулиця 9-ї Авіадивізії","sorting_name:ru":"Улица 9-й Авиадивизии","sorting_name:uk":"Вулиця 9-ї Авіадивізії","website":"https://m.martrans.gov.ua"}},{"type":"node","id":2588264349,"lat":47.1165867,"lon":37.5193517,"tags":{"bench":"yes","bin":"yes","name":"Вулиця 9-ї Авіадивізії","name:en":"9th Aviadyvizii Street","name:ru":"Улица 9-й Авиадивизии","name:uk":"Вулиця 9-ї Авіадивізії","public_transport":"platform","shelter":"yes","sorting_name":"Вулиця 9-ї Авіадивізії","sorting_name:ru":"Улица 9-й Авиадивизии","sorting_name:uk":"Вулиця 9-ї Авіадивізії","website":"https://m.martrans.gov.ua"}},{"type":"node","id":2588264355,"lat":47.1171113,"lon":37.5118322,"tags":{"bench":"yes","name":"Вулиця Купріна","name:en":"Kuprin Street","name:ru":"Улица Куприна","name:uk":"Вулиця Купріна","public_transport":"platform","shelter":"yes","website":"https://m.martrans.gov.ua"}},{"type":"node","id":2588270511,"lat":47.1158105,"lon":37.5293901,"tags":{"bench":"yes","bin":"yes","name":"Вулиця Польова","name:en":"Poliova Street","name:ru":"Улица Полевая","name:uk":"Вулиця Польова","public_transport":"platform","shelter":"yes","website":"https://m.martrans.gov.ua"}},{"type":"node","id":2588270515,"lat":47.1158797,"lon":37.5299409,"tags":{"bench":"yes","bin":"yes","name":"Вулиця Польова","name:en":"Poliova Street","name:ru":"Улица Полевая","name:uk":"Вулиця Польова","public_transport":"platform","shelter":"yes","website":"https://m.martrans.gov.ua"}},{"type":"node","id":2588270516,"lat":47.116109,"lon":37.5256825,"tags":{"bench":"yes","bin":"yes","name":"Проспект Будівельників","name:en":"Budivelnykiv Avenue","name:ru":"Проспект Строителей","name:uk":"Проспект Будівельників","public_transport":"platform","shelter":"yes","website":"https://m.martrans.gov.ua"}},{"type":"node","id":2588270517,"lat":47.1162198,"lon":37.5256878,"tags":{"bench":"yes","bin":"yes","name":"Проспект Будівельників","name:en":"Budivelnykiv Avenue","name:ru":"Проспект Строителей","name:uk":"Проспект Будівельників","public_transport":"platform","shelter":"yes","website":"https://m.martrans.gov.ua"}},{"type":"node","id":2672771586,"lat":47.1090124,"lon":37.594508,"tags":{"bench":"yes","disused:public_transport":"platform","name":"Правобережна","name:en":"The Right Bank","name:ru":"Правобережная","name:uk":"Правобережна","shelter":"yes","website":"https://m.martrans.gov.ua"}},{"type":"node","id":2672771593,"lat":47.1112749,"lon":37.6033719,"tags":{"alt_name:ru":"Маркохим","alt_name:uk":"Маркохім","disused:public_transport":"platform","name":"Стан 3600","name:en":"Stan 3600","name:ru":"Стан 3600","name:uk":"Стан 3600","shelter":"yes","website":"https://m.martrans.gov.ua"}},{"type":"node","id":2673095924,"lat":47.1147124,"lon":37.61698,"tags":{"disused:public_transport":"platform","name":"вулиця Лепорського","name:en":"Leporsky Street","name:ru":"Улица Лепорского","name:uk":"вулиця Лепорського","website":"https://m.martrans.gov.ua"}},{"type":"node","id":2673095925,"lat":47.1145964,"lon":37.6177856,"tags":{"disused:public_transport":"platform","name":"вулиця Лепорського","name:en":"Leporsky Street","name:ru":"Улица Лепорского","name:uk":"вулиця Лепорського","website":"https://m.martrans.gov.ua"}},{"type":"node","id":2678992513,"lat":47.1429404,"lon":37.6176048,"tags":{"alt_name:ru":"Мухино","alt_name:uk":"Мухіно","name":"Вулиця Маміна-Сибіряка","name:en":"Mamin-Sibiryak Street","name:ru":"Улица Мамина-Сибиряка","name:uk":"Вулиця Маміна-Сибіряка","public_transport":"platform","website":"https://m.martrans.gov.ua"}},{"type":"node","id":2678992522,"lat":47.1437235,"lon":37.616441,"tags":{"alt_name:ru":"Мухино","alt_name:uk":"Мухіно","bench":"yes","bin":"yes","highway":"bus_stop","name":"Вулиця Маміна-Сибіряка","name:en":"Mamin-Sibiryak Street","name:ru":"Улица Мамина-Сибиряка","name:uk":"Вулиця Маміна-Сибіряка","public_transport":"platform","shelter":"yes","website":"https://m.martrans.gov.ua"}},{"type":"node","id":2678994516,"lat":47.1469808,"lon":37.6108038,"tags":{"bench":"yes","bin":"yes","highway":"bus_stop","name":"Вулиця Рівна","name:en":"Rivna Street","name:ru":"Улица Ровная","name:uk":"Вулиця Рівна","public_transport":"platform","shelter":"yes","website":"https://m.martrans.gov.ua"}},{"type":"node","id":2678994520,"lat":47.1470159,"lon":37.6103907,"tags":{"bench":"yes","bin":"yes","highway":"bus_stop","name":"Вулиця Рівна","name:en":"Rivna Street","name:ru":"Улица Ровная","name:uk":"Вулиця Рівна","public_transport":"platform","shelter":"yes","website":"https://m.martrans.gov.ua"}},{"type":"node","id":2679000402,"lat":47.1502933,"lon":37.6046735,"tags":{"bench":"yes","name":"232-й квартал","name:en":"232nd Quarter","name:ru":"232-й квартал","name:uk":"232-й квартал","noexit":"yes","public_transport":"platform","shelter":"yes","sorting_name":"232-й квартал","sorting_name:ru":"232-й квартал","sorting_name:uk":"232-й квартал","website":"https://m.martrans.gov.ua"}},{"type":"node","id":2679000406,"lat":47.1499104,"lon":37.6057532,"tags":{"highway":"bus_stop","name":"232-й квартал","name:en":"232nd Quarter","name:ru":"232-й квартал","name:uk":"232-й квартал","public_transport":"platform","sorting_name":"232-й квартал","sorting_name:ru":"232-й квартал","sorting_name:uk":"232-й квартал","website":"https://m.martrans.gov.ua"}},{"type":"node","id":2680247149,"lat":47.154613,"lon":37.5985348,"tags":{"highway":"bus_stop","name":"Енергодільниця","name:en":"Energy Plot","name:ru":"Энергоучасток","name:uk":"Енергодільниця","public_transport":"platform","website":"https://m.martrans.gov.ua"}},{"type":"node","id":2680252883,"lat":47.1567134,"lon":37.5934536,"tags":{"highway":"bus_stop","name":"Провулок Єрмака","name:en":"Yermaka Lane","name:ru":"Переулок Ермака","name:uk":"Провулок Єрмака","old_name:uk":"Професійно-технічне училище №99","old_short_name":"ПТУ №99","public_transport":"platform","website":"https://m.martrans.gov.ua"}},{"type":"node","id":2680266156,"lat":47.1598458,"lon":37.5883496,"tags":{"highway":"bus_stop","name":"Провулок Запорізький","name:en":"Zaporizkyi Lane","name:ru":"Переулок Запорожский","name:uk":"Провулок Запорізький","old_name:uk":"Диткомбінат","public_transport":"platform","website":"https://m.martrans.gov.ua"}},{"type":"node","id":2680270039,"lat":47.1630252,"lon":37.5833149,"tags":{"highway":"bus_stop","name":"Вулиця Богунська","name:en":"Bohunska Street","name:ru":"Улица Богунская","name:uk":"Вулиця Богунська","public_transport":"platform","website":"https://m.martrans.gov.ua"}},{"type":"node","id":2680293801,"lat":47.1681314,"lon":37.5820221,"tags":{"name":"Вулиця Сакко і Ванцетті","name:en":"Sakko i Vantsetti Street","name:ru":"Улица Сакко и Ванцетти","name:uk":"Вулиця Сакко і Ванцетті","public_transport":"platform","shelter":"yes","website":"https://m.martrans.gov.ua"}},{"type":"node","id":2680297477,"lat":47.1745819,"lon":37.580081,"tags":{"name":"Вулиця Мисливська","name:en":"Myslyvska Street","name:ru":"Улица Охотничья","name:uk":"Вулиця Мисливська","public_transport":"platform","shelter":"yes","website":"https://m.martrans.gov.ua"}},{"type":"node","id":2680302003,"lat":47.1358475,"lon":37.6336851,"tags":{"alt_name:ru":"Участок Коммунтранса","alt_name:uk":"Ділянка Комунтрансу","name":"Полігон ТПВ","name:en":"Waste Disposal","name:ru":"Полигон ТБО","name:uk":"Полігон ТПВ","public_transport":"platform","website":"https://m.martrans.gov.ua"}},{"type":"node","id":2680302005,"lat":47.1357858,"lon":37.6341297,"tags":{"alt_name:ru":"Участок Коммунтранса","alt_name:uk":"Ділянка Комунтрансу","name":"Полігон ТПВ","name:en":"Waste Disposal","name:ru":"Полигон ТБО","name:uk":"Полігон ТПВ","public_transport":"platform","website":"https://m.martrans.gov.ua"}},{"type":"node","id":2680305513,"lat":47.1283499,"lon":37.639542,"tags":{"name":"Селище Троїцьке","name:en":"The Village Troitske","name:ru":"Посёлок Троицкий","name:uk":"Селище Троїцьке","official_name:ru":"Троицкий","official_name:uk":"Троїцьке","old_name:uk":"Домобудівельний комбінат","old_short_name:ru":"ДСК","old_short_name:uk":"ДБК","public_transport":"platform","website":"https://m.martrans.gov.ua"}},{"type":"node","id":2680305515,"lat":47.1283408,"lon":37.6396942,"tags":{"highway":"bus_stop","name":"Селище Троїцьке","name:en":"The Village Troitske","name:ru":"Посёлок Троицкий","name:uk":"Селище Троїцьке","official_name:ru":"Троицкий","official_name:uk":"Троїцьке","old_name:uk":"Домобудівельний комбінат","old_short_name:ru":"ДСК","old_short_name:uk":"ДБК","public_transport":"platform","website":"https://m.martrans.gov.ua"}},{"type":"node","id":2680309973,"lat":47.1206863,"lon":37.6386888,"tags":{"alt_name:ru":"Еврострой","alt_name:uk":"Євробуд","highway":"bus_stop","name":"Трамвайне депо №2","name:en":"Tram depot #2","name:ru":"Трамвайное депо №2","name:uk":"Трамвайне депо №2","old_name:uk":"Будмаш","public_transport":"platform","website":"https://m.martrans.gov.ua"}},{"type":"node","id":2680309977,"lat":47.1206978,"lon":37.6384943,"tags":{"alt_name:ru":"Еврострой","alt_name:uk":"Євробуд","name":"Трамвайне депо №2","name:en":"Tram depot #2","name:ru":"Трамвайное депо №2","name:uk":"Трамвайне депо №2","old_name:uk":"Будмаш","public_transport":"platform","website":"https://m.martrans.gov.ua"}},{"type":"node","id":2680318799,"lat":47.1113047,"lon":37.6376177,"tags":{"name":"Вулиця Менделєєва","name:en":"Mendeleev Street","name:ru":"Улица Менделеева","name:uk":"Вулиця Менделєєва","public_transport":"platform","website":"https://m.martrans.gov.ua"}},{"type":"node","id":2680318802,"lat":47.1114995,"lon":37.6373421,"tags":{"name":"Вулиця Менделєєва","name:en":"Mendeleev Street","name:ru":"Улица Менделеева","name:uk":"Вулиця Менделєєва","public_transport":"platform","website":"https://m.martrans.gov.ua"}},{"type":"node","id":2680339286,"lat":47.1134412,"lon":37.6224797,"tags":{"name":"Вулиця Голубенка","name:en":"Holubenko Street","name:ru":"Улица Голубенко","name:uk":"Вулиця Голубенка","public_transport":"platform","website":"https://m.martrans.gov.ua"}},{"type":"node","id":2680341972,"lat":47.1046308,"lon":37.5640047,"tags":{"name":"Вулиця Торгова","name:en":"Torhova Street","name:ru":"Улица Торговая","name:uk":"Вулиця Торгова","public_transport":"platform","shelter":"no","website":"https://m.martrans.gov.ua"}},{"type":"node","id":2680345766,"lat":47.1037805,"lon":37.5567514,"tags":{"bench":"yes","name":"Вулиця Готфейська","name:en":"Hotfeiska Street","name:ru":"Улица Готфейская","name:uk":"Вулиця Готфейська","public_transport":"platform","shelter":"yes","website":"https://m.martrans.gov.ua"}},{"type":"node","id":2680345768,"lat":47.1014015,"lon":37.5547641,"tags":{"bench":"yes","name":"Вулиця Євпаторійська","name:en":"Yevpatoriiska Street","name:ru":"Улица Евпаторийская","name:uk":"Вулиця Євпаторійська","public_transport":"platform","shelter":"yes","website":"https://m.martrans.gov.ua"}},{"type":"node","id":2680367182,"lat":47.1113211,"lon":37.5454838,"tags":{"bench":"yes","name":"Провулок Променевий","name:en":"Promenevyi Lane","name:ru":"Переулок Лучевой","name:uk":"Провулок Променевий","old_name:uk":"Провулок Халтуріна","public_transport":"platform","shelter":"yes","website":"https://m.martrans.gov.ua"}},{"type":"node","id":2680367379,"lat":47.111322,"lon":37.5459935,"tags":{"bench":"yes","name":"Провулок Променевий","name:en":"Promenevyi Lane","name:ru":"Переулок Лучевой","name:uk":"Провулок Променевий","old_name:uk":"Провулок Халтуріна","public_transport":"platform","shelter":"yes","website":"https://m.martrans.gov.ua"}},{"type":"node","id":2680369553,"lat":47.1120356,"lon":37.5436884,"tags":{"bench":"yes","name":"Провулок Цегляний","name:en":"Tsehlyanyi Lane","name:ru":"Переулок Кирпичный","name:uk":"Провулок Цегляний","public_transport":"platform","shelter":"yes","website":"https://m.martrans.gov.ua"}},{"type":"node","id":2680369555,"lat":47.1120429,"lon":37.5430491,"tags":{"bench":"yes","name":"Провулок Цегляний","name:en":"Tsehlyanyi Lane","name:ru":"Переулок Кирпичный","name:uk":"Провулок Цегляний","public_transport":"platform","shelter":"yes","website":"https://m.martrans.gov.ua"}},{"type":"node","id":2680370996,"lat":47.113967,"lon":37.5365107,"tags":{"bench":"yes","name":"Вулиця Шота Руставелі","name:en":"Shota Rustavelli Street","name:ru":"Улица Шота Руставели","name:uk":"Вулиця Шота Руставелі","public_transport":"platform","shelter":"yes","website":"https://m.martrans.gov.ua"}},{"type":"node","id":2680370998,"lat":47.1140693,"lon":37.5368056,"tags":{"bench":"yes","name":"Вулиця Шота Руставелі","name:en":"Shota Rustavelli Street","name:ru":"Улица Шота Руставели","name:uk":"Вулиця Шота Руставелі","public_transport":"platform","shelter":"yes","website":"https://m.martrans.gov.ua"}},{"type":"node","id":2680409610,"lat":47.1785598,"lon":37.5407462,"tags":{"bench":"no","bin":"no","name":"Станція Західна","name:en":"West Station","name:ru":"Станция Западная","name:uk":"Станція Західна","official_name:ru":"Западная","official_name:uk":"Західна","public_transport":"platform","shelter":"yes","website":"https://m.martrans.gov.ua"}},{"type":"node","id":2680414520,"lat":47.1804387,"lon":37.5498873,"tags":{"name":"Цех холодного прокату","name:en":"Plant of Cold Rolling","name:ru":"Цех холодного проката","name:uk":"Цех холодного прокату","public_transport":"platform","shelter":"yes","short_name":"ЦХП","website":"https://m.martrans.gov.ua"}},{"type":"node","id":2680415320,"lat":47.1810629,"lon":37.5613436,"tags":{"name":"Стан 3000","name:en":"Stan 3000","name:ru":"Стан 3000","name:uk":"Стан 3000","public_transport":"platform","shelter":"yes","website":"https://m.martrans.gov.ua"}},{"type":"node","id":2680418095,"lat":47.1788006,"lon":37.5694561,"tags":{"bench":"yes","bin":"yes","name":"Вулиця Новосибірська","name:en":"Novosybirska Street","name:ru":"Улица Новосибирская","name:uk":"Вулиця Новосибірська","old_name:uk":"База м'ясомолторгу","public_transport":"platform","shelter":"yes","website":"https://m.martrans.gov.ua"}},{"type":"node","id":2680420556,"lat":47.177316,"lon":37.5747458,"tags":{"name":"Провулок Уральський","name:en":"Uralskyi Lane","name:ru":"Переулок Уральский","name:uk":"Провулок Уральський","public_transport":"platform","website":"https://m.martrans.gov.ua"}},{"type":"node","id":2788406542,"lat":47.1357511,"lon":37.634096,"tags":{"alt_name:ru":"Участок Коммунтранса","alt_name:uk":"Ділянка Комунтрансу","name":"Полігон ТПВ","name:en":"Waste Disposal","name:ru":"Полигон ТБО","name:uk":"Полігон ТПВ","public_transport":"stop_position","railway":"tram_stop","tram":"yes"}},{"type":"node","id":2909438220,"lat":47.1168818,"lon":37.6389062,"tags":{"name":"Вулиця Різдвяна","name:en":"Christmas Street","name:ru":"Улица Рождественская","name:uk":"Вулиця Різдвяна","old_name:uk":"Вулиця Сергія Лазо","public_transport":"platform","website":"https://m.martrans.gov.ua"}},{"type":"node","id":2920443917,"lat":47.1153685,"lon":37.5098602,"tags":{"alt_name:ru":"Торгово-развлекательный центр ПортCity;Торгово-развлекательный комплекс ПортCity;ПортСити","alt_name:uk":"Торгово-розважальний центр ПортCity;Торгово-розважальний комплекс ПортCity;ПортСіті","alt_short_name:ru":"ТРК ПортCity;ТРЦ ПортСити;ТРК ПортСити","alt_short_name:uk":"ТРК ПортCity;ТРЦ ПортСіті;ТРК ПортСіті","bench":"yes","highway":"bus_stop","name":"ТРЦ ПортCity","name:en":"PortCity Mall","name:ru":"ТРЦ ПортCity","name:uk":"ТРЦ ПортCity","noexit":"yes","official_name:ru":"ПортCity","official_name:uk":"ПортCity","public_transport":"platform","shelter":"yes","website":"https://m.martrans.gov.ua"}},{"type":"node","id":2920443918,"lat":47.1156505,"lon":37.5097527,"tags":{"alt_name:ru":"Торгово-развлекательный центр ПортCity;Торгово-развлекательный комплекс ПортCity;ПортСити","alt_name:uk":"Торгово-розважальний центр ПортCity;Торгово-розважальний комплекс ПортCity;ПортСіті","alt_short_name:ru":"ТРК ПортCity;ТРЦ ПортСити;ТРК ПортСити","alt_short_name:uk":"ТРК ПортCity;ТРЦ ПортСіті;ТРК ПортСіті","name":"ТРЦ ПортCity","name:en":"PortCity Mall","name:ru":"ТРЦ ПортCity","name:uk":"ТРЦ ПортCity","noexit":"yes","official_name:ru":"ПортCity","official_name:uk":"ПортCity","public_transport":"platform","website":"https://m.martrans.gov.ua"}},{"type":"node","id":4740100879,"lat":47.155416,"lon":37.5983322,"tags":{"highway":"bus_stop","name":"Енергодільниця","name:en":"Energy Plot","name:ru":"Энергоучасток","name:uk":"Енергодільниця","public_transport":"platform","website":"https://m.martrans.gov.ua"}},{"type":"node","id":6375787296,"lat":47.1132643,"lon":37.6232711,"tags":{"alt_name:ru":"Успеновка","alt_name:uk":"Успенівка","bench":"yes","bin":"yes","highway":"bus_stop","name":"Вулиця Голубенка","name:en":"Holubenko Street","name:ru":"Улица Голубенко","name:uk":"Вулиця Голубенка","public_transport":"platform","shelter":"yes","website":"https://m.martrans.gov.ua"}},{"type":"node","id":6379626897,"lat":47.1161765,"lon":37.5256885,"tags":{"name":"Проспект Будівельників","name:en":"Budivelnykiv Avenue","name:ru":"Проспект Строителей","name:uk":"Проспект Будівельників","public_transport":"stop_position","railway":"tram_stop","tram":"yes"}},{"type":"node","id":6379626898,"lat":47.1165033,"lon":37.5212885,"tags":{"name":"Ринок Космос","name:en":"Space market","name:ru":"Рынок Космос","name:uk":"Ринок Космос","public_transport":"stop_position","request_stop":"yes","tram":"yes"}},{"type":"node","id":6379626900,"lat":47.1167175,"lon":37.5184453,"tags":{"name":"Вулиця 9-ї Авіадивізії","name:en":"9th Aviadyvizii Street","name:ru":"Улица 9-й Авиадивизии","name:uk":"Вулиця 9-ї Авіадивізії","public_transport":"stop_position","railway":"tram_stop","sorting_name":"Вулиця 9-ї Авіадивізії","sorting_name:ru":"Улица 9-й Авиадивизии","sorting_name:uk":"Вулиця 9-ї Авіадивізії","tram":"yes"}},{"type":"node","id":6379626903,"lat":47.117099,"lon":37.5130318,"tags":{"name":"Вулиця Купріна","name:en":"Kuprin Street","name:ru":"Улица Куприна","name:uk":"Вулиця Купріна","public_transport":"stop_position","railway":"tram_stop","tram":"yes"}},{"type":"node","id":6385760156,"lat":47.099944,"lon":37.5400979,"tags":{"name":"Вулиця Казанцева","name:en":"Kazantseva Street","name:ru":"Улица Казанцева","name:uk":"Вулиця Казанцева","public_transport":"stop_position","railway":"tram_stop","tram":"yes"}},{"type":"node","id":6385760157,"lat":47.1006864,"lon":37.5442092,"tags":{"name":"Центральний ринок","name:en":"Central Market","name:ru":"Центральный рынок","name:uk":"Центральний ринок","public_transport":"stop_position","railway":"tram_stop","tram":"yes"}},{"type":"node","id":6385760160,"lat":47.098347,"lon":37.5503868,"tags":{"name":"Вулиця Миколаївська","name:en":"Mykolaivska Street","name:ru":"Улица Николаевская","name:uk":"Вулиця Миколаївська","public_transport":"stop_position","railway":"tram_stop","tram":"yes"}},{"type":"node","id":6385760163,"lat":47.1062666,"lon":37.5602434,"tags":{"name":"Бульвар Шевченка","name:en":"Shevchenko Boulevard","name:ru":"Бульвар Шевченко","name:uk":"Бульвар Шевченка","public_transport":"stop_position","railway":"tram_stop","tram":"yes"}},{"type":"node","id":6385760166,"lat":47.1069153,"lon":37.5586578,"tags":{"name":"Бульвар Шевченка","name:en":"Shevchenko Boulevard","name:ru":"Бульвар Шевченко","name:uk":"Бульвар Шевченка","public_transport":"stop_position","railway":"tram_stop","tram":"yes"}},{"type":"node","id":6385760167,"lat":47.1092351,"lon":37.5533609,"tags":{"name":"Проспект Металургів","name:en":"Metalurhiv Avenue","name:ru":"Проспект Металлургов","name:uk":"Проспект Металургів","public_transport":"stop_position","railway":"tram_stop","tram":"yes"}},{"type":"node","id":6385760169,"lat":47.1112824,"lon":37.5458981,"tags":{"name":"Провулок Променевий","name:en":"Promenevyi Lane","name:ru":"Переулок Лучевой","name:uk":"Провулок Променевий","old_name:uk":"Провулок Халтуріна","public_transport":"stop_position","railway":"tram_stop","tram":"yes"}},{"type":"node","id":6385760171,"lat":47.1119744,"lon":37.543649,"tags":{"name":"Провулок Цегляний","name:en":"Tsehlyanyi Lane","name:ru":"Переулок Кирпичный","name:uk":"Провулок Цегляний","public_transport":"stop_position","railway":"tram_stop","tram":"yes"}},{"type":"node","id":6385760173,"lat":47.1140034,"lon":37.5367641,"tags":{"name":"Вулиця Шота Руставелі","name:en":"Shota Rustavelli Street","name:ru":"Улица Шота Руставели","name:uk":"Вулиця Шота Руставелі","public_transport":"stop_position","railway":"tram_stop","tram":"yes"}},{"type":"node","id":6385760175,"lat":47.1158487,"lon":37.5299303,"tags":{"name":"Вулиця Польова","name:en":"Poliova Street","name:ru":"Улица Полевая","name:uk":"Вулиця Польова","public_transport":"stop_position","railway":"tram_stop","tram":"yes"}},{"type":"node","id":6386604259,"lat":47.1094945,"lon":37.6312017,"tags":{"name":"Вулиця Миклухо-Маклая","name:en":"Miklouho-Maclay Street","name:ru":"Улица Миклухо-Маклая","name:uk":"Вулиця Миклухо-Маклая","public_transport":"stop_position","railway":"tram_stop","tram":"yes"}},{"type":"node","id":6386604261,"lat":47.1114917,"lon":37.6374724,"tags":{"name":"Вулиця Менделєєва","name:en":"Mendeleev Street","name:ru":"Улица Менделеева","name:uk":"Вулиця Менделєєва","public_transport":"stop_position","railway":"tram_stop","tram":"yes"}},{"type":"node","id":6386604267,"lat":47.1169977,"lon":37.6388467,"tags":{"name":"Вулиця Різдвяна","name:en":"Christmas Street","name:ru":"Улица Рождественская","name:uk":"Вулиця Різдвяна","old_name:uk":"Вулиця Сергія Лазо","public_transport":"stop_position","railway":"tram_stop","tram":"yes"}},{"type":"node","id":6386604268,"lat":47.1169649,"lon":37.6389177,"tags":{"name":"Вулиця Різдвяна","name:en":"Christmas Street","name:ru":"Улица Рождественская","name:uk":"Вулиця Різдвяна","old_name:uk":"Вулиця Сергія Лазо","public_transport":"stop_position","railway":"tram_stop","tram":"yes"}},{"type":"node","id":6386604269,"lat":47.116564,"lon":37.6451887,"tags":{"name":"Вулиця Бєлінського","name:en":"Belinsky Street","name:ru":"Улица Белинского","name:uk":"Вулиця Бєлінського","public_transport":"stop_position","railway":"tram_stop","tram":"yes"}},{"type":"node","id":6386604270,"lat":47.1165383,"lon":37.6460317,"tags":{"name":"Вулиця Бєлінського","name:en":"Belinsky Street","name:ru":"Улица Белинского","name:uk":"Вулиця Бєлінського","public_transport":"stop_position","railway":"tram_stop","tram":"yes"}},{"type":"node","id":6386604271,"lat":47.11616,"lon":37.651948,"tags":{"name":"Вулиця Каховського","name:en":"Kakhovsky Street","name:ru":"Улица Каховского","name:uk":"Вулиця Каховського","public_transport":"stop_position","railway":"tram_stop","tram":"yes"}},{"type":"node","id":6386604272,"lat":47.1161207,"lon":37.6521225,"tags":{"name":"Вулиця Каховського","name:en":"Kakhovsky Street","name:ru":"Улица Каховского","name:uk":"Вулиця Каховського","public_transport":"stop_position","railway":"tram_stop","tram":"yes"}},{"type":"node","id":6386604273,"lat":47.111684,"lon":37.6520949,"tags":{"name":"Вулиця Барикадна","name:en":"Barricades Street","name:ru":"Улица Баррикадная","name:uk":"Вулиця Барикадна","public_transport":"stop_position","railway":"tram_stop","tram":"yes"}},{"type":"node","id":6386604274,"lat":47.1114235,"lon":37.6521058,"tags":{"name":"Вулиця Барикадна","name:en":"Barricades Street","name:ru":"Улица Баррикадная","name:uk":"Вулиця Барикадна","public_transport":"stop_position","railway":"tram_stop","tram":"yes"}},{"type":"node","id":6386604275,"lat":47.1076396,"lon":37.6515629,"tags":{"alt_name:ru":"Парк Радуга","alt_name:uk":"Парк Веселка","name":"Вулиця Пашковського","name:en":"Pashkovsky Street","name:ru":"Улица Пашковского","name:uk":"Вулиця Пашковського","old_name:uk":"Кінотеатр Союз","public_transport":"stop_position","railway":"tram_stop","tram":"yes"}},{"type":"node","id":6386604276,"lat":47.107637,"lon":37.6516069,"tags":{"alt_name:ru":"Парк Радуга","alt_name:uk":"Парк Веселка","name":"Вулиця Пашковського","name:en":"Pashkovsky Street","name:ru":"Улица Пашковского","name:uk":"Вулиця Пашковського","old_name:uk":"Кінотеатр Союз","public_transport":"stop_position","railway":"tram_stop","tram":"yes"}},{"type":"node","id":6386604277,"lat":47.1032405,"lon":37.6509936,"tags":{"alt_name:ru":"Утренний рынок","alt_name:uk":"Ранковий ринок","name":"Вулиця Полтавська","name:en":"Poltava Street","name:ru":"Улица Полтавская","name:uk":"Вулиця Полтавська","public_transport":"stop_position","railway":"tram_stop","tram":"yes"}},{"type":"node","id":6386604278,"lat":47.1032374,"lon":37.6510472,"tags":{"alt_name:ru":"Утренний рынок","alt_name:uk":"Ранковий ринок","name":"Вулиця Полтавська","name:en":"Poltava Street","name:ru":"Улица Полтавская","name:uk":"Вулиця Полтавська","public_transport":"stop_position","railway":"tram_stop","tram":"yes"}},{"type":"node","id":6386604279,"lat":47.1017548,"lon":37.6436969,"tags":{"alt_name:ru":"Утренний рынок","alt_name:uk":"Ранковий ринок","name":"Міський палац культури","name:en":"The City Palace of Culture","name:ru":"Городской дворец культуры","name:uk":"Міський палац культури","old_name:uk":"Палац культури Будівельників","old_short_name:ru":"ДК Строителей","old_short_name:uk":"ПК Будівельників","public_transport":"stop_position","railway":"tram_stop","tram":"yes"}},{"type":"node","id":6386604280,"lat":47.1017212,"lon":37.6447429,"tags":{"alt_name:ru":"Утренний рынок","alt_name:uk":"Ранковий ринок","name":"Міський палац культури","name:en":"The City Palace of Culture","name:ru":"Городской дворец культуры","name:uk":"Міський палац культури","old_name:uk":"Палац культури Будівельників","old_short_name:ru":"ДК Строителей","old_short_name:uk":"ПК Будівельників","public_transport":"stop_position","railway":"tram_stop","tram":"yes"}},{"type":"node","id":6386604282,"lat":47.1022315,"lon":37.6362834,"tags":{"name":"Бульвар Меотиди","name:en":"Maeotian Boulevard","name:ru":"Бульвар Меотиды","name:uk":"Бульвар Меотиди","old_name:uk":"Бульвар 50 років Жовтня","public_transport":"stop_position","railway":"tram_stop","tram":"yes"}},{"type":"node","id":6386604283,"lat":47.1027926,"lon":37.6269812,"tags":{"alt_name:ru":"Хлебокомбинат Золотой урожай","alt_name:uk":"Хлібокомбінат Золотий урожай","name":"Стадіон Азовсталь","name:en":"Azovsteel Stadium","name:ru":"Стадион Азовсталь","name:uk":"Стадіон Азовсталь","old_name:uk":"Хлібозавод №4","public_transport":"stop_position","railway":"tram_stop","tram":"yes"}},{"type":"node","id":6386604986,"lat":47.1037657,"lon":37.6199812,"tags":{"name":"Східні прохідні","name:en":"East Gate","name:ru":"Восточные проходные","name:uk":"Східні прохідні","official_name:ru":"Восточные проходные Азовсталь","official_name:uk":"Східні прохідні Азовсталь","public_transport":"stop_position","railway":"tram_stop","tram":"yes"}},{"type":"node","id":6386604988,"lat":47.108756,"lon":37.620982,"tags":{"alt_name:ru":"Парк Лепорского","alt_name:uk":"Парк Лепорського","name":"Проспект Перемоги","name:en":"Victory Avenue","name:ru":"Проспект Победы","name:uk":"Проспект Перемоги","public_transport":"stop_position","railway":"tram_stop","tram":"yes"}},{"type":"node","id":6386604990,"lat":47.1132391,"lon":37.621881,"tags":{"name":"Вулиця Мерзляка","name:en":"Merzlyak Street","name:ru":"Улица Мерзляка","name:uk":"Вулиця Мерзляка","public_transport":"stop_position","railway":"tram_stop","tram":"yes"}},{"type":"node","id":6386604991,"lat":47.1134912,"lon":37.622504,"tags":{"name":"Вулиця Голубенка","name:en":"Holubenko Street","name:ru":"Улица Голубенко","name:uk":"Вулиця Голубенка","public_transport":"stop_position","railway":"tram_stop","tram":"yes"}},{"type":"node","id":6386604993,"lat":47.114571,"lon":37.6177773,"tags":{"disused:public_transport":"stop_position","disused:railway":"tram_stop","name":"вулиця Лепорського","name:en":"Leporsky Street","name:ru":"Улица Лепорского","name:uk":"вулиця Лепорського","tram":"yes"}},{"type":"node","id":6386604995,"lat":47.1113377,"lon":37.6033373,"tags":{"alt_name:ru":"Маркохим","alt_name:uk":"Маркохім","disused:public_transport":"stop_position","disused:railway":"tram_stop","name":"Стан 3600","name:en":"Stan 3600","name:ru":"Стан 3600","name:uk":"Стан 3600","tram":"yes"}},{"type":"node","id":6386604996,"lat":47.1090778,"lon":37.5944714,"tags":{"disused:public_transport":"stop_position","disused:railway":"tram_stop","name":"Правобережна","name:en":"The Right Bank","name:ru":"Правобережная","name:uk":"Правобережна","tram":"yes"}},{"type":"node","id":6387259328,"lat":47.1430556,"lon":37.6175185,"tags":{"alt_name:ru":"Мухино","alt_name:uk":"Мухіно","name":"Вулиця Маміна-Сибіряка","name:en":"Mamin-Sibiryak Street","name:ru":"Улица Мамина-Сибиряка","name:uk":"Вулиця Маміна-Сибіряка","public_transport":"stop_position","railway":"tram_stop","tram":"yes"}},{"type":"node","id":6387259329,"lat":47.1429686,"lon":37.6176326,"tags":{"alt_name:ru":"Мухино","alt_name:uk":"Мухіно","name":"Вулиця Маміна-Сибіряка","name:en":"Mamin-Sibiryak Street","name:ru":"Улица Мамина-Сибиряка","name:uk":"Вулиця Маміна-Сибіряка","public_transport":"stop_position","railway":"tram_stop","tram":"yes"}},{"type":"node","id":6387268898,"lat":47.1358808,"lon":37.6337175,"tags":{"alt_name:ru":"Участок Коммунтранса","alt_name:uk":"Ділянка Комунтрансу","name":"Полігон ТПВ","name:en":"Waste Disposal","name:ru":"Полигон ТБО","name:uk":"Полігон ТПВ","public_transport":"stop_position","railway":"tram_stop","tram":"yes"}},{"type":"node","id":6387268900,"lat":47.1283464,"lon":37.6396005,"tags":{"name":"Селище Троїцьке","name:en":"The Village Troitske","name:ru":"Посёлок Троицкий","name:uk":"Селище Троїцьке","official_name:ru":"Троицкий","official_name:uk":"Троїцьке","old_name:uk":"Домобудівельний комбінат","old_short_name:ru":"ДСК","old_short_name:uk":"ДБК","public_transport":"stop_position","railway":"tram_stop","tram":"yes"}},{"type":"node","id":6387268901,"lat":47.1283438,"lon":37.6396441,"tags":{"name":"Селище Троїцьке","name:en":"The Village Troitske","name:ru":"Посёлок Троицкий","name:uk":"Селище Троїцьке","official_name:ru":"Троицкий","official_name:uk":"Троїцьке","old_name:uk":"Домобудівельний комбінат","old_short_name:ru":"ДСК","old_short_name:uk":"ДБК","public_transport":"stop_position","railway":"tram_stop","tram":"yes"}},{"type":"node","id":6387268902,"lat":47.1206893,"lon":37.6386385,"tags":{"alt_name:ru":"Еврострой","alt_name:uk":"Євробуд","name":"Трамвайне депо №2","name:en":"Tram depot #2","name:ru":"Трамвайное депо №2","name:uk":"Трамвайне депо №2","old_name:uk":"Будмаш","public_transport":"stop_position","railway":"tram_stop","tram":"yes"}},{"type":"node","id":6387268903,"lat":47.1206919,"lon":37.6385941,"tags":{"alt_name:ru":"Еврострой","alt_name:uk":"Євробуд","name":"Трамвайне депо №2","name:en":"Tram depot #2","name:ru":"Трамвайное депо №2","name:uk":"Трамвайне депо №2","old_name:uk":"Будмаш","public_transport":"stop_position","railway":"tram_stop","tram":"yes"}},{"type":"node","id":6387317609,"lat":47.1546331,"lon":37.5986121,"tags":{"name":"Енергодільниця","name:en":"Energy Plot","name:ru":"Энергоучасток","name:uk":"Енергодільниця","public_transport":"stop_position","railway":"tram_stop","tram":"yes"}},{"type":"node","id":6387317613,"lat":47.1773736,"lon":37.5747804,"tags":{"name":"Провулок Уральський","name:en":"Uralskyi Lane","name:ru":"Переулок Уральский","name:uk":"Провулок Уральський","public_transport":"stop_position","railway":"tram_stop","tram":"yes"}},{"type":"node","id":6387317629,"lat":47.1786307,"lon":37.5407129,"tags":{"name":"Станція Західна","name:en":"West Station","name:ru":"Станция Западная","name:uk":"Станція Західна","official_name:ru":"Западная","official_name:uk":"Західна","public_transport":"stop_position","railway":"tram_stop","tram":"yes"}},{"type":"node","id":6387317631,"lat":47.1805309,"lon":37.549846,"tags":{"name":"Цех холодного прокату","name:en":"Plant of Cold Rolling","name:ru":"Цех холодного проката","name:uk":"Цех холодного прокату","public_transport":"stop_position","railway":"tram_stop","short_name":"ЦХП","tram":"yes"}},{"type":"node","id":6387317633,"lat":47.1811219,"lon":37.5613783,"tags":{"name":"Стан 3000","name:en":"Stan 3000","name:ru":"Стан 3000","name:uk":"Стан 3000","public_transport":"stop_position","railway":"tram_stop","tram":"yes"}},{"type":"node","id":6387317635,"lat":47.1788529,"lon":37.5694879,"tags":{"name":"Вулиця Новосибірська","name:en":"Novosybirska Street","name:ru":"Улица Новосибирская","name:uk":"Вулиця Новосибірська","old_name:uk":"База м'ясомолторгу","public_transport":"stop_position","railway":"tram_stop","tram":"yes"}},{"type":"node","id":6387317637,"lat":47.174753,"lon":37.5801002,"tags":{"name":"Вулиця Мисливська","name:en":"Myslyvska Street","name:ru":"Улица Охотничья","name:uk":"Вулиця Мисливська","public_transport":"stop_position","railway":"tram_stop","tram":"yes"}},{"type":"node","id":6387317639,"lat":47.1681571,"lon":37.5818775,"tags":{"name":"Вулиця Сакко і Ванцетті","name:en":"Sakko i Vantsetti Street","name:ru":"Улица Сакко и Ванцетти","name:uk":"Вулиця Сакко і Ванцетті","public_transport":"stop_position","railway":"tram_stop","tram":"yes"}},{"type":"node","id":6387317643,"lat":47.1629554,"lon":37.5832186,"tags":{"name":"Вулиця Богунська","name:en":"Bohunska Street","name:ru":"Улица Богунская","name:uk":"Вулиця Богунська","public_transport":"stop_position","railway":"tram_stop","tram":"yes"}},{"type":"node","id":6387317647,"lat":47.1597832,"lon":37.5882704,"tags":{"name":"Провулок Запорізький","name:en":"Zaporizkyi Lane","name:ru":"Переулок Запорожский","name:uk":"Провулок Запорізький","old_name:uk":"Диткомбінат","public_transport":"stop_position","railway":"tram_stop","tram":"yes"}},{"type":"node","id":6387317651,"lat":47.1566563,"lon":37.5933931,"tags":{"name":"Провулок Єрмака","name:en":"Yermaka Lane","name:ru":"Переулок Ермака","name:uk":"Провулок Єрмака","old_name:uk":"Професійно-технічне училище №99","old_short_name":"ПТУ №99","public_transport":"stop_position","railway":"tram_stop","tram":"yes"}},{"type":"node","id":6387317653,"lat":47.1553893,"lon":37.5982289,"tags":{"name":"Енергодільниця","name:en":"Energy Plot","name:ru":"Энергоучасток","name:uk":"Енергодільниця","public_transport":"stop_position","railway":"tram_stop","tram":"yes"}},{"type":"node","id":6387317655,"lat":47.1503546,"lon":37.6047492,"tags":{"name":"232-й квартал","name:en":"232nd Quarter","name:ru":"232-й квартал","name:uk":"232-й квартал","public_transport":"stop_position","railway":"tram_stop","sorting_name":"232-й квартал","sorting_name:ru":"232-й квартал","sorting_name:uk":"232-й квартал","tram":"yes"}},{"type":"node","id":6387317659,"lat":47.1498528,"lon":37.6056813,"tags":{"name":"232-й квартал","name:en":"232nd Quarter","name:ru":"232-й квартал","name:uk":"232-й квартал","public_transport":"stop_position","railway":"tram_stop","sorting_name":"232-й квартал","sorting_name:ru":"232-й квартал","sorting_name:uk":"232-й квартал","tram":"yes"}},{"type":"node","id":6387317661,"lat":47.1469319,"lon":37.6107411,"tags":{"name":"Вулиця Рівна","name:en":"Rivna Street","name:ru":"Улица Ровная","name:uk":"Вулиця Рівна","public_transport":"stop_position","railway":"tram_stop","tram":"yes"}},{"type":"node","id":6387317663,"lat":47.1470654,"lon":37.6104494,"tags":{"name":"Вулиця Рівна","name:en":"Rivna Street","name:ru":"Улица Ровная","name:uk":"Вулиця Рівна","public_transport":"stop_position","railway":"tram_stop","tram":"yes"}},{"type":"node","id":6397808431,"lat":47.115647,"lon":37.5098046,"tags":{"alt_name:ru":"Торгово-развлекательный центр ПортCity;Торгово-развлекательный комплекс ПортCity;ПортСити","alt_name:uk":"Торгово-розважальний центр ПортCity;Торгово-розважальний комплекс ПортCity;ПортСіті","alt_short_name:ru":"ТРК ПортCity;ТРЦ ПортСити;ТРК ПортСити","alt_short_name:uk":"ТРК ПортCity;ТРЦ ПортСіті;ТРК ПортСіті","name":"ТРЦ ПортCity","name:en":"PortCity Mall","name:ru":"ТРЦ ПортCity","name:uk":"ТРЦ ПортCity","official_name:ru":"ПортCity","official_name:uk":"ПортCity","public_transport":"stop_position","railway":"tram_stop","tram":"yes"}},{"type":"node","id":6397808434,"lat":47.1136246,"lon":37.5091699,"tags":{"name":"Міська лікарня №2","name:ru":"Городская больница №2","name:uk":"Міська лікарня №2","old_name":"Міська лікарня №2","old_name:en":"City Hospital №2","old_name:uk":"Міська лікарня №2","public_transport":"stop_position","railway":"tram_stop","tram":"yes"}},{"type":"node","id":6421431486,"lat":47.1092091,"lon":37.6357321,"tags":{"name":"Проспект Єдності","name:en":"Unity Avenue","name:ru":"Проспект Единства","name:uk":"Проспект Єдності","old_name:uk":"Проспект 1 Травня","public_transport":"stop_position","railway":"tram_stop","tram":"yes"}},{"type":"node","id":6563995235,"lat":47.1037389,"lon":37.5568477,"tags":{"name":"Вулиця Готфейська","name:en":"Hotfeiska Street","name:ru":"Улица Готфейская","name:uk":"Вулиця Готфейська","public_transport":"stop_position","railway":"tram_stop","tram":"yes"}},{"type":"node","id":6375582012,"lat":47.1132815,"lon":37.62328,"tags":{"alt_name:ru":"Успеновка","alt_name:uk":"Успенівка","name":"Вулиця Голубенка","name:en":"Holubenko Street","name:ru":"Улица Голубенко","name:uk":"Вулиця Голубенка","public_transport":"stop_position","railway":"tram_stop","tram":"yes"}},{"type":"node","id":6379626896,"lat":47.1161515,"lon":37.5256879,"tags":{"name":"Проспект Будівельників","name:en":"Budivelnykiv Avenue","name:ru":"Проспект Строителей","name:uk":"Проспект Будівельників","public_transport":"stop_position","railway":"tram_stop","tram":"yes"}},{"type":"node","id":6379626899,"lat":47.1166231,"lon":37.519358,"tags":{"name":"Вулиця 9-ї Авіадивізії","name:en":"9th Aviadyvizii Street","name:ru":"Улица 9-й Авиадивизии","name:uk":"Вулиця 9-ї Авіадивізії","public_transport":"stop_position","railway":"tram_stop","sorting_name":"Вулиця 9-ї Авіадивізії","sorting_name:ru":"Улица 9-й Авиадивизии","sorting_name:uk":"Вулиця 9-ї Авіадивізії","tram":"yes"}},{"type":"node","id":6379626904,"lat":47.1171485,"lon":37.5118398,"tags":{"name":"Вулиця Купріна","name:en":"Kuprin Street","name:ru":"Улица Куприна","name:uk":"Вулиця Купріна","public_transport":"stop_position","railway":"tram_stop","tram":"yes"}},{"type":"node","id":6385760155,"lat":47.0995613,"lon":37.5400529,"tags":{"name":"Вулиця Казанцева","name:en":"Kazantseva Street","name:ru":"Улица Казанцева","name:uk":"Вулиця Казанцева","public_transport":"stop_position","railway":"tram_stop","tram":"yes"}},{"type":"node","id":6385760158,"lat":47.1002596,"lon":37.5452787,"tags":{"name":"Центральний ринок","name:en":"Central Market","name:ru":"Центральный рынок","name:uk":"Центральний ринок","public_transport":"stop_position","railway":"tram_stop","tram":"yes"}},{"type":"node","id":6385760159,"lat":47.0983309,"lon":37.5503737,"tags":{"name":"Вулиця Миколаївська","name:en":"Mykolaivska Street","name:ru":"Улица Николаевская","name:uk":"Вулиця Миколаївська","public_transport":"stop_position","railway":"tram_stop","tram":"yes"}},{"type":"node","id":6385760164,"lat":47.1061786,"lon":37.5604729,"tags":{"name":"Бульвар Шевченка","name:en":"Shevchenko Boulevard","name:ru":"Бульвар Шевченко","name:uk":"Бульвар Шевченка","public_transport":"stop_position","railway":"tram_stop","tram":"yes"}},{"type":"node","id":6385760165,"lat":47.1067518,"lon":37.5589898,"tags":{"name":"Бульвар Шевченка","name:en":"Shevchenko Boulevard","name:ru":"Бульвар Шевченко","name:uk":"Бульвар Шевченка","public_transport":"stop_position","railway":"tram_stop","tram":"yes"}},{"type":"node","id":6385760168,"lat":47.1091378,"lon":37.5535301,"tags":{"name":"Проспект Металургів","name:en":"Metalurhiv Avenue","name:ru":"Проспект Металлургов","name:uk":"Проспект Металургів","public_transport":"stop_position","railway":"tram_stop","tram":"yes"}},{"type":"node","id":6385760170,"lat":47.1113944,"lon":37.5454665,"tags":{"name":"Провулок Променевий","name:en":"Promenevyi Lane","name:ru":"Переулок Лучевой","name:uk":"Провулок Променевий","old_name:uk":"Провулок Халтуріна","public_transport":"stop_position","railway":"tram_stop","tram":"yes"}},{"type":"node","id":6385760172,"lat":47.1121135,"lon":37.5430945,"tags":{"name":"Провулок Цегляний","name:en":"Tsehlyanyi Lane","name:ru":"Переулок Кирпичный","name:uk":"Провулок Цегляний","public_transport":"stop_position","railway":"tram_stop","tram":"yes"}},{"type":"node","id":6385760174,"lat":47.1140371,"lon":37.5365548,"tags":{"name":"Вулиця Шота Руставелі","name:en":"Shota Rustavelli Street","name:ru":"Улица Шота Руставели","name:uk":"Вулиця Шота Руставелі","public_transport":"stop_position","railway":"tram_stop","tram":"yes"}},{"type":"node","id":6385760176,"lat":47.1158665,"lon":37.529552,"tags":{"name":"Вулиця Польова","name:en":"Poliova Street","name:ru":"Улица Полевая","name:uk":"Вулиця Польова","public_transport":"stop_position","railway":"tram_stop","tram":"yes"}},{"type":"node","id":6386604258,"lat":47.1094884,"lon":37.6308287,"tags":{"name":"Вулиця Миклухо-Маклая","name:en":"Miklouho-Maclay Street","name:ru":"Улица Миклухо-Маклая","name:uk":"Вулиця Миклухо-Маклая","public_transport":"stop_position","railway":"tram_stop","tram":"yes"}},{"type":"node","id":6386604260,"lat":47.1113122,"lon":37.637492,"tags":{"name":"Вулиця Менделєєва","name:en":"Mendeleev Street","name:ru":"Улица Менделеева","name:uk":"Вулиця Менделєєва","public_transport":"stop_position","railway":"tram_stop","tram":"yes"}},{"type":"node","id":6386604265,"lat":47.117275,"lon":37.6382163,"tags":{"name":"Вулиця Різдвяна","name:en":"Christmas Street","name:ru":"Улица Рождественская","name:uk":"Вулиця Різдвяна","old_name:uk":"Вулиця Сергія Лазо","public_transport":"stop_position","railway":"tram_stop","tram":"yes"}},{"type":"node","id":6386604266,"lat":47.1165865,"lon":37.6381661,"tags":{"name":"Вулиця Різдвяна","name:en":"Christmas Street","name:ru":"Улица Рождественская","name:uk":"Вулиця Різдвяна","old_name:uk":"Вулиця Сергія Лазо","public_transport":"stop_position","railway":"tram_stop","tram":"yes"}},{"type":"node","id":6386604281,"lat":47.1022007,"lon":37.6362798,"tags":{"name":"Бульвар Меотиди","name:en":"Maeotian Boulevard","name:ru":"Бульвар Меотиды","name:uk":"Бульвар Меотиди","old_name:uk":"Бульвар 50 років Жовтня","public_transport":"stop_position","railway":"tram_stop","tram":"yes"}},{"type":"node","id":6386604284,"lat":47.1027826,"lon":37.6265971,"tags":{"alt_name:ru":"Хлебокомбинат Золотой урожай","alt_name:uk":"Хлібокомбінат Золотий урожай","name":"Стадіон Азовсталь","name:en":"Azovsteel Stadium","name:ru":"Стадион Азовсталь","name:uk":"Стадіон Азовсталь","old_name:uk":"Хлібозавод №4","public_transport":"stop_position","railway":"tram_stop","tram":"yes"}},{"type":"node","id":6386604985,"lat":47.1037705,"lon":37.6199287,"tags":{"name":"Східні прохідні","name:en":"East Gate","name:ru":"Восточные проходные","name:uk":"Східні прохідні","official_name:ru":"Восточные проходные Азовсталь","official_name:uk":"Східні прохідні Азовсталь","public_transport":"stop_position","railway":"tram_stop","tram":"yes"}},{"type":"node","id":6386604987,"lat":47.1086012,"lon":37.6208951,"tags":{"alt_name:ru":"Парк Лепорского","alt_name:uk":"Парк Лепорського","name":"Проспект Перемоги","name:en":"Victory Avenue","name:ru":"Проспект Победы","name:uk":"Проспект Перемоги","public_transport":"stop_position","railway":"tram_stop","tram":"yes"}},{"type":"node","id":6386604989,"lat":47.1129576,"lon":37.6217668,"tags":{"name":"Вулиця Мерзляка","name:en":"Merzlyak Street","name:ru":"Улица Мерзляка","name:uk":"Вулиця Мерзляка","public_transport":"stop_position","railway":"tram_stop","tram":"yes"}},{"type":"node","id":6386604998,"lat":47.1017426,"lon":37.573439,"tags":{"alt_name:ru":"Западные проходные Азовсталь","alt_name:uk":"Західні прохідні Азовсталь","name":"Комбінат Азовсталь","name:en":"Metallurgical Combine Azovsteel","name:ru":"Комбинат Азовсталь","name:uk":"Комбінат Азовсталь","public_transport":"stop_position","railway":"tram_stop","tram":"yes"}},{"type":"node","id":6386604999,"lat":47.1012676,"lon":37.5731746,"tags":{"alt_name:ru":"Западные проходные Азовсталь","alt_name:uk":"Західні прохідні Азовсталь","name":"Комбінат Азовсталь","name:en":"Metallurgical Combine Azovsteel","name:ru":"Комбинат Азовсталь","name:uk":"Комбінат Азовсталь","public_transport":"stop_position","railway":"tram_stop","tram":"yes"}},{"type":"node","id":6386605000,"lat":47.1046768,"lon":37.5640474,"tags":{"name":"Вулиця Торгова","name:en":"Torhova Street","name:ru":"Улица Торговая","name:uk":"Вулиця Торгова","public_transport":"stop_position","railway":"tram_stop","tram":"yes"}},{"type":"node","id":6387206987,"lat":47.1104723,"lon":37.5556891,"tags":{"name":"Житмасив Кіровський","name:en":"Kirovskyi District","name:ru":"Жилмассив Кировский","name:uk":"Житмасив Кіровський","public_transport":"stop_position","railway":"tram_stop","tram":"yes"}},{"type":"node","id":6387206989,"lat":47.1398719,"lon":37.5679226,"tags":{"alt_name:ru":"Поворот;Восьмые проходные ворота","alt_name:uk":"Поворот;Восьмі прохідні ворота","name":"Проспект Нікопольський","name:en":"Nikopolskyi Avenue","name:ru":"Проспект Никопольский","name:uk":"Проспект Нікопольський","old_name:uk":"Проспект Ілліча","public_transport":"stop_position","railway":"tram_stop","tram":"yes"}},{"type":"node","id":6387206990,"lat":47.1399357,"lon":37.5677622,"tags":{"alt_name:ru":"Поворот;Восьмые проходные ворота","alt_name:uk":"Поворот;Восьмі прохідні ворота","name":"Проспект Нікопольський","name:en":"Nikopolskyi Avenue","name:ru":"Проспект Никопольский","name:uk":"Проспект Нікопольський","old_name:uk":"Проспект Ілліча","public_transport":"stop_position","railway":"tram_stop","tram":"yes"}},{"type":"node","id":6387206991,"lat":47.1396391,"lon":37.5693446,"tags":{"alt_name:ru":"Поворот;Восьмые проходные ворота","alt_name:uk":"Поворот;Восьмі прохідні ворота","name":"Проспект Нікопольський","name:en":"Nikopolskyi Avenue","name:ru":"Проспект Никопольский","name:uk":"Проспект Нікопольський","old_name:uk":"Проспект Ілліча","public_transport":"stop_position","railway":"tram_stop","tram":"yes"}},{"type":"node","id":6387206992,"lat":47.139702,"lon":37.5691757,"tags":{"alt_name:ru":"Поворот;Восьмые проходные ворота","alt_name:uk":"Поворот;Восьмі прохідні ворота","name":"Проспект Нікопольський","name:en":"Nikopolskyi Avenue","name:ru":"Проспект Никопольский","name:uk":"Проспект Нікопольський","old_name:uk":"Проспект Ілліча","public_transport":"stop_position","railway":"tram_stop","tram":"yes"}},{"type":"node","id":6387206995,"lat":47.1357254,"lon":37.5672751,"tags":{"name":"Вулиця Прожекторна","name:en":"Prozhektorna Street","name:ru":"Улица Прожекторная","name:uk":"Вулиця Прожекторна","old_name:uk":"Магазин Олімпія;Вулиця Заворуєва","public_transport":"stop_position","railway":"tram_stop","tram":"yes"}},{"type":"node","id":6387206997,"lat":47.1355354,"lon":37.567272,"tags":{"name":"Вулиця Прожекторна","name:en":"Prozhektorna Street","name:ru":"Улица Прожекторная","name:uk":"Вулиця Прожекторна","old_name:uk":"Магазин Олімпія;Вулиця Заворуєва","public_transport":"stop_position","railway":"tram_stop","tram":"yes"}},{"type":"node","id":6387206998,"lat":47.1315009,"lon":37.5658715,"tags":{"alt_name:ru":"Плавбассейн Нептун;Площадь Независимости","alt_name:uk":"Плавбасейн Нептун;Площа Незалежності","name":"Вулиця Блажевича","name:en":"Blazhevycha Street","name:ru":"Улица Блажевича","name:uk":"Вулиця Блажевича","public_transport":"stop_position","railway":"tram_stop","tram":"yes"}},{"type":"node","id":6387207001,"lat":47.1307879,"lon":37.5657052,"tags":{"alt_name:ru":"Плавбассейн Нептун;Площадь Независимости","alt_name:uk":"Плавбасейн Нептун;Площа Незалежності","name":"Вулиця Блажевича","name:en":"Blazhevycha Street","name:ru":"Улица Блажевича","name:uk":"Вулиця Блажевича","public_transport":"stop_position","railway":"tram_stop","tram":"yes"}},{"type":"node","id":6387207002,"lat":47.1257719,"lon":37.5641705,"tags":{"name":"Вулиця Покришкіна","name:en":"Pokryshkina Street","name:ru":"Улица Покрышкина","name:uk":"Вулиця Покришкіна","public_transport":"stop_position","railway":"tram_stop","tram":"yes"}},{"type":"node","id":6387207005,"lat":47.1251338,"lon":37.5640423,"tags":{"name":"Вулиця Покришкіна","name:en":"Pokryshkina Street","name:ru":"Улица Покрышкина","name:uk":"Вулиця Покришкіна","public_transport":"stop_position","railway":"tram_stop","tram":"yes"}},{"type":"node","id":6387207007,"lat":47.1200103,"lon":37.5630175,"tags":{"name":"5-й мікрорайон","name:en":"5th District","name:ru":"5-й микрорайон","name:uk":"5-й мікрорайон","old_short_name:ru":"ИМР 5","old_short_name:uk":"ІМР 5","public_transport":"stop_position","railway":"tram_stop","sorting_name":"5-й мікрорайон","sorting_name:ru":"5-й микрорайон","sorting_name:uk":"5-й мікрорайон","tram":"yes"}},{"type":"node","id":6387207009,"lat":47.1199854,"lon":37.5630758,"tags":{"name":"5-й мікрорайон","name:en":"5th District","name:ru":"5-й микрорайон","name:uk":"5-й мікрорайон","old_short_name:ru":"ИМР 5","old_short_name:uk":"ІМР 5","public_transport":"stop_position","railway":"tram_stop","sorting_name":"5-й мікрорайон","sorting_name:ru":"5-й микрорайон","sorting_name:uk":"5-й мікрорайон","tram":"yes"}},{"type":"node","id":6387207011,"lat":47.1171787,"lon":37.5617859,"tags":{"name":"7-й проїзд","name:en":"7th Passage","name:ru":"7-й проезд","name:uk":"7-й проїзд","public_transport":"stop_position","railway":"tram_stop","request_stop":"yes","sorting_name":"7-й проїзд","sorting_name:ru":"7-й проезд","sorting_name:uk":"7-й проїзд","tram":"yes"}},{"type":"node","id":6387207013,"lat":47.1169915,"lon":37.5616833,"tags":{"name":"7-й проїзд","name:en":"7th Passage","name:ru":"7-й проезд","name:uk":"7-й проїзд","public_transport":"stop_position","railway":"tram_stop","request_stop":"yes","sorting_name":"7-й проїзд","sorting_name:ru":"7-й проезд","sorting_name:uk":"7-й проїзд","tram":"yes"}},{"type":"node","id":6387207015,"lat":47.1135279,"lon":37.5585209,"tags":{"name":"Вулиця Кальміуська","name:en":"Kalmiuska Street","name:ru":"Улица Кальмиусская","name:uk":"Вулиця Кальміуська","public_transport":"stop_position","railway":"tram_stop","tram":"yes"}},{"type":"node","id":6387207017,"lat":47.1128417,"lon":37.5579486,"tags":{"name":"Вулиця Кальміуська","name:en":"Kalmiuska Street","name:ru":"Улица Кальмиусская","name:uk":"Вулиця Кальміуська","public_transport":"stop_position","railway":"tram_stop","tram":"yes"}},{"type":"node","id":6387207018,"lat":47.1097371,"lon":37.55506,"tags":{"name":"Житмасив Кіровський","name:en":"Kirovskyi District","name:ru":"Жилмассив Кировский","name:uk":"Житмасив Кіровський","public_transport":"stop_position","railway":"tram_stop","tram":"yes"}},{"type":"node","id":6387259326,"lat":47.1436942,"lon":37.616289,"tags":{"alt_name:ru":"Мухино","alt_name:uk":"Мухіно","name":"Вулиця Маміна-Сибіряка","name:en":"Mamin-Sibiryak Street","name:ru":"Улица Мамина-Сибиряка","name:uk":"Вулиця Маміна-Сибіряка","public_transport":"stop_position","railway":"tram_stop","tram":"yes"}},{"type":"node","id":6387259327,"lat":47.1436759,"lon":37.616381,"tags":{"alt_name:ru":"Мухино","alt_name:uk":"Мухіно","name":"Вулиця Маміна-Сибіряка","name:en":"Mamin-Sibiryak Street","name:ru":"Улица Мамина-Сибиряка","name:uk":"Вулиця Маміна-Сибіряка","public_transport":"stop_position","railway":"tram_stop","tram":"yes"}},{"type":"node","id":6387259330,"lat":47.139236,"lon":37.6122857,"tags":{"name":"Вулиця Заозерна","name:en":"Zaozerna Street","name:ru":"Улица Заозёрная","name:uk":"Вулиця Заозерна","public_transport":"stop_position","railway":"tram_stop","tram":"yes"}},{"type":"node","id":6387259331,"lat":47.139375,"lon":37.6125514,"tags":{"name":"Вулиця Заозерна","name:en":"Zaozerna Street","name:ru":"Улица Заозёрная","name:uk":"Вулиця Заозерна","public_transport":"stop_position","railway":"tram_stop","tram":"yes"}},{"type":"node","id":6387259332,"lat":47.1363204,"lon":37.6071012,"tags":{"name":"Вулиця Лугова","name:en":"Luhova Street","name:ru":"Улица Луговая","name:uk":"Вулиця Лугова","public_transport":"stop_position","railway":"tram_stop","tram":"yes"}},{"type":"node","id":6387259333,"lat":47.1365647,"lon":37.6073924,"tags":{"name":"Вулиця Лугова","name:en":"Luhova Street","name:ru":"Улица Луговая","name:uk":"Вулиця Лугова","public_transport":"stop_position","railway":"tram_stop","tram":"yes"}},{"type":"node","id":6387259334,"lat":47.1354081,"lon":37.6012336,"tags":{"name":"Кальміуський ринок","name:en":"Kalmius Market","name:ru":"Кальмиусский рынок","name:uk":"Кальміуський ринок","old_name:uk":"Іллічівський ринок","public_transport":"stop_position","railway":"tram_stop","tram":"yes"}},{"type":"node","id":6387259335,"lat":47.1353305,"lon":37.6004983,"tags":{"name":"Кальміуський ринок","name:en":"Kalmius Market","name:ru":"Кальмиусский рынок","name:uk":"Кальміуський ринок","old_name:uk":"Іллічівський ринок","public_transport":"stop_position","railway":"tram_stop","tram":"yes"}},{"type":"node","id":6387259341,"lat":47.1358572,"lon":37.5919304,"tags":{"alt_name:ru":"Первые проходные ворота","alt_name:uk":"Перші прохідні ворота","name":"Площа Левченка","name:en":"Levchenka Square","name:ru":"Площадь Левченко","name:uk":"Площа Левченка","public_transport":"stop_position","railway":"tram_stop","tram":"yes"}},{"type":"node","id":6387259342,"lat":47.1355928,"lon":37.5936747,"tags":{"alt_name:ru":"Первые проходные ворота","alt_name:uk":"Перші прохідні ворота","name":"Площа Левченка","name:en":"Levchenka Square","name:ru":"Площадь Левченко","name:uk":"Площа Левченка","public_transport":"stop_position","railway":"tram_stop","tram":"yes"}},{"type":"node","id":6387259343,"lat":47.137092,"lon":37.5846982,"tags":{"name":"Вулиця Доменна","name:en":"Domenna Street","name:ru":"Улица Доменная","name:uk":"Вулиця Доменна","public_transport":"stop_position","railway":"tram_stop","tram":"yes"}},{"type":"node","id":6387259344,"lat":47.1369624,"lon":37.5856535,"tags":{"name":"Вулиця Доменна","name:en":"Domenna Street","name:ru":"Улица Доменная","name:uk":"Вулиця Доменна","public_transport":"stop_position","railway":"tram_stop","tram":"yes"}},{"type":"node","id":6387259345,"lat":47.1382145,"lon":37.5786125,"tags":{"name":"Треті прохідні ворота","name:en":"The Third Pass Gate","name:ru":"Третьи проходные ворота","name:uk":"Треті прохідні ворота","public_transport":"stop_position","railway":"tram_stop","tram":"yes"}},{"type":"node","id":6387259346,"lat":47.138321,"lon":37.5777062,"tags":{"name":"Треті прохідні ворота","name:en":"The Third Pass Gate","name:ru":"Третьи проходные ворота","name:uk":"Треті прохідні ворота","public_transport":"stop_position","railway":"tram_stop","tram":"yes"}},{"type":"node","id":6387317608,"lat":47.1546422,"lon":37.598647,"tags":{"name":"Енергодільниця","name:en":"Energy Plot","name:ru":"Энергоучасток","name:uk":"Енергодільниця","public_transport":"stop_position","railway":"tram_stop","tram":"yes"}},{"type":"node","id":6387317612,"lat":47.1773453,"lon":37.5747634,"tags":{"name":"Провулок Уральський","name:en":"Uralskyi Lane","name:ru":"Переулок Уральский","name:uk":"Провулок Уральський","public_transport":"stop_position","railway":"tram_stop","tram":"yes"}},{"type":"node","id":6387317614,"lat":47.1447162,"lon":37.5596646,"tags":{"name":"Стадіон імені Бойка","name:en":"Boiko Stadium","name:ru":"Стадион имени Бойко","name:uk":"Стадіон імені Бойка","official_name:ru":"Стадион","official_name:uk":"Стадіон","old_name:uk":"Стадіон Іллічівець","public_transport":"stop_position","railway":"tram_stop","request_stop":"yes","tram":"yes"}},{"type":"node","id":6387317615,"lat":47.1446409,"lon":37.5598187,"tags":{"name":"Стадіон імені Бойка","name:en":"Boiko Stadium","name:ru":"Стадион имени Бойко","name:uk":"Стадіон імені Бойка","official_name:ru":"Стадион","official_name:uk":"Стадіон","old_name:uk":"Стадіон Іллічівець","public_transport":"stop_position","railway":"tram_stop","request_stop":"yes","tram":"yes"}},{"type":"node","id":6387317616,"lat":47.1492631,"lon":37.5504968,"tags":{"name":"Вулиця Тополина","name:en":"Topolyna Street","name:ru":"Улица Тополиная","name:uk":"Вулиця Тополина","old_name:uk":"Радгоспна вулиця","public_transport":"stop_position","railway":"tram_stop","tram":"yes"}},{"type":"node","id":6387317617,"lat":47.1492455,"lon":37.5504665,"tags":{"name":"Вулиця Тополина","name:en":"Topolyna Street","name:ru":"Улица Тополиная","name:uk":"Вулиця Тополина","old_name:uk":"Радгоспна вулиця","public_transport":"stop_position","railway":"tram_stop","tram":"yes"}},{"type":"node","id":6387317618,"lat":47.1545831,"lon":37.5476234,"tags":{"name":"Трамвайне депо №3","name:en":"Tram depot #3","name:ru":"Трамвайное депо №3","name:uk":"Трамвайне депо №3","old_name:uk":"Професійно-технічне училище №74","old_short_name":"ПТУ №74","public_transport":"stop_position","railway":"tram_stop","tram":"yes"}},{"type":"node","id":6387317619,"lat":47.1545903,"lon":37.5476637,"tags":{"name":"Трамвайне депо №3","name:en":"Tram depot #3","name:ru":"Трамвайное депо №3","name:uk":"Трамвайне депо №3","old_name:uk":"Професійно-технічне училище №74","old_short_name":"ПТУ №74","public_transport":"stop_position","railway":"tram_stop","tram":"yes"}},{"type":"node","id":6387317620,"lat":47.1616577,"lon":37.5444527,"tags":{"name":"АзовЕлектроСталь","name:en":"AzovElectroSteel","name:ru":"АзовЭлектроСталь","name:uk":"АзовЕлектроСталь","old_name:uk":"Трест Металургбуд","public_transport":"stop_position","railway":"tram_stop","tram":"yes"}},{"type":"node","id":6387317621,"lat":47.1616419,"lon":37.5444106,"tags":{"name":"АзовЕлектроСталь","name:en":"AzovElectroSteel","name:ru":"АзовЭлектроСталь","name:uk":"АзовЕлектроСталь","old_name:uk":"Трест Металургбуд","public_transport":"stop_position","railway":"tram_stop","tram":"yes"}},{"type":"node","id":6387317622,"lat":47.1653364,"lon":37.5405537,"tags":{"name":"Вулиця Комишова","name:en":"Komyshova Street","name:ru":"Улица Камышовая","name:uk":"Вулиця Комишова","old_name:uk":"Сільгосптехніка; Жовтнева вулиця","public_transport":"stop_position","railway":"tram_stop","tram":"yes"}},{"type":"node","id":6387317623,"lat":47.1653178,"lon":37.5405186,"tags":{"name":"Вулиця Комишова","name:en":"Komyshova Street","name:ru":"Улица Камышовая","name:uk":"Вулиця Комишова","old_name:uk":"Сільгосптехніка; Жовтнева вулиця","public_transport":"stop_position","railway":"tram_stop","tram":"yes"}},{"type":"node","id":6387317624,"lat":47.1690054,"lon":37.538304,"tags":{"name":"Провулок Північний","name:en":"Pivnichnyi Lane","name:ru":"Переулок Северный","name:uk":"Провулок Північний","old_name:uk":"Радгосп Зірка","public_transport":"stop_position","railway":"tram_stop","tram":"yes"}},{"type":"node","id":6387317625,"lat":47.1690036,"lon":37.5383538,"tags":{"name":"Провулок Північний","name:en":"Pivnichnyi Lane","name:ru":"Переулок Северный","name:uk":"Провулок Північний","old_name:uk":"Радгосп Зірка","public_transport":"stop_position","railway":"tram_stop","tram":"yes"}},{"type":"node","id":6387317626,"lat":47.1724831,"lon":37.5386279,"tags":{"name":"Стан 1700","name:en":"Stan 1700","name:ru":"Стан 1700","name:uk":"Стан 1700","public_transport":"stop_position","railway":"tram_stop","tram":"yes"}},{"type":"node","id":6387317627,"lat":47.1724847,"lon":37.5385834,"tags":{"name":"Стан 1700","name:en":"Stan 1700","name:ru":"Стан 1700","name:uk":"Стан 1700","public_transport":"stop_position","railway":"tram_stop","tram":"yes"}},{"type":"node","id":6387317628,"lat":47.1785997,"lon":37.5407275,"tags":{"name":"Станція Західна","name:en":"West Station","name:ru":"Станция Западная","name:uk":"Станція Західна","official_name:ru":"Западная","official_name:uk":"Західна","public_transport":"stop_position","railway":"tram_stop","tram":"yes"}},{"type":"node","id":6387317630,"lat":47.1804943,"lon":37.5498624,"tags":{"name":"Цех холодного прокату","name:en":"Plant of Cold Rolling","name:ru":"Цех холодного проката","name:uk":"Цех холодного прокату","public_transport":"stop_position","railway":"tram_stop","short_name":"ЦХП","tram":"yes"}},{"type":"node","id":6387317632,"lat":47.1810913,"lon":37.5613603,"tags":{"name":"Стан 3000","name:en":"Stan 3000","name:ru":"Стан 3000","name:uk":"Стан 3000","public_transport":"stop_position","railway":"tram_stop","tram":"yes"}},{"type":"node","id":6387317634,"lat":47.1788228,"lon":37.5694696,"tags":{"name":"Вулиця Новосибірська","name:en":"Novosybirska Street","name:ru":"Улица Новосибирская","name:uk":"Вулиця Новосибірська","old_name:uk":"База м'ясомолторгу","public_transport":"stop_position","railway":"tram_stop","tram":"yes"}},{"type":"node","id":6387317636,"lat":47.1746547,"lon":37.5801832,"tags":{"name":"Вулиця Мисливська","name:en":"Myslyvska Street","name:ru":"Улица Охотничья","name:uk":"Вулиця Мисливська","public_transport":"stop_position","railway":"tram_stop","tram":"yes"}},{"type":"node","id":6387317638,"lat":47.1681642,"lon":37.5818496,"tags":{"name":"Вулиця Сакко і Ванцетті","name:en":"Sakko i Vantsetti Street","name:ru":"Улица Сакко и Ванцетти","name:uk":"Вулиця Сакко і Ванцетті","public_transport":"stop_position","railway":"tram_stop","tram":"yes"}},{"type":"node","id":6387317641,"lat":47.1626995,"lon":37.5835927,"tags":{"name":"Вулиця Богунська","name:en":"Bohunska Street","name:ru":"Улица Богунская","name:uk":"Вулиця Богунська","public_transport":"stop_position","railway":"tram_stop","tram":"yes"}},{"type":"node","id":6387317645,"lat":47.1599952,"lon":37.5879052,"tags":{"name":"Провулок Запорізький","name:en":"Zaporizkyi Lane","name:ru":"Переулок Запорожский","name:uk":"Провулок Запорізький","old_name:uk":"Диткомбінат","public_transport":"stop_position","railway":"tram_stop","tram":"yes"}},{"type":"node","id":6387317649,"lat":47.1571286,"lon":37.5925165,"tags":{"name":"Провулок Єрмака","name:en":"Yermaka Lane","name:ru":"Переулок Ермака","name:uk":"Провулок Єрмака","old_name:uk":"Професійно-технічне училище №99","old_short_name":"ПТУ №99","public_transport":"stop_position","railway":"tram_stop","tram":"yes"}},{"type":"node","id":6397808430,"lat":47.1137988,"lon":37.5094019,"tags":{"name":"Міська лікарня №2","name:en":"City Hospital #2","name:ru":"Городская больница №2","name:uk":"Міська лікарня №2","old_name":"Міська лікарня №2","old_name:en":"City Hospital №2","old_name:uk":"Міська лікарня №2","public_transport":"stop_position","railway":"tram_stop","tram":"yes"}},{"type":"node","id":6397808432,"lat":47.1153722,"lon":37.5098061,"tags":{"alt_name:ru":"Торгово-развлекательный центр ПортCity;Торгово-развлекательный комплекс ПортCity;ПортСити","alt_name:uk":"Торгово-розважальний центр ПортCity;Торгово-розважальний комплекс ПортCity;ПортСіті","alt_short_name:ru":"ТРК ПортCity;ТРЦ ПортСити;ТРК ПортСити","alt_short_name:uk":"ТРК ПортCity;ТРЦ ПортСіті;ТРК ПортСіті","name":"ТРЦ ПортCity","name:en":"PortCity Mall","name:ru":"ТРЦ ПортCity","name:uk":"ТРЦ ПортCity","official_name:ru":"ПортCity","official_name:uk":"ПортCity","public_transport":"stop_position","railway":"tram_stop","tram":"yes"}},{"type":"node","id":6421431485,"lat":47.1091756,"lon":37.635877,"tags":{"name":"Проспект Єдності","name:en":"Unity Avenue","name:ru":"Проспект Единства","name:uk":"Проспект Єдності","old_name:uk":"Проспект 1 Травня","public_transport":"stop_position","railway":"tram_stop","tram":"yes"}},{"type":"node","id":6563995236,"lat":47.1014394,"lon":37.5546714,"tags":{"name":"Вулиця Євпаторійська","name:en":"Yevpatoriiska Street","name:ru":"Улица Евпаторийская","name:uk":"Вулиця Євпаторійська","public_transport":"stop_position","railway":"tram_stop","tram":"yes"}}]}