{"elements":[{"type":"node","id":32858033,"lat":51.3158871,"lon":9.4981569,"tags":{"name":"Königsplatz","public_transport":"stop_position","railway":"tram_stop","railway:ref":"FKKPL","ref:IFOPT":"de:06611:200002::A","ref_name":"Königsplatz, Kassel","tram":"yes","uic_ref":"80714222","wheelchair":"yes"}},{"type":"node","id":32863162,"lat":51.3126268,"lon":9.4927646,"tags":{"name":"Rathaus","public_transport":"stop_position","railway":"tram_stop","railway:ref":"FKRAT","ref:IFOPT":"de:06611:200003::A","ref_name":"Rathaus, Kassel","tram":"yes","uic_ref":"80712896","wheelchair":"yes"}},{"type":"node","id":32863462,"lat":51.3217273,"lon":9.4497706,"tags":{"bus":"yes","name":"Teichstraße","public_transport":"stop_position","railway":"tram_stop","ref:ibnr":"715872","tram":"yes","wheelchair":"yes","wikidata":"Q114437191"}},{"type":"node","id":32863702,"lat":51.3188293,"lon":9.4562991,"tags":{"name":"Breitscheidstraße","public_transport":"stop_position","railway":"tram_stop","ref:IFOPT":"de:06611:200078::1","tram":"yes","uic_ref":"714116","wheelchair":"yes","wikidata":"Q114437187"}},{"type":"node","id":32863711,"lat":51.3143123,"lon":9.4881566,"tags":{"name":"Ständeplatz","public_transport":"stop_position","railway":"tram_stop","tram":"yes","uic_ref":"80710637","wheelchair":"yes"}},{"type":"node","id":32863713,"lat":51.3125014,"lon":9.4907881,"tags":{"name":"Rathaus/Fünffensterstraße","public_transport":"stop_position","railway":"tram_stop","railway:ref":"FKRFF","ref:IFOPT":"de:06611:200436::2","ref_name":"Rathaus/Fünffensterstraße, Kassel","tram":"yes","uic_ref":"716122","wheelchair":"yes"}},{"type":"node","id":123518359,"lat":51.1470849,"lon":9.561615,"tags":{"name":"Melsungen-Schwarzenberg","network":"Nordhessischer VerkehrsVerbund","network:short":"NVV","operator":"DB InfraGO AG","public_transport":"stop_position","railway":"stop","ref":"1","train":"yes","tram":"yes"}},{"type":"node","id":124393594,"lat":51.4476106,"lon":9.4199608,"tags":{"name":"Grebenstein","operator":"DB Station&Service AG","public_transport":"stop_position","railway":"stop","ref":"1","tram":"yes","wheelchair":"yes"}},{"type":"node","id":124393806,"lat":51.4991576,"lon":9.3954779,"tags":{"name":"Hofgeismar","old_ref":"2","public_transport":"stop_position","ref":"2a","tram":"yes"}},{"type":"node","id":204865379,"lat":51.22982,"lon":9.4673589,"tags":{"name":"Baunatal-Guntershausen","operator":"DB InfraGO AG","public_transport":"stop_position","railway":"stop","ref":"2","train":"yes","tram":"yes"}},{"type":"node","id":206089757,"lat":51.3037204,"lon":9.4839816,"tags":{"name":"Heinrich-Heine-Straße/Universität","public_transport":"stop_position","railway":"tram_stop","railway:ref":"FKNZH","ref":"2","ref:IFOPT":"de:06611:200041::2","ref:ibnr":"714882","tram":"yes","wheelchair":"yes"}},{"type":"node","id":206136496,"lat":51.2889655,"lon":9.4516374,"tags":{"addr:city":"Kassel","addr:postcode":"34134","addr:street":"Heinrich-Schütz-Allee","name":"Heinrich-Schütz-Allee","network":"Nordhessischer VerkehrsVerbund","network:guid":"DE-HE-NVV","network:short":"NVV","network:wikidata":"Q1998056","network:wikipedia":"de:Nordhessischer Verkehrsverbund","public_transport":"stop_position","railway":"tram_stop","ref_name":"Heinrich-Schütz-Allee, Kassel","tram":"yes","uic_ref":"80716145","wheelchair":"yes"}},{"type":"node","id":206136507,"lat":51.2918995,"lon":9.4538457,"tags":{"name":"Helleböhn","network":"Nordhessischer VerkehrsVerbund","network:guid":"DE-HE-NVV","network:short":"NVV","network:wikidata":"Q1998056","network:wikipedia":"de:Nordhessischer Verkehrsverbund","public_transport":"stop_position","railway":"tram_stop","ref_name":"Helleböhn, Kassel","tram":"yes","uic_ref":"80712244","wheelchair":"yes"}},{"type":"node","id":206143050,"lat":51.3093257,"lon":9.5174288,"tags":{"name":"Sandershäuser Straße","public_transport":"stop_position","railway":"tram_stop","ref:ibnr":"712612","ref_name":"Sandershäuser Straße, Kassel","shelter":"yes","tram":"yes","wheelchair":"yes"}},{"type":"node","id":206143059,"lat":51.3058757,"lon":9.5275136,"tags":{"name":"Kirchgasse","public_transport":"stop_position","railway":"tram_stop","railway:ref":"FKBHG","ref_name":"Kirchgasse, Kassel","tram":"yes","uic_ref":"713491","wheelchair":"yes"}},{"type":"node","id":206143063,"lat":51.3038177,"lon":9.5309262,"tags":{"name":"Leipziger Platz","public_transport":"stop_position","railway":"tram_stop","ref_name":"Leipziger Platz, Kassel","tram":"yes","uic_ref":"711002"}},{"type":"node","id":206153501,"lat":51.2951758,"lon":9.5457985,"tags":{"name":"Lindenberg","public_transport":"stop_position","railway":"tram_stop","railway:ref":"FKBHI","ref_name":"Lindenberg, Kassel","tram":"yes","uic_ref":"714811"}},{"type":"node","id":206153506,"lat":51.2945404,"lon":9.5561044,"tags":{"name":"Am Kupferhammer","public_transport":"stop_position","railway":"tram_stop","railway:ref":"FKBHA","ref_name":"Am Kupferhammer, Kassel","tram":"yes","uic_ref":"719498"}},{"type":"node","id":206153515,"lat":51.2890794,"lon":9.5716789,"tags":{"name":"Kaufungen-Niederkaufungen Industriestraße","network":"Nordhessischer VerkehrsVerbund","network:guid":"DE-HE-NVV","network:short":"NVV","network:wikidata":"Q1998056","network:wikipedia":"de:Nordhessischer Verkehrsverbund","public_transport":"stop_position","railway":"tram_stop","tram":"yes"}},{"type":"node","id":206153522,"lat":51.2834555,"lon":9.6006046,"tags":{"name":"Kaufungen-Niederkaufungen Mitte","network":"Nordhessischer VerkehrsVerbund","network:guid":"DE-HE-NVV","network:short":"NVV","network:wikidata":"Q1998056","network:wikipedia":"de:Nordhessischer Verkehrsverbund","public_transport":"stop_position","railway":"tram_stop","tram":"yes","wheelchair":"yes"}},{"type":"node","id":206153531,"lat":51.2845953,"lon":9.6141972,"tags":{"name":"Kaufungen-Niederkaufungen Rieckswiesen","network":"Nordhessischer VerkehrsVerbund","network:guid":"DE-HE-NVV","network:short":"NVV","network:wikidata":"Q1998056","network:wikipedia":"de:Nordhessischer Verkehrsverbund","public_transport":"stop_position","railway":"tram_stop","tram":"yes","wheelchair":"yes"}},{"type":"node","id":206153536,"lat":51.2826252,"lon":9.6195001,"tags":{"name":"Kaufungen-Oberkaufungen Gesamtschule","network":"Nordhessischer VerkehrsVerbund","network:guid":"DE-HE-NVV","network:short":"NVV","network:wikidata":"Q1998056","network:wikipedia":"de:Nordhessischer Verkehrsverbund","public_transport":"stop_position","railway":"tram_stop","tram":"yes"}},{"type":"node","id":206153578,"lat":51.28406,"lon":9.639197,"tags":{"name":"Kaufungen-Oberkaufungen DRK-Klinik","network":"Nordhessischer VerkehrsVerbund","network:guid":"DE-HE-NVV","network:short":"NVV","network:wikidata":"Q1998056","network:wikipedia":"de:Nordhessischer Verkehrsverbund","public_transport":"stop_position","railway":"tram_stop","tram":"yes","wheelchair":"yes"}},{"type":"node","id":206153579,"lat":51.2832423,"lon":9.6392699,"tags":{"name":"Kaufungen-Oberkaufungen DRK-Klinik","network":"Nordhessischer VerkehrsVerbund","network:guid":"DE-HE-NVV","network:short":"NVV","network:wikidata":"Q1998056","network:wikipedia":"de:Nordhessischer Verkehrsverbund","public_transport":"stop_position","railway":"tram_stop","tram":"yes","wheelchair":"yes"}},{"type":"node","id":206358911,"lat":51.3011481,"lon":9.4141399,"tags":{"local_ref":"A","name":"Druseltal","public_transport":"stop_position","railway":"tram_stop","ref:ibnr":"714800","route_ref":"4","tram":"yes","uic_name":"Druseltal, Kassel","wheelchair":"yes"}},{"type":"node","id":207119558,"lat":51.3280446,"lon":9.5302911,"tags":{"name":"Wolfsgraben","network":"Nordhessischer VerkehrsVerbund","network:short":"NVV","network:wikidata":"Q1998056","public_transport":"stop_position","railway":"tram_stop","ref_name":"Wolfsgraben, Kassel","tram":"yes"}},{"type":"node","id":207119566,"lat":51.3278188,"lon":9.5412794,"tags":{"name":"Wolfsanger","public_transport":"stop_position","railway":"tram_stop","ref_name":"Wolfsanger, Kassel","tram":"yes","uic_ref":"714812","wheelchair":"limited"}},{"type":"node","id":207314402,"lat":51.2680773,"lon":9.4355934,"tags":{"name":"Mattenberg Siedlung","public_transport":"stop_position","railway":"tram_stop","ref_name":"Mattenberg-Siedlung, Kassel","tram":"yes","wheelchair":"yes"}},{"type":"node","id":207456422,"lat":51.2794305,"lon":9.4554739,"tags":{"name":"Keilsbergstraße","public_transport":"stop_position","railway":"tram_stop","ref_name":"Keilsbergstraße, Kassel","tram":"yes","uic_ref":"712709","wheelchair":"yes"}},{"type":"node","id":243359733,"lat":51.2527398,"lon":9.4107244,"tags":{"local_ref":"H","name":"Stadtmitte","public_transport":"stop_position","railway":"tram_stop","ref":"H","tram":"yes","wheelchair":"yes"}},{"type":"node","id":243359741,"lat":51.2523876,"lon":9.4028336,"tags":{"name":"Albert-Einstein-Straße","network":"Nordhessischer VerkehrsVerbund","network:guid":"DE-HE-NVV","network:short":"NVV","network:wikidata":"Q1998056","network:wikipedia":"de:Nordhessischer Verkehrsverbund","public_transport":"stop_position","railway":"tram_stop","ref:ibnr":"713058","tram":"yes","wheelchair":"yes"}},{"type":"node","id":243362598,"lat":51.263866,"lon":9.4252464,"tags":{"name":"Baunsberg","network":"Nordhessischer VerkehrsVerbund","network:guid":"DE-HE-NVV","network:short":"NVV","network:wikidata":"Q1998056","network:wikipedia":"de:Nordhessischer Verkehrsverbund","public_transport":"stop_position","railway":"tram_stop","ref_name":"Altenbauna Baunsberg, Baunatal","shelter":"yes","tram":"yes","uic_ref":"710827","wheelchair":"yes"}},{"type":"node","id":243362602,"lat":51.2620976,"lon":9.4261596,"tags":{"name":"VW-Werk","public_transport":"stop_position","railway":"tram_stop","ref_name":"Altenbauna VW Werk, Baunatal","tram":"yes","uic_ref":"80712903","wheelchair":"yes"}},{"type":"node","id":243362607,"lat":51.254792,"lon":9.4202216,"tags":{"name":"Kleingartenverein","network":"Nordhessischer VerkehrsVerbund","network:guid":"DE-HE-NVV","network:short":"NVV","network:wikidata":"Q1998056","network:wikipedia":"de:Nordhessischer Verkehrsverbund","public_transport":"stop_position","railway":"tram_stop","ref_name":"Altenbauna Kleingartenverein, Baunatal","tram":"yes","uic_ref":"80712402","wheelchair":"yes"}},{"type":"node","id":246150904,"lat":51.2806683,"lon":9.4462624,"tags":{"name":"Heinrich-Plett-Straße","network":"Nordhessischer VerkehrsVerbund","network:guid":"DE-HE-NVV","network:short":"NVV","network:wikidata":"Q1998056","network:wikipedia":"de:Nordhessischer Verkehrsverbund","public_transport":"stop_position","railway":"tram_stop","ref_name":"Heinrich-Plett-Straße, Kassel","tram":"yes","uic_ref":"80710311","wheelchair":"yes"}},{"type":"node","id":248755979,"lat":51.3117255,"lon":9.4334157,"tags":{"name":"Christuskirche","public_transport":"stop_position","railway":"tram_stop","ref:ibnr":"715638","tram":"yes","wheelchair":"yes"}},{"type":"node","id":248755999,"lat":51.31151,"lon":9.4407736,"tags":{"name":"Walther-Schücking-Platz","public_transport":"stop_position","railway":"tram_stop","tram":"yes","uic_name":"Walther-Schücking-Platz, Kassel","uic_ref":"80712556","wheelchair":"yes"}},{"type":"node","id":270017860,"lat":51.3125464,"lon":9.4652992,"tags":{"name":"Kirchweg","public_transport":"stop_position","railway":"tram_stop","tram":"yes","uic_name":"Kirchweg, Kassel","uic_ref":"80712008","wheelchair":"yes"}},{"type":"node","id":271053952,"lat":51.3161136,"lon":9.4650115,"tags":{"name":"Bebelplatz","public_transport":"stop_position","railway":"tram_stop","tram":"yes","uic_ref":"80712792","wheelchair":"yes","wikidata":"Q114437182"}},{"type":"node","id":271054391,"lat":51.3148828,"lon":9.4834468,"tags":{"name":"Karthäuserstraße","public_transport":"stop_position","railway":"tram_stop","tram":"yes","wheelchair":"yes"}},{"type":"node","id":271151948,"lat":51.2908337,"lon":9.5633943,"tags":{"local_ref":"B","name":"Kaufungen-Papierfabrik","network":"Nordhessischer VerkehrsVerbund","network:guid":"DE-HE-NVV","network:short":"NVV","network:wikidata":"Q1998056","network:wikipedia":"de:Nordhessischer Verkehrsverbund","note":"FPAPK = Papierfabrik KVG","public_transport":"stop_position","railway":"tram_stop","railway:ref":"FPAPK","ref_name":"Papierfabrik, Kaufungen","tram":"yes","uic_ref":"714299","wheelchair":"yes"}},{"type":"node","id":272807834,"lat":51.3269176,"lon":9.5000042,"tags":{"alt_name":"Philipp-Scheidemann-Haus","name":"Halitplatz","public_transport":"stop_position","railway":"tram_stop","railway:ref":"FKMBS","tram":"yes","wheelchair":"yes","wikidata":"Q114437203"}},{"type":"node","id":272807844,"lat":51.3205021,"lon":9.5020003,"tags":{"bus":"yes","name":"Holländischer Platz/Universität","public_transport":"stop_position","railway":"tram_stop","railway:ref":"FKHPL","tram":"yes","uic_ref":"711363","wheelchair":"yes"}},{"type":"node","id":276088280,"lat":51.2583177,"lon":9.6824839,"tags":{"local_ref":"D","name":"Helsa Bahnhof","network":"Nordhessischer VerkehrsVerbund","network:guid":"DE-HE-NVV","network:short":"NVV","network:wikidata":"Q1998056","network:wikipedia":"de:Nordhessischer Verkehrsverbund","public_transport":"stop_position","railway":"tram_stop","railway:ref":"FHSA","tram":"yes","wheelchair":"yes"}},{"type":"node","id":276088421,"lat":51.2266257,"lon":9.6716814,"tags":{"bench":"yes","bin":"yes","name":"Helsa-Eschenstruth","network":"Nordhessischer VerkehrsVerbund","network:guid":"DE-HE-NVV","network:short":"NVV","network:wikidata":"Q1998056","network:wikipedia":"de:Nordhessischer Verkehrsverbund","public_transport":"stop_position","railway":"tram_stop","shelter":"yes","tactile_paving":"yes","tram":"yes","uic_ref":"103687","wheelchair":"no","wheelchair:description":"Hochbord vorhanden"}},{"type":"node","id":279109027,"lat":51.2857213,"lon":9.6299606,"tags":{"name":"Kaufungen-Oberkaufungen Mitte","public_transport":"stop_position","railway":"tram_stop","tram":"yes"}},{"type":"node","id":303598242,"lat":51.343559,"lon":9.2260071,"tags":{"level":"1","name":"Altenhasungen","operator":"DB RegioNetz Infrastruktur GmbH;Kurhessenbahn","public_transport":"stop_position","railway":"stop","train":"yes","tram":"yes","wheelchair":"yes","wikidata":"Q129176496"}},{"type":"node","id":303598287,"lat":51.3675485,"lon":9.2915478,"tags":{"local_ref":"1","name":"Zierenberg-Rosental","operator":"DB RegioNetz Infrastruktur GmbH;Kurhessenbahn","public_transport":"stop_position","railway":"stop","train":"yes","tram":"yes"}},{"type":"node","id":315767820,"lat":51.3256159,"lon":9.425876,"tags":{"name":"Hessenschanze","public_transport":"stop_position","railway":"tram_stop","tram":"yes","uic_ref":"712455","wheelchair":"yes","wikidata":"Q114437169"}},{"type":"node","id":315767847,"lat":51.3252046,"lon":9.4304503,"tags":{"name":"Prinzenquelle","public_transport":"stop_position","railway":"tram_stop","ref":"713785","tram":"yes","uic_ref":"713785","wheelchair":"yes","wikidata":"Q114437124"}},{"type":"node","id":315767866,"lat":51.3247294,"lon":9.434975,"tags":{"name":"Stahlbergstraße","public_transport":"stop_position","railway":"tram_stop","ref":"712456","tram":"yes","uic_ref":"712456","wheelchair":"yes","wikidata":"Q114437170"}},{"type":"node","id":315767884,"lat":51.3228645,"lon":9.4464395,"tags":{"name":"Kirche Kirchditmold","public_transport":"stop_position","railway":"tram_stop","ref":"713786","tram":"yes","uic_ref":"713786","wheelchair":"limited","wikidata":"Q114437207"}},{"type":"node","id":320683928,"lat":51.316191,"lon":9.4689082,"tags":{"bus":"yes","highway":"bus_stop","name":"Friedenskirche","network":"Nordhessischer VerkehrsVerbund","network:guid":"DE-HE-NVV","network:short":"NVV","network:wikidata":"Q1998056","network:wikipedia":"de:Nordhessischer Verkehrsverbund","public_transport":"stop_position","railway":"tram_stop","ref:ibnr":"715002","tram":"yes","wheelchair":"yes","wikidata":"Q114437096"}},{"type":"node","id":322443473,"lat":51.2099284,"lon":9.7093924,"tags":{"name":"Hessisch Lichtenau Orthopädische Klinik","network":"Nordhessischer VerkehrsVerbund","network:guid":"DE-HE-NVV","network:short":"NVV","network:wikidata":"Q1998056","network:wikipedia":"de:Nordhessischer Verkehrsverbund","public_transport":"stop_position","railway":"tram_stop","shelter":"yes","tram":"yes","wheelchair":"yes"}},{"type":"node","id":325087098,"lat":51.318653,"lon":9.5085003,"tags":{"name":"Katzensprung","network":"Nordhessischer VerkehrsVerbund","network:guid":"DE-HE-NVV","network:short":"NVV","network:wikidata":"Q1998056","network:wikipedia":"de:Nordhessischer Verkehrsverbund","public_transport":"stop_position","railway":"tram_stop","ref:IFOPT":"de:06611:200019::A","ref_name":"Katzensprung, Kassel","shelter":"yes","tram":"yes","uic_ref":"80711179"}},{"type":"node","id":325087099,"lat":51.3230245,"lon":9.5128069,"tags":{"name":"Weserspitze","operator":"Kasseler Verkehrs Gesellschaft AG","public_transport":"stop_position","railway":"tram_stop","ref":"A","ref:IFOPT":"de:06611:200009::A","ref_name":"Weserspitze, Kassel","tram":"yes","uic_ref":"80712454","wheelchair":"yes"}},{"type":"node","id":325087101,"lat":51.3258012,"lon":9.518091,"tags":{"name":"Alte Stadtgrenze","public_transport":"stop_position","railway":"tram_stop","ref_name":"Alte Stadtgrenze, Kassel","tram":"yes"}},{"type":"node","id":325087102,"lat":51.3286821,"lon":9.5235415,"tags":{"name":"Am Fasanenhof","public_transport":"stop_position","railway":"tram_stop","ref_name":"Am Fasanenhof, Kassel","tram":"yes","uic_ref":"711405"}},{"type":"node","id":340365233,"lat":51.3116684,"lon":9.4827982,"tags":{"name":"Weigelstraße","public_transport":"stop_position","railway":"tram_stop","tram":"yes","uic_ref":"80712949","wheelchair":"yes"}},{"type":"node","id":345800626,"lat":51.269702,"lon":9.4386218,"tags":{"name":"Waldmannstraße","network":"Nordhessischer VerkehrsVerbund","network:guid":"DE-HE-NVV","network:short":"NVV","network:wikidata":"Q1998056","network:wikipedia":"de:Nordhessischer Verkehrsverbund","public_transport":"stop_position","railway":"tram_stop","ref_name":"Waldmannstraße, Kassel","tram":"yes","uic_ref":"80712201","wheelchair":"yes"}},{"type":"node","id":345800627,"lat":51.269319,"lon":9.4380332,"tags":{"name":"Waldmannstraße","network":"Nordhessischer VerkehrsVerbund","network:guid":"DE-HE-NVV","network:short":"NVV","network:wikidata":"Q1998056","network:wikipedia":"de:Nordhessischer Verkehrsverbund","public_transport":"stop_position","railway":"tram_stop","ref_name":"Waldmannstraße, Kassel","tram":"yes","uic_ref":"80712201","wheelchair":"yes"}},{"type":"node","id":349919734,"lat":51.2857925,"lon":9.4496255,"tags":{"name":"Korbacher Straße/Universität","public_transport":"stop_position","railway":"tram_stop","ref_name":"Korbacher Straße/Universität, Kassel","tram":"yes","uic_ref":"80716770"}},{"type":"node","id":349919840,"lat":51.2956174,"lon":9.4525578,"tags":{"name":"Rhönplatz","public_transport":"stop_position","railway":"tram_stop","ref_name":"Rhönplatz, Kassel","tram":"yes","uic_ref":"80712689","wheelchair":"yes"}},{"type":"node","id":349919866,"lat":51.2984448,"lon":9.4501241,"tags":{"name":"Süsterfeld","public_transport":"stop_position","railway":"tram_stop","ref_name":"Süsterfeld, Kassel","tram":"yes","uic_ref":"714015","wheelchair":"yes"}},{"type":"node","id":352938516,"lat":51.3081721,"lon":9.4447388,"tags":{"name":"Hasselweg","public_transport":"stop_position","railway":"tram_stop","ref_name":"Hasselweg, Kassel","tram":"yes","uic_ref":"80710091","wheelchair":"yes"}},{"type":"node","id":354425704,"lat":51.3109575,"lon":9.4417358,"tags":{"name":"Walther-Schücking-Platz","public_transport":"stop_position","railway":"tram_stop","ref_name":"Walther-Schücking-Platz, Kassel","tram":"yes","uic_ref":"80712556","wheelchair":"yes"}},{"type":"node","id":354425715,"lat":51.3048446,"lon":9.4455687,"tags":{"name":"Marbachshöhe","network":"Nordhessischer VerkehrsVerbund","network:guid":"DE-HE-NVV","network:short":"NVV","network:wikidata":"Q1998056","network:wikipedia":"de:Nordhessischer Verkehrsverbund","public_transport":"stop_position","railway":"tram_stop","ref_name":"Marbachshöhe, Kassel","tram":"yes","uic_ref":"710504","wheelchair":"yes"}},{"type":"node","id":415099841,"lat":51.2855713,"lon":9.4691263,"tags":{"alt_name":"Märchenviertel","ibnr:name":"Dennhäuser Straße, Kassel","name":"Dennhäuser Straße","public_transport":"stop_position","railway":"tram_stop","ref":"714880","ref_name":"Dennhäuser Straße, Kassel","tram":"yes","uic_ref":"714880","wheelchair":"yes"}},{"type":"node","id":415099907,"lat":51.3163285,"lon":9.5046207,"tags":{"name":"Altmarkt/Regierungspräsidium","network":"Nordhessischer VerkehrsVerbund","network:guid":"DE-HE-NVV","network:short":"NVV","network:wikidata":"Q1998056","network:wikipedia":"de:Nordhessischer Verkehrsverbund","public_transport":"stop_position","railway":"tram_stop","railway:ref":"FKALR","ref:IFOPT":"de:06611:200032::A","ref_name":"Altmarkt/Regierungspräsidium, Kassel","tram":"yes","uic_ref":"712165"}},{"type":"node","id":415099909,"lat":51.318822,"lon":9.4965905,"tags":{"name":"Lutherplatz","public_transport":"stop_position","railway":"tram_stop","railway:ref":"FKLPL","ref_name":"Lutherplatz, Kassel","tram":"yes","uic_ref":"715535","wheelchair":"yes"}},{"type":"node","id":415099915,"lat":51.316072,"lon":9.4923446,"tags":{"name":"Scheidemannplatz","public_transport":"stop_position","railway":"tram_stop","ref:IFOPT":"de:06611:200073::C","ref_name":"Scheidemannplatz, Kassel","tram":"yes","uic_ref":"713679","wheelchair":"yes"}},{"type":"node","id":415099917,"lat":51.3144686,"lon":9.4896878,"tags":{"name":"Wilhelmsstraße/Stadtmuseum","public_transport":"stop_position","railway":"tram_stop","railway:ref":"FKWSM","ref":"B","ref:IFOPT":"de:06611:200055::2","ref:ibnr":"710021","ref_name":"Wilhelmsstraße/Stadtmuseum, Kassel","tram":"yes","wheelchair":"yes"}},{"type":"node","id":415099919,"lat":51.2961319,"lon":9.4791452,"tags":{"name":"Park Schönfeld","network":"Nordhessischer VerkehrsVerbund","network:guid":"DE-HE-NVV","network:short":"NVV","network:wikidata":"Q1998056","network:wikipedia":"de:Nordhessischer Verkehrsverbund","public_transport":"stop_position","railway":"tram_stop","ref_name":"Park Schönfeld, Kassel","tram":"yes","uic_ref":"713122","wheelchair":"yes"}},{"type":"node","id":415099921,"lat":51.2935158,"lon":9.4763353,"tags":{"name":"Bahnhof Niederzwehren","network":"Nordhessischer VerkehrsVerbund","network:guid":"DE-HE-NVV","network:short":"NVV","network:wikidata":"Q1998056","network:wikipedia":"de:Nordhessischer Verkehrsverbund","public_transport":"stop_position","railway":"tram_stop","ref_name":"Bahnhof Niederzwehren, Kassel","tram":"yes","uic_ref":"716781"}},{"type":"node","id":415099923,"lat":51.2903013,"lon":9.4729392,"tags":{"name":"Leuschnerstraße","network":"Nordhessischer VerkehrsVerbund","network:guid":"DE-HE-NVV","network:short":"NVV","network:wikidata":"Q1998056","network:wikipedia":"de:Nordhessischer Verkehrsverbund","public_transport":"stop_position","railway":"tram_stop","ref_name":"Leuschnerstraße, Kassel","tram":"yes","uic_ref":"715763","wheelchair":"yes"}},{"type":"node","id":418060298,"lat":51.3138497,"lon":9.4393667,"tags":{"name":"Kunoldstraße","public_transport":"stop_position","railway":"tram_stop","tram":"yes","uic_ref":"714758","wheelchair":"yes"}},{"type":"node","id":430218453,"lat":51.3157499,"lon":9.4235927,"tags":{"name":"Wilhelmshöhe (Park)","public_transport":"stop_position","railway":"tram_stop","shelter":"yes","tram":"yes","wheelchair":"yes"}},{"type":"node","id":430226656,"lat":51.3101224,"lon":9.4280241,"tags":{"name":"Wigandstraße","public_transport":"stop_position","railway":"tram_stop","tram":"yes","uic_name":"Wigandstraße, Kassel","uic_ref":"80712555","wheelchair":"yes"}},{"type":"node","id":436578798,"lat":51.3110585,"lon":9.5122386,"tags":{"local_ref":"A","name":"Platz der Deutschen Einheit","network":"Nordhessischer VerkehrsVerbund","network:guid":"DE-HE-NVV","network:short":"NVV","network:wikidata":"Q1998056","network:wikipedia":"de:Nordhessischer Verkehrsverbund","public_transport":"stop_position","railway":"tram_stop","railway:ref:DB":"FKPDE","ref_name":"Platz der Deutschen Einheit, Kassel","tram":"yes","uic_ref":"713056","wheelchair":"yes"}},{"type":"node","id":437566361,"lat":51.313236,"lon":9.5094856,"tags":{"name":"Unterneustädter Kirchplatz","public_transport":"stop_position","railway":"tram_stop","railway:ref":"FKUNK","ref_name":"Unterneustädter Kirchplatz, Kassel","tram":"yes","uic_ref":"716135","wheelchair":"yes"}},{"type":"node","id":440615909,"lat":51.3341508,"lon":9.4946174,"tags":{"name":"Wiener Straße","public_transport":"stop_position","railway":"tram_stop","railway:ref":"FKWST","ref_name":"Wiener Straße, Kassel","tram":"yes","uic_ref":"711550","wheelchair":"yes"}},{"type":"node","id":440615910,"lat":51.3368592,"lon":9.490559,"tags":{"name":"Hegelsbergstraße","public_transport":"stop_position","railway":"tram_stop","railway:ref":"FKHBS","ref_name":"Hegelsbergstraße, Kassel","tram":"yes","uic_ref":"710634","wheelchair":"yes","wikidata":"Q114437142"}},{"type":"node","id":443440560,"lat":51.3392004,"lon":9.5170415,"tags":{"name":"Ihringshäuser Straße","public_transport":"stop_position","railway":"tram_stop","ref":"2","ref:ibnr":"711730","ref_name":"Ihringshäuser Straße, Kassel","tram":"yes","wheelchair":"yes","wikidata":"Q114437095"}},{"type":"node","id":443440568,"lat":51.330379,"lon":9.5114126,"tags":{"name":"Simmershäuser Straße","operator":"Kasseler Verkehrs Gesellschaft AG","public_transport":"stop_position","railway":"tram_stop","ref:IFOPT":"de:06611:200026","tram":"yes","uic_name":"Simmershäuser Straße, Kassel","uic_ref":"80711040","wikidata":"Q114437141"}},{"type":"node","id":443440573,"lat":51.3273925,"lon":9.5097954,"tags":{"name":"Klinikum Kassel","operator":"Kasseler Verkehrs Gesellschaft AG","public_transport":"stop_position","railway":"tram_stop","ref:IFOPT":"de:06611:200025::A","tram":"yes","uic_name":"Klinikum Kassel, Kassel","uic_ref":"710487","wheelchair":"yes","wikidata":"Q114437214"}},{"type":"node","id":443440589,"lat":51.3347294,"lon":9.5135059,"tags":{"name":"Koboldstraße","network":"Nordhessischer VerkehrsVerbund","network:guid":"DE-HE-NVV","network:short":"NVV","network:wikidata":"Q1998056","network:wikipedia":"de:Nordhessischer Verkehrsverbund","public_transport":"stop_position","railway":"tram_stop","tram":"yes","wheelchair":"yes","wikidata":"Q114437143"}},{"type":"node","id":443440596,"lat":51.3381093,"lon":9.5156759,"tags":{"name":"Arnimstraße","public_transport":"stop_position","railway":"tram_stop","tram":"yes","uic_ref":"80710122","wheelchair":"yes","wikidata":"Q114437144"}},{"type":"node","id":443440615,"lat":51.3274888,"lon":9.5132556,"tags":{"name":"Kaulbachstraße","public_transport":"stop_position","railway":"tram_stop","ref:IFOPT":"de:06611:200020::B","ref_name":"Kaulbachstraße, Kassel","shelter":"yes","tram":"yes","uic_ref":"711772","wheelchair":"yes","wikidata":"Q114437140"}},{"type":"node","id":444367961,"lat":51.3012166,"lon":9.534966,"tags":{"name":"Leipziger Straße","public_transport":"stop_position","railway":"tram_stop","ref_name":"Leipziger Straße, Kassel","tram":"yes","uic_ref":"710954"}},{"type":"node","id":446290619,"lat":51.3095026,"lon":9.4224316,"tags":{"name":"Brabanter Straße","public_transport":"stop_position","railway":"tram_stop","tram":"yes","uic_name":"Brabanter Straße, Kassel","uic_ref":"80713889"}},{"type":"node","id":451243691,"lat":51.4991725,"lon":9.3956212,"tags":{"name":"Hofgeismar","old_ref":"1","public_transport":"stop_position","ref":"1a","tram":"yes"}},{"type":"node","id":452640226,"lat":51.3305288,"lon":9.498513,"tags":{"name":"Hauptfriedhof","network":"Nordhessischer VerkehrsVerbund","network:guid":"DE-HE-NVV","network:short":"NVV","network:wikidata":"Q1998056","network:wikipedia":"de:Nordhessischer Verkehrsverbund","public_transport":"stop_position","railway":"tram_stop","railway:ref":"FKHFH","tram":"yes","wheelchair":"yes","wikidata":"Q114437138"}},{"type":"node","id":491459711,"lat":51.2126239,"lon":9.6960867,"tags":{"local_ref":"B","name":"Hessisch Lichtenau Bahnhof Fürstenhagen","network":"Nordhessischer VerkehrsVerbund","network:guid":"DE-HE-NVV","network:short":"NVV","network:wikidata":"Q1998056","network:wikipedia":"de:Nordhessischer Verkehrsverbund","public_transport":"stop_position","railway":"tram_stop","tram":"yes"}},{"type":"node","id":534739753,"lat":51.3240721,"lon":9.4393055,"tags":{"name":"Riedwiesen","public_transport":"stop_position","railway":"tram_stop","ref":"715982","tram":"yes","uic_ref":"715982","waste_basket":"yes","wheelchair":"yes","wikidata":"Q114437186"}},{"type":"node","id":559607110,"lat":51.2822194,"lon":9.465017,"tags":{"name":"Brüder-Grimm-Straße","network":"Nordhessischer VerkehrsVerbund","network:guid":"DE-HE-NVV","network:short":"NVV","network:wikidata":"Q1998056","network:wikipedia":"de:Nordhessischer Verkehrsverbund","public_transport":"stop_position","railway":"tram_stop","ref_name":"Brüder-Grimm-Straße, Kassel","tram":"yes","uic_ref":"714005"}},{"type":"node","id":571197730,"lat":51.2985837,"lon":9.5381519,"tags":{"name":"Forstfeldstraße","network":"Nordhessischer VerkehrsVerbund","network:guid":"DE-HE-NVV","network:short":"NVV","network:wikidata":"Q1998056","network:wikipedia":"de:Nordhessischer Verkehrsverbund","public_transport":"stop_position","railway":"tram_stop","railway:ref":"FKBHF","ref_name":"Forstfeldstraße, Kassel","tram":"yes","uic_ref":"716134","wheelchair":"yes"}},{"type":"node","id":582804763,"lat":51.3143379,"lon":9.4313499,"tags":{"name":"Hessischer Rundfunk","public_transport":"stop_position","railway":"tram_stop","shelter":"yes","tram":"yes","uic_ref":"713434","wheelchair":"yes"}},{"type":"node","id":603236425,"lat":51.2043756,"lon":9.4820373,"tags":{"name":"Guxhagen","operator":"DB InfraGO AG","public_transport":"stop_position","railway":"stop","ref":"1","train":"yes","tram":"yes"}},{"type":"node","id":603236429,"lat":51.2549191,"lon":9.468691,"tags":{"name":"Baunatal-Rengershausen","operator":"DB Station&Service AG","public_transport":"stop_position","railway":"stop","ref":"1","train":"yes","tram":"yes"}},{"type":"node","id":603236431,"lat":51.2765726,"lon":9.4541734,"tags":{"name":"Kassel-Oberzwehren","operator":"DB Station&Service AG","public_transport":"stop_position","railway":"stop","ref":"1","train":"yes","tram":"yes"}},{"type":"node","id":603236437,"lat":51.1260655,"lon":9.5462734,"tags":{"name":"Melsungen","operator":"DB InfraGO AG","public_transport":"stop_position","railway":"stop","ref":"2","train":"yes","tram":"yes"}},{"type":"node","id":603236449,"lat":51.1545087,"lon":9.5491602,"tags":{"local_ref":"2","name":"Melsungen-Röhrenfurth","operator":"DB Station&Service AG","public_transport":"stop_position","railway":"stop","train":"yes","tram":"yes"}},{"type":"node","id":610928979,"lat":51.3152628,"lon":9.4275805,"tags":{"name":"Kurhessen-Therme","public_transport":"stop_position","railway":"tram_stop","shelter":"no","tram":"yes","wheelchair":"yes"}},{"type":"node","id":625881252,"lat":51.272689,"lon":9.4421388,"tags":{"name":"Mattenberg","network":"Nordhessischer VerkehrsVerbund","network:guid":"DE-HE-NVV","network:short":"NVV","network:wikidata":"Q1998056","network:wikipedia":"de:Nordhessischer Verkehrsverbund","public_transport":"stop_position","railway":"tram_stop","ref_name":"Mattenberg, Kassel","tram":"yes","uic_ref":"80715589","wheelchair":"yes"}},{"type":"node","id":648843440,"lat":51.3656992,"lon":9.4694541,"tags":{"name":"Nordstraße","public_transport":"stop_position","railway":"tram_stop","ref_name":"Nordstraße, Vellmar","tram":"yes","uic_ref":"711390","wheelchair":"yes"}},{"type":"node","id":648843451,"lat":51.3719241,"lon":9.4722869,"tags":{"name":"Vellmar Nord","public_transport":"stop_position","railway":"tram_stop","ref_name":"Vellmar Nord, Vellmar","tram":"yes","uic_ref":"711438","wheelchair":"yes","wikidata":"Q114437094"}},{"type":"node","id":732024049,"lat":51.2778267,"lon":9.4482396,"tags":{"name":"Oberzwehren Mitte","public_transport":"stop_position","railway":"tram_stop","ref_name":"Oberzwehren Mitte, Kassel","tram":"yes","uic_ref":"80713836","wheelchair":"yes"}},{"type":"node","id":732024115,"lat":51.1989044,"lon":9.7213352,"tags":{"bench":"yes","bin":"yes","highway":"platform","name":"Hessisch Lichtenau Stadtmitte","network":"Nordhessischer VerkehrsVerbund","network:guid":"DE-HE-NVV","network:short":"NVV","network:wikidata":"Q1998056","network:wikipedia":"de:Nordhessischer Verkehrsverbund","public_transport":"stop_position","railway":"tram_stop","shelter":"yes","tactile_paving":"yes","tram":"yes","wheelchair":"yes","wheelchair:description":"Kasseler Bord vorhanden"}},{"type":"node","id":732024150,"lat":51.1960145,"lon":9.7167299,"tags":{"name":"Hessisch Lichtenau Bürgerhaus","network":"Nordhessischer VerkehrsVerbund","network:guid":"DE-HE-NVV","network:short":"NVV","network:wikidata":"Q1998056","network:wikipedia":"de:Nordhessischer Verkehrsverbund","public_transport":"stop_position","railway":"tram_stop","shelter":"yes","tram":"yes","wheelchair":"yes"}},{"type":"node","id":732024167,"lat":51.2744363,"lon":9.4451811,"tags":{"name":"Altenbaunaer Straße","network":"Nordhessischer VerkehrsVerbund","network:guid":"DE-HE-NVV","network:short":"NVV","network:wikidata":"Q1998056","network:wikipedia":"de:Nordhessischer Verkehrsverbund","public_transport":"stop_position","railway":"tram_stop","ref_name":"Altenbaunaer Straße, Kassel","tram":"yes","uic_ref":"80711781","wheelchair":"yes"}},{"type":"node","id":732024187,"lat":51.3143033,"lon":9.4955373,"tags":{"name":"Friedrichsplatz","public_transport":"stop_position","railway":"tram_stop","railway:ref":"FKFPL","ref:IFOPT":"de:06611:200006::A","tram":"yes","uic_name":"Friedrichsplatz, Kassel","uic_ref":"80712894","wheelchair":"yes"}},{"type":"node","id":732024193,"lat":51.203757,"lon":9.7209206,"tags":{"name":"Hessisch Lichtenau Im Tal","network":"Nordhessischer VerkehrsVerbund","network:guid":"DE-HE-NVV","network:short":"NVV","network:wikidata":"Q1998056","network:wikipedia":"de:Nordhessischer Verkehrsverbund","public_transport":"stop_position","railway":"tram_stop","tram":"yes","wheelchair":"yes"}},{"type":"node","id":734778770,"lat":51.3326634,"lon":9.4523631,"tags":{"local_ref":"1","name":"Kassel-Harleshausen","operator":"DB InfraGO AG","public_transport":"stop_position","railway":"stop","tram":"yes","wheelchair":"no","wikidata":"Q114437084"}},{"type":"node","id":734781329,"lat":51.3131401,"lon":9.4474537,"tags":{"name":"Bahnhof Wilhelmshöhe","public_transport":"stop_position","railway":"tram_stop","ref":"E","ref:IFOPT":"de:06611:200007::3","ref:ibnr":"715536","tram":"yes","wheelchair":"yes"}},{"type":"node","id":737913460,"lat":51.3350241,"lon":9.5135558,"tags":{"name":"Koboldstraße","network":"Nordhessischer VerkehrsVerbund","network:guid":"DE-HE-NVV","network:short":"NVV","network:wikidata":"Q1998056","network:wikipedia":"de:Nordhessischer Verkehrsverbund","public_transport":"stop_position","railway":"tram_stop","tram":"yes","wheelchair":"yes","wikidata":"Q114437143"}},{"type":"node","id":737913482,"lat":51.3277013,"lon":9.5133019,"tags":{"name":"Kaulbachstraße","public_transport":"stop_position","railway":"tram_stop","ref:IFOPT":"de:06611:200020::A","ref_name":"Kaulbachstraße, Kassel","shelter":"yes","tram":"yes","uic_ref":"711772","wheelchair":"yes","wikidata":"Q114437140"}},{"type":"node","id":737913515,"lat":51.3153519,"lon":9.4791941,"tags":{"name":"Annastraße","public_transport":"stop_position","railway":"tram_stop","tram":"yes","wheelchair":"yes"}},{"type":"node","id":737913520,"lat":51.3381919,"lon":9.5157967,"tags":{"name":"Arnimstraße","public_transport":"stop_position","railway":"tram_stop","tram":"yes","uic_ref":"80710122","wheelchair":"yes","wikidata":"Q114437144"}},{"type":"node","id":737913542,"lat":51.3252144,"lon":9.5096666,"tags":{"name":"Mittelring","operator":"Kasseler Verkehrs Gesellschaft AG","public_transport":"stop_position","railway":"tram_stop","ref_name":"Mittelring, Kassel","tram":"yes","uic_ref":"80710680","wheelchair":"no","wikidata":"Q114437226"}},{"type":"node","id":737913569,"lat":51.3313104,"lon":9.5133928,"tags":{"name":"Eisenschmiede","operator":"Kasseler Verkehrs Gesellschaft AG","public_transport":"stop_position","railway":"tram_stop","ref:IFOPT":"de:06611:200021::E","shelter":"yes","tram":"yes","wheelchair":"yes"}},{"type":"node","id":766094482,"lat":51.3310205,"lon":9.5133387,"tags":{"name":"Eisenschmiede","operator":"Kasseler Verkehrs Gesellschaft AG","public_transport":"stop_position","railway":"tram_stop","ref:IFOPT":"de:06611:200021::F","shelter":"yes","tram":"yes","wheelchair":"yes","wikidata":"Q114437190"}},{"type":"node","id":777697983,"lat":51.3183093,"lon":9.500415,"tags":{"name":"Am Stern","public_transport":"stop_position","railway":"tram_stop","railway:ref":"FKASH","ref:IFOPT":"de:06611:200004::C","ref_name":"Am Stern, Kassel","tram":"yes","wheelchair":"yes"}},{"type":"node","id":1018525150,"lat":51.2870982,"lon":9.6365238,"tags":{"local_ref":"A","name":"Kaufungen-Oberkaufungen Bahnhof","network":"Nordhessischer VerkehrsVerbund","network:guid":"DE-HE-NVV","network:short":"NVV","network:wikidata":"Q1998056","network:wikipedia":"de:Nordhessischer Verkehrsverbund","public_transport":"stop_position","railway":"tram_stop","railway:ref":"FOKN","ref:DHID":"de:06633:203478::1","ref_name":"Kaufungen-Oberkaufungen Bahnhof","tram":"yes"}},{"type":"node","id":1024767494,"lat":51.3908008,"lon":9.4555596,"tags":{"name":"Espenau-Mönchehof","public_transport":"stop_position","railway":"tram_stop","tram":"yes"}},{"type":"node","id":1195468402,"lat":51.3178921,"lon":9.5008971,"tags":{"highway":"bus_stop","name":"Am Stern","network":"Nordhessischer VerkehrsVerbund","network:guid":"DE-HE-NVV","network:short":"NVV","network:wikidata":"Q1998056","network:wikipedia":"de:Nordhessischer Verkehrsverbund","public_transport":"stop_position","railway":"tram_stop","railway:ref":"FKASA","ref:IFOPT":"de:06611:200004::B","ref_name":"Am Stern, Kassel","tram":"yes","wheelchair":"yes"}},{"type":"node","id":1203496405,"lat":51.2549268,"lon":9.4686344,"tags":{"name":"Baunatal-Rengershausen","operator":"DB Station&Service AG","public_transport":"stop_position","railway":"stop","ref":"2","train":"yes","tram":"yes"}},{"type":"node","id":1203496528,"lat":51.2298333,"lon":9.4674372,"tags":{"name":"Baunatal-Guntershausen","operator":"DB InfraGO AG","public_transport":"stop_position","railway":"stop","ref":"1","train":"yes","tram":"yes"}},{"type":"node","id":1203595656,"lat":51.1260852,"lon":9.5462281,"tags":{"name":"Melsungen","operator":"DB InfraGO AG","public_transport":"stop_position","railway":"stop","ref":"1","train":"yes","tram":"yes"}},{"type":"node","id":1203597138,"lat":51.2043173,"lon":9.4819512,"tags":{"name":"Guxhagen","operator":"DB InfraGO AG","public_transport":"stop_position","railway":"stop","ref":"2","train":"yes","tram":"yes"}},{"type":"node","id":1203598732,"lat":51.1542268,"lon":9.5468617,"tags":{"local_ref":"2","name":"Melsungen-Röhrenfurth","operator":"DB Station&Service AG","public_transport":"stop_position","railway":"stop","train":"yes","tram":"yes"}},{"type":"node","id":1252632733,"lat":51.4476415,"lon":9.4201812,"tags":{"name":"Grebenstein","operator":"DB Station&Service AG","public_transport":"stop_position","railway":"stop","ref":"3","train":"yes","tram":"yes","wheelchair":"no"}},{"type":"node","id":1252665436,"lat":51.4276446,"lon":9.4642494,"tags":{"name":"Immenhausen","public_transport":"stop_position","railway":"halt","train":"yes","tram":"yes"}},{"type":"node","id":1277449540,"lat":51.3181609,"lon":9.4997751,"tags":{"name":"Am Stern","network":"Nordhessischer VerkehrsVerbund","network:guid":"DE-HE-NVV","network:short":"NVV","network:wikidata":"Q1998056","network:wikipedia":"de:Nordhessischer Verkehrsverbund","public_transport":"stop_position","railway":"tram_stop","railway:ref":"FKASL","ref:IFOPT":"de:06611:200004::D","ref_name":"Am Stern, Kassel","tram":"yes","uic_ref":"715108","wheelchair":"yes"}},{"type":"node","id":1340738998,"lat":51.3485484,"lon":9.4721908,"tags":{"name":"Triftstraße","network":"Nordhessischer VerkehrsVerbund","network:guid":"DE-HE-NVV","network:short":"NVV","network:wikidata":"Q1998056","network:wikipedia":"de:Nordhessischer Verkehrsverbund","public_transport":"stop_position","railway":"tram_stop","ref_name":"Niedervellmar Triftstraße, Vellmar","tram":"yes","uic_ref":"711443","wheelchair":"yes","wikidata":"Q114437091"}},{"type":"node","id":1340738999,"lat":51.3449553,"lon":9.4762243,"tags":{"name":"Berliner Straße","public_transport":"stop_position","railway":"tram_stop","ref_name":"Berliner Straße, Kassel","tram":"yes","uic_ref":"711442","wheelchair":"yes","wikidata":"Q114437090"}},{"type":"node","id":1377137669,"lat":51.3610877,"lon":9.4693066,"tags":{"name":"Stadtmitte","public_transport":"stop_position","railway":"tram_stop","ref:ibnr":"716117","tram":"yes","wheelchair":"yes"}},{"type":"node","id":1377137670,"lat":51.3526511,"lon":9.4684365,"tags":{"name":"Dörnbergstraße","network":"Nordhessischer VerkehrsVerbund","network:guid":"DE-HE-NVV","network:short":"NVV","network:wikidata":"Q1998056","network:wikipedia":"de:Nordhessischer Verkehrsverbund","public_transport":"stop_position","railway":"tram_stop","ref_name":"Niedervellmar Dörnbergstr., Vellmar","tram":"yes","uic_ref":"715717","wheelchair":"yes","wikidata":"Q114437102"}},{"type":"node","id":1377137672,"lat":51.3575877,"lon":9.4676252,"tags":{"name":"Festplatz","public_transport":"stop_position","railway":"tram_stop","tram":"yes","uic_ref":"712486","wheelchair":"yes","wikidata":"Q114437147"}},{"type":"node","id":1380484414,"lat":51.2993572,"lon":9.4814453,"tags":{"bus":"yes","ibnr:name":"Auestadion, Kassel","name":"Auestadion","network":"Nordhessischer VerkehrsVerbund","network:guid":"DE-HE-NVV","network:short":"NVV","network:wikidata":"Q1998056","network:wikipedia":"de:Nordhessischer Verkehrsverbund","public_transport":"stop_position","railway":"tram_stop","railway:ref":"FKNZA","ref":"B","ref:ibnr":"714006","ref_name":"Auestadion, Kassel","shelter":"yes","tram":"yes","wheelchair":"yes"}},{"type":"node","id":1380615238,"lat":51.2987686,"lon":9.4810782,"tags":{"bus":"yes","ibnr:name":"Auestadion, Kassel","name":"Auestadion","network":"Nordhessischer VerkehrsVerbund","network:guid":"DE-HE-NVV","network:short":"NVV","network:wikidata":"Q1998056","network:wikipedia":"de:Nordhessischer Verkehrsverbund","public_transport":"stop_position","railway":"tram_stop","railway:ref":"FKNZA","ref":"A","ref:IFOPT":"de:06611:200042::1","ref:ibnr":"714006","ref_name":"Auestadion, Kassel","shelter":"yes","tram":"yes","wheelchair":"yes"}},{"type":"node","id":1476566552,"lat":51.3688683,"lon":9.4708818,"tags":{"name":"Musikerviertel","public_transport":"stop_position","railway":"tram_stop","ref_name":"Musikerviertel, Vellmar","tram":"yes","uic_ref":"711444","wheelchair":"yes","wikidata":"Q114437149"}},{"type":"node","id":1610357830,"lat":51.2528089,"lon":9.4116001,"tags":{"local_ref":"G","name":"Stadtmitte","public_transport":"stop_position","railway":"tram_stop","ref":"G","ref_name":"Altenbauna Stadtmitte, Baunatal","tram":"yes","wheelchair":"yes"}},{"type":"node","id":1610360027,"lat":51.2522671,"lon":9.3906606,"tags":{"alt_name":"Bahnhof Großenritte","name":"Großenritte Bahnhof","network":"Nordhessischer VerkehrsVerbund","network:guid":"DE-HE-NVV","network:short":"NVV","network:wikidata":"Q1998056","network:wikipedia":"de:Nordhessischer Verkehrsverbund","public_transport":"stop_position","railway":"tram_stop","tram":"yes","wheelchair":"limited"}},{"type":"node","id":1694587220,"lat":51.3160851,"lon":9.465012,"tags":{"name":"Bebelplatz","public_transport":"stop_position","railway":"tram_stop","tram":"yes","uic_ref":"80712792","wheelchair":"yes","wikidata":"Q114437182"}},{"type":"node","id":1697640307,"lat":51.3161468,"lon":9.4689799,"tags":{"name":"Friedenskirche","public_transport":"stop_position","railway":"tram_stop","ref:ibnr":"715002","tram":"yes","wheelchair":"yes","wikidata":"Q114437096"}},{"type":"node","id":1697655402,"lat":51.3158796,"lon":9.4731492,"tags":{"name":"Querallee","public_transport":"stop_position","railway":"tram_stop","tram":"yes","uic_ref":"80711077","wheelchair":"yes","wikidata":"Q114437183"}},{"type":"node","id":1697655478,"lat":51.3158229,"lon":9.4740627,"tags":{"name":"Querallee","public_transport":"stop_position","railway":"tram_stop","tram":"yes","uic_ref":"80711077","wheelchair":"yes"}},{"type":"node","id":1736177959,"lat":51.3060572,"lon":9.5266756,"tags":{"name":"Kirchgasse","public_transport":"stop_position","railway":"tram_stop","railway:ref":"FKBHG","ref_name":"Kirchgasse, Kassel","tram":"yes","wheelchair":"yes"}},{"type":"node","id":1773738584,"lat":51.203891,"lon":9.7208508,"tags":{"name":"Hessisch Lichtenau Im Tal","network":"Nordhessischer VerkehrsVerbund","network:guid":"DE-HE-NVV","network:short":"NVV","network:wikidata":"Q1998056","network:wikipedia":"de:Nordhessischer Verkehrsverbund","public_transport":"stop_position","railway":"tram_stop","tram":"yes","wheelchair":"yes"}},{"type":"node","id":1773805626,"lat":51.2269379,"lon":9.6718886,"tags":{"bench":"yes","bin":"yes","name":"Helsa-Eschenstruth","network":"Nordhessischer VerkehrsVerbund","network:guid":"DE-HE-NVV","network:short":"NVV","network:wikidata":"Q1998056","network:wikipedia":"de:Nordhessischer Verkehrsverbund","public_transport":"stop_position","railway":"tram_stop","shelter":"yes","tactile_paving":"yes","tram":"yes","uic_ref":"103687","wheelchair:description":"Hochbord vorhanden"}},{"type":"node","id":1773805630,"lat":51.2128088,"lon":9.6955911,"tags":{"local_ref":"C","name":"Hessisch Lichtenau Bahnhof Fürstenhagen","network":"Nordhessischer VerkehrsVerbund","network:guid":"DE-HE-NVV","network:short":"NVV","network:wikidata":"Q1998056","network:wikipedia":"de:Nordhessischer Verkehrsverbund","public_transport":"stop_position","railway":"tram_stop","tram":"yes"}},{"type":"node","id":1904857464,"lat":51.3160863,"lon":9.4608034,"tags":{"name":"Kongress-Palais/Stadthalle","public_transport":"stop_position","railway":"tram_stop","tram":"yes","uic_ref":"80715980","wheelchair":"yes","wikidata":"Q114437232"}},{"type":"node","id":1904857469,"lat":51.3161183,"lon":9.4608036,"tags":{"name":"Kongress-Palais/Stadthalle","public_transport":"stop_position","railway":"tram_stop","tram":"yes","uic_ref":"80715980","wheelchair":"yes","wikidata":"Q114437232"}},{"type":"node","id":1904857591,"lat":51.3158268,"lon":9.4549705,"tags":{"name":"Wintershall","public_transport":"stop_position","railway":"tram_stop","tram":"yes","uic_name":"Wintershall, Kassel","uic_ref":"80713330","wheelchair":"yes","wikidata":"Q114437233"}},{"type":"node","id":1904857596,"lat":51.3161173,"lon":9.4564497,"tags":{"name":"Wintershall","public_transport":"stop_position","railway":"tram_stop","tram":"yes","uic_name":"Wintershall, Kassel","uic_ref":"80713330","wheelchair":"yes"}},{"type":"node","id":1911814301,"lat":51.318284,"lon":9.4607993,"tags":{"name":"Aschrottstraße","public_transport":"stop_position","railway":"tram_stop","tram":"yes","uic_ref":"712347","wheelchair":"yes","wikidata":"Q114437131"}},{"type":"node","id":1911918289,"lat":51.3131634,"lon":9.4527773,"tags":{"name":"Rotes Kreuz","network":"Nordhessischer VerkehrsVerbund","network:short":"NVV","network:wikidata":"Q1998056","public_transport":"stop_position","railway":"tram_stop","ref_name":"Rotes Kreuz, Kassel","tram":"yes","uic_ref":"80715158","wheelchair":"yes"}},{"type":"node","id":1911952849,"lat":51.3120969,"lon":9.4743634,"tags":{"name":"Murhardstraße/Universität","public_transport":"stop_position","railway":"tram_stop","tram":"yes","uic_ref":"80713384","wheelchair":"yes"}},{"type":"node","id":1912207932,"lat":51.3129807,"lon":9.457001,"tags":{"name":"Berlepschstraße","public_transport":"stop_position","railway":"tram_stop","ref_name":"Berlepschstraße, Kassel","tram":"yes","uic_ref":"80715588","wheelchair":"yes"}},{"type":"node","id":1912207933,"lat":51.3125935,"lon":9.464866,"tags":{"name":"Kirchweg","public_transport":"stop_position","railway":"tram_stop","tram":"yes","uic_name":"Kirchweg, Kassel","uic_ref":"80712008","wheelchair":"yes"}},{"type":"node","id":1912207934,"lat":51.3121299,"lon":9.4741842,"tags":{"name":"Murhardstraße/Universität","public_transport":"stop_position","railway":"tram_stop","tram":"yes","uic_ref":"80713384","wheelchair":"yes"}},{"type":"node","id":1912207975,"lat":51.3132216,"lon":9.4521679,"tags":{"name":"Rotes Kreuz","network":"Nordhessischer VerkehrsVerbund","network:short":"NVV","network:wikidata":"Q1998056","public_transport":"stop_position","railway":"tram_stop","ref_name":"Rotes Kreuz, Kassel","tram":"yes","uic_ref":"80715158","wheelchair":"yes"}},{"type":"node","id":1947267582,"lat":51.3117038,"lon":9.4826168,"tags":{"name":"Weigelstraße","public_transport":"stop_position","railway":"tram_stop","tram":"yes","uic_ref":"80712949","wheelchair":"yes"}},{"type":"node","id":1958895452,"lat":51.3137871,"lon":9.4946132,"tags":{"name":"Friedrichsplatz","public_transport":"stop_position","railway":"tram_stop","railway:ref":"FKFPL","ref:IFOPT":"de:06611:200006::B","tram":"yes","uic_name":"Friedrichsplatz, Kassel","uic_ref":"80712894","wheelchair":"yes"}},{"type":"node","id":1958895502,"lat":51.3156213,"lon":9.4976449,"tags":{"name":"Königsplatz","public_transport":"stop_position","railway":"tram_stop","railway:ref":"FKKPL","ref:IFOPT":"de:06611:200002::B","ref_name":"Königsplatz, Kassel","tram":"yes","uic_ref":"80714222","wheelchair":"yes"}},{"type":"node","id":1958996818,"lat":51.3074365,"lon":9.4880388,"tags":{"name":"Am Weinberg","public_transport":"stop_position","railway":"tram_stop","railway:ref":"FKNZW","ref:IFOPT":"de:06611:200040::1","tram":"yes","uic_ref":"712236","wheelchair":"yes"}},{"type":"node","id":1960054158,"lat":51.3150719,"lon":9.4272325,"tags":{"name":"Kurhessen-Therme","public_transport":"stop_position","railway":"tram_stop","shelter":"yes","tram":"yes","wheelchair":"yes"}},{"type":"node","id":1960754990,"lat":51.3137697,"lon":9.4404264,"tags":{"name":"Kunoldstraße","public_transport":"stop_position","railway":"tram_stop","tram":"yes","uic_ref":"714758","wheelchair":"yes"}},{"type":"node","id":1962534458,"lat":51.264105,"lon":9.4256427,"tags":{"name":"Baunsberg","network":"Nordhessischer VerkehrsVerbund","network:guid":"DE-HE-NVV","network:short":"NVV","network:wikidata":"Q1998056","network:wikipedia":"de:Nordhessischer Verkehrsverbund","public_transport":"stop_position","railway":"tram_stop","ref_name":"Altenbauna Baunsberg, Baunatal","shelter":"yes","tram":"yes","uic_ref":"710827","wheelchair":"yes"}},{"type":"node","id":1962638495,"lat":51.2683014,"lon":9.4360048,"tags":{"name":"Mattenberg Siedlung","public_transport":"stop_position","railway":"tram_stop","ref_name":"Mattenberg-Siedlung, Kassel","tram":"yes","wheelchair":"yes"}},{"type":"node","id":1963769161,"lat":51.2769649,"lon":9.4478945,"tags":{"name":"Oberzwehren Mitte","public_transport":"stop_position","railway":"tram_stop","ref_name":"Oberzwehren Mitte, Kassel","tram":"yes","uic_ref":"80713836","wheelchair":"yes"}},{"type":"node","id":1963769162,"lat":51.2776642,"lon":9.4493161,"tags":{"name":"Oberzwehren Mitte","public_transport":"stop_position","railway":"tram_stop","ref_name":"Oberzwehren Mitte, Kassel","tram":"yes","uic_ref":"80713836","wheelchair":"yes"}},{"type":"node","id":1964690026,"lat":51.2794655,"lon":9.455486,"tags":{"name":"Keilsbergstraße","public_transport":"stop_position","railway":"tram_stop","ref_name":"Keilsbergstraße, Kassel","tram":"yes","uic_ref":"712709"}},{"type":"node","id":1964806807,"lat":51.2821463,"lon":9.4645481,"tags":{"name":"Brüder-Grimm-Straße","network":"Nordhessischer VerkehrsVerbund","network:guid":"DE-HE-NVV","network:short":"NVV","network:wikidata":"Q1998056","network:wikipedia":"de:Nordhessischer Verkehrsverbund","public_transport":"stop_position","railway":"tram_stop","ref_name":"Brüder-Grimm-Straße, Kassel","tram":"yes","uic_ref":"714005"}},{"type":"node","id":1964806925,"lat":51.2848447,"lon":9.4691117,"tags":{"alt_name":"Märchenviertel","ibnr:name":"Dennhäuser Straße, Kassel","name":"Dennhäuser Straße","public_transport":"stop_position","railway":"tram_stop","ref":"714880","ref_name":"Dennhäuser Straße, Kassel","tram":"yes","uic_ref":"714880","wheelchair":"yes"}},{"type":"node","id":1964919793,"lat":51.2933678,"lon":9.4761119,"tags":{"name":"Bahnhof Niederzwehren","network":"Nordhessischer VerkehrsVerbund","network:guid":"DE-HE-NVV","network:short":"NVV","network:wikidata":"Q1998056","network:wikipedia":"de:Nordhessischer Verkehrsverbund","public_transport":"stop_position","railway":"tram_stop","ref_name":"Bahnhof Niederzwehren, Kassel","tram":"yes","uic_ref":"716781","wheelchair":"yes"}},{"type":"node","id":1964919796,"lat":51.2959838,"lon":9.4789715,"tags":{"name":"Park Schönfeld","network":"Nordhessischer VerkehrsVerbund","network:guid":"DE-HE-NVV","network:short":"NVV","network:wikidata":"Q1998056","network:wikipedia":"de:Nordhessischer Verkehrsverbund","public_transport":"stop_position","railway":"tram_stop","ref_name":"Park Schönfeld, Kassel","tram":"yes","uic_ref":"713122","wheelchair":"yes"}},{"type":"node","id":1965119736,"lat":51.2517183,"lon":9.3966488,"tags":{"name":"Hünstein","public_transport":"stop_position","railway":"tram_stop","ref_name":"Hünstein, Baunatal","tram":"yes","uic_ref":"80712405","wheelchair":"yes"}},{"type":"node","id":1965119740,"lat":51.2523105,"lon":9.390898,"tags":{"alt_name":"Bahnhof Großenritte","name":"Großenritte Bahnhof","network":"Nordhessischer VerkehrsVerbund","network:guid":"DE-HE-NVV","network:short":"NVV","network:wikidata":"Q1998056","network:wikipedia":"de:Nordhessischer Verkehrsverbund","public_transport":"stop_position","railway":"tram_stop","tram":"yes","wheelchair":"limited"}},{"type":"node","id":1965119911,"lat":51.2548029,"lon":9.4202929,"tags":{"name":"Kleingartenverein","network":"Nordhessischer VerkehrsVerbund","network:guid":"DE-HE-NVV","network:short":"NVV","network:wikidata":"Q1998056","network:wikipedia":"de:Nordhessischer Verkehrsverbund","public_transport":"stop_position","railway":"tram_stop","ref_name":"Altenbauna Kleingartenverein, Baunatal","tram":"yes","uic_ref":"80712402","wheelchair":"yes"}},{"type":"node","id":1965702169,"lat":51.3020362,"lon":9.4480531,"tags":{"name":"Helleböhnweg","network":"Nordhessischer VerkehrsVerbund","network:guid":"DE-HE-NVV","network:short":"NVV","network:wikidata":"Q1998056","network:wikipedia":"de:Nordhessischer Verkehrsverbund","public_transport":"stop_position","railway":"tram_stop","ref_name":"Helleböhnweg, Kassel","tram":"yes","uic_ref":"714895","wheelchair":"yes"}},{"type":"node","id":1965765803,"lat":51.3080855,"lon":9.4447471,"tags":{"name":"Hasselweg","public_transport":"stop_position","railway":"tram_stop","ref_name":"Hasselweg, Kassel","tram":"yes","uic_ref":"80710091","wheelchair":"yes"}},{"type":"node","id":1965765808,"lat":51.2889237,"lon":9.4515011,"tags":{"name":"Heinrich-Schütz-Allee","network":"Nordhessischer VerkehrsVerbund","network:guid":"DE-HE-NVV","network:short":"NVV","network:wikidata":"Q1998056","network:wikipedia":"de:Nordhessischer Verkehrsverbund","public_transport":"stop_position","railway":"tram_stop","ref_name":"Heinrich-Schütz-Allee, Kassel","tram":"yes","uic_ref":"80716145","wheelchair":"yes"}},{"type":"node","id":1965765812,"lat":51.2917829,"lon":9.4537694,"tags":{"name":"Helleböhn","network":"Nordhessischer VerkehrsVerbund","network:guid":"DE-HE-NVV","network:short":"NVV","network:wikidata":"Q1998056","network:wikipedia":"de:Nordhessischer Verkehrsverbund","public_transport":"stop_position","railway":"tram_stop","ref_name":"Helleböhn, Kassel","tram":"yes","uic_ref":"80712244","wheelchair":"yes"}},{"type":"node","id":1965765820,"lat":51.3019176,"lon":9.4480871,"tags":{"name":"Helleböhnweg","network":"Nordhessischer VerkehrsVerbund","network:guid":"DE-HE-NVV","network:short":"NVV","network:wikidata":"Q1998056","network:wikipedia":"de:Nordhessischer Verkehrsverbund","public_transport":"stop_position","railway":"tram_stop","ref_name":"Helleböhnweg, Kassel","tram":"yes","uic_ref":"714895","wheelchair":"yes"}},{"type":"node","id":1965765824,"lat":51.2857475,"lon":9.4495353,"tags":{"name":"Korbacher Straße/Universität","public_transport":"stop_position","railway":"tram_stop","ref_name":"Korbacher Straße/Universität, Kassel","tram":"yes","uic_ref":"80716770"}},{"type":"node","id":1965765826,"lat":51.3048182,"lon":9.4455279,"tags":{"name":"Marbachshöhe","network":"Nordhessischer VerkehrsVerbund","network:guid":"DE-HE-NVV","network:short":"NVV","network:wikidata":"Q1998056","network:wikipedia":"de:Nordhessischer Verkehrsverbund","public_transport":"stop_position","railway":"tram_stop","ref_name":"Marbachshöhe, Kassel","tram":"yes","uic_ref":"710504","wheelchair":"yes"}},{"type":"node","id":1965766414,"lat":51.2955309,"lon":9.4525593,"tags":{"name":"Rhönplatz","public_transport":"stop_position","railway":"tram_stop","ref_name":"Rhönplatz, Kassel","tram":"yes","uic_ref":"80712689","wheelchair":"yes"}},{"type":"node","id":1965766421,"lat":51.2831243,"lon":9.444309,"tags":{"name":"Schulzentrum Brückenhof","network":"Nordhessischer VerkehrsVerbund","network:guid":"DE-HE-NVV","network:short":"NVV","network:wikidata":"Q1998056","network:wikipedia":"de:Nordhessischer Verkehrsverbund","public_transport":"stop_position","railway":"tram_stop","ref_name":"Schulzentrum Brückenhof, Kassel","tram":"yes","uic_ref":"80716650","wheelchair":"yes"}},{"type":"node","id":1965766446,"lat":51.298842,"lon":9.4498377,"tags":{"name":"Süsterfeld","public_transport":"stop_position","railway":"tram_stop","ref_name":"Süsterfeld, Kassel","tram":"yes","uic_ref":"714015","wheelchair":"yes"}},{"type":"node","id":1965766450,"lat":51.3110598,"lon":9.4416666,"tags":{"name":"Walther-Schücking-Platz","public_transport":"stop_position","railway":"tram_stop","ref_name":"Walther-Schücking-Platz, Kassel","tram":"yes","uic_ref":"80712556","wheelchair":"yes"}},{"type":"node","id":1965766455,"lat":51.3114797,"lon":9.4407715,"tags":{"name":"Walther-Schücking-Platz","public_transport":"stop_position","railway":"tram_stop","tram":"yes","uic_name":"Walther-Schücking-Platz, Kassel","uic_ref":"80712556","wheelchair":"yes"}},{"type":"node","id":1969639394,"lat":51.3101567,"lon":9.4281639,"tags":{"name":"Wigandstraße","public_transport":"stop_position","railway":"tram_stop","tram":"yes","uic_name":"Wigandstraße, Kassel","uic_ref":"80712555","wheelchair":"yes"}},{"type":"node","id":1975690229,"lat":51.3227858,"lon":9.5125612,"tags":{"name":"Weserspitze","operator":"Kasseler Verkehrs Gesellschaft AG","public_transport":"stop_position","railway":"tram_stop","ref":"B","ref:IFOPT":"de:06611:200009::B","ref_name":"Weserspitze, Kassel","tram":"yes","uic_ref":"80712454","wheelchair":"yes"}},{"type":"node","id":1976901154,"lat":51.3161385,"lon":9.5048643,"tags":{"name":"Altmarkt/Regierungspräsidium","network":"Nordhessischer VerkehrsVerbund","network:guid":"DE-HE-NVV","network:short":"NVV","network:wikidata":"Q1998056","network:wikipedia":"de:Nordhessischer Verkehrsverbund","public_transport":"stop_position","railway":"tram_stop","ref:IFOPT":"de:06611:200032::B","ref_name":"Altmarkt/Regierungspräsidium, Kassel","tram":"yes","uic_ref":"712165"}},{"type":"node","id":1976901155,"lat":51.3184324,"lon":9.5082133,"tags":{"name":"Katzensprung","network":"Nordhessischer VerkehrsVerbund","network:guid":"DE-HE-NVV","network:short":"NVV","network:wikidata":"Q1998056","network:wikipedia":"de:Nordhessischer Verkehrsverbund","public_transport":"stop_position","railway":"tram_stop","ref:IFOPT":"de:06611:200019::B","ref_name":"Katzensprung, Kassel","shelter":"yes","tram":"yes","uic_ref":"80711179","wheelchair":"yes"}},{"type":"node","id":1976901156,"lat":51.3107927,"lon":9.5130668,"tags":{"local_ref":"D","name":"Platz der Deutschen Einheit","network":"Nordhessischer VerkehrsVerbund","network:guid":"DE-HE-NVV","network:short":"NVV","network:wikidata":"Q1998056","network:wikipedia":"de:Nordhessischer Verkehrsverbund","public_transport":"stop_position","railway":"tram_stop","railway:ref":"FKPDE","ref:ibnr":"713056","ref_name":"Platz der Deutschen Einheit, Kassel","tram":"yes","wheelchair":"yes"}},{"type":"node","id":1976901596,"lat":51.309047,"lon":9.5180774,"tags":{"name":"Sandershäuser Straße","public_transport":"stop_position","railway":"tram_stop","ref:ibnr":"712612","ref_name":"Sandershäuser Straße, Kassel","shelter":"yes","tram":"yes","wheelchair":"yes"}},{"type":"node","id":1976901601,"lat":51.31361,"lon":9.5091637,"tags":{"name":"Unterneustädter Kirchplatz","public_transport":"stop_position","railway":"tram_stop","railway:ref":"FKUNK","ref_name":"Unterneustädter Kirchplatz, Kassel","tram":"yes","uic_ref":"716135","wheelchair":"yes"}},{"type":"node","id":1976921162,"lat":51.2988513,"lon":9.5378199,"tags":{"name":"Forstfeldstraße","network":"Nordhessischer VerkehrsVerbund","network:guid":"DE-HE-NVV","network:short":"NVV","network:wikidata":"Q1998056","network:wikipedia":"de:Nordhessischer Verkehrsverbund","public_transport":"stop_position","railway":"tram_stop","railway:ref":"FKBHF","ref_name":"Forstfeldstraße, Kassel","tram":"yes","uic_ref":"716134","wheelchair":"yes"}},{"type":"node","id":1976921163,"lat":51.3033103,"lon":9.5312694,"tags":{"name":"Leipziger Platz","public_transport":"stop_position","railway":"tram_stop","ref_name":"Leipziger Platz, Kassel","tram":"yes","uic_ref":"711002"}},{"type":"node","id":1976962902,"lat":51.2894241,"lon":9.5704128,"tags":{"name":"Kaufungen-Niederkaufungen Industriestraße","network":"Nordhessischer VerkehrsVerbund","network:guid":"DE-HE-NVV","network:short":"NVV","network:wikidata":"Q1998056","network:wikipedia":"de:Nordhessischer Verkehrsverbund","public_transport":"stop_position","railway":"tram_stop","tram":"yes"}},{"type":"node","id":1976962904,"lat":51.2950475,"lon":9.5463084,"tags":{"name":"Lindenberg","public_transport":"stop_position","railway":"tram_stop","railway:ref":"FKBHI","ref_name":"Lindenberg, Kassel","tram":"yes","uic_ref":"714811"}},{"type":"node","id":1976962908,"lat":51.29067,"lon":9.5640445,"tags":{"local_ref":"A","name":"Kaufungen-Papierfabrik","network":"Nordhessischer VerkehrsVerbund","network:guid":"DE-HE-NVV","network:short":"NVV","network:wikidata":"Q1998056","network:wikipedia":"de:Nordhessischer Verkehrsverbund","note":"FPAPK = Papierfabrik KVG","public_transport":"stop_position","railway":"tram_stop","railway:ref":"FPAPK","ref_name":"Papierfabrik, Kaufungen","tram":"yes","uic_ref":"714299","wheelchair":"yes"}},{"type":"node","id":1990182210,"lat":51.3044233,"lon":9.4157542,"tags":{"name":"Hugo-Preuß-Straße","public_transport":"stop_position","railway":"tram_stop","ref_name":"Hugo-Preuß-Straße, Kassel","tram":"yes","uic_ref":"80714118","wheelchair":"limited"}},{"type":"node","id":1990182212,"lat":51.3036903,"lon":9.4156598,"tags":{"name":"Hugo-Preuß-Straße","public_transport":"stop_position","railway":"tram_stop","ref_name":"Hugo-Preuß-Straße, Kassel","tram":"yes","uic_ref":"80714118","wheelchair":"limited"}},{"type":"node","id":1990182319,"lat":51.3072705,"lon":9.4170017,"tags":{"name":"Waldorfschule","public_transport":"stop_position","railway":"tram_stop","tram":"yes","wheelchair":"yes"}},{"type":"node","id":1990182321,"lat":51.3070464,"lon":9.4164779,"tags":{"name":"Waldorfschule","public_transport":"stop_position","railway":"tram_stop","tram":"yes","wheelchair":"yes"}},{"type":"node","id":1990219600,"lat":51.3094752,"lon":9.422403,"tags":{"name":"Brabanter Straße","public_transport":"stop_position","railway":"tram_stop","tram":"yes","uic_name":"Brabanter Straße, Kassel","uic_ref":"80713889"}},{"type":"node","id":1990219617,"lat":51.3116807,"lon":9.433776,"tags":{"name":"Christuskirche","public_transport":"stop_position","railway":"tram_stop","ref:ibnr":"715638","tram":"yes","wheelchair":"yes"}},{"type":"node","id":1990219631,"lat":51.3145128,"lon":9.4723801,"tags":{"name":"Goethestraße","public_transport":"stop_position","railway":"tram_stop","tram":"yes","wheelchair":"yes","wikidata":"Q114437163"}},{"type":"node","id":1990219638,"lat":51.3145266,"lon":9.4730554,"tags":{"name":"Goethestraße","public_transport":"stop_position","railway":"tram_stop","tram":"yes","wheelchair":"yes"}},{"type":"node","id":1990219643,"lat":51.3143713,"lon":9.431072,"tags":{"name":"Hessischer Rundfunk","public_transport":"stop_position","railway":"tram_stop","tram":"yes","uic_ref":"713434","wheelchair":"yes"}},{"type":"node","id":1992576418,"lat":51.315296,"lon":9.4791786,"tags":{"name":"Annastraße","public_transport":"stop_position","railway":"tram_stop","tram":"yes","wheelchair":"yes"}},{"type":"node","id":1992576420,"lat":51.3182842,"lon":9.4608519,"tags":{"name":"Aschrottstraße","public_transport":"stop_position","railway":"tram_stop","tram":"yes","uic_ref":"712347","wheelchair":"yes","wikidata":"Q114437131"}},{"type":"node","id":1992576421,"lat":51.3188742,"lon":9.4560579,"tags":{"name":"Breitscheidstraße","public_transport":"stop_position","railway":"tram_stop","ref:IFOPT":"de:06611:200078::2","tram":"yes","uic_ref":"714116","wheelchair":"yes","wikidata":"Q114437187"}},{"type":"node","id":1992576529,"lat":51.3240959,"lon":9.4393132,"tags":{"name":"Riedwiesen","public_transport":"stop_position","railway":"tram_stop","ref":"715982","tram":"yes","uic_ref":"715982","waste_basket":"yes","wheelchair":"yes","wikidata":"Q114437186"}},{"type":"node","id":1992576530,"lat":51.3213553,"lon":9.4502092,"tags":{"bus":"yes","name":"Teichstraße","public_transport":"stop_position","railway":"tram_stop","ref:ibnr":"715872","tram":"yes","wheelchair":"yes"}},{"type":"node","id":1992614107,"lat":51.2722644,"lon":9.4415059,"tags":{"name":"Mattenberg","network":"Nordhessischer VerkehrsVerbund","network:guid":"DE-HE-NVV","network:short":"NVV","network:wikidata":"Q1998056","network:wikipedia":"de:Nordhessischer Verkehrsverbund","public_transport":"stop_position","railway":"tram_stop","ref_name":"Mattenberg, Kassel","tram":"yes","uic_ref":"80715589","wheelchair":"yes"}},{"type":"node","id":1992843809,"lat":51.2744775,"lon":9.4451591,"tags":{"name":"Altenbaunaer Straße","network":"Nordhessischer VerkehrsVerbund","network:guid":"DE-HE-NVV","network:short":"NVV","network:wikidata":"Q1998056","network:wikipedia":"de:Nordhessischer Verkehrsverbund","public_transport":"stop_position","railway":"tram_stop","ref_name":"Altenbaunaer Straße, Kassel","tram":"yes","uic_ref":"80711781","wheelchair":"yes"}},{"type":"node","id":1992843811,"lat":51.3132025,"lon":9.4468516,"tags":{"name":"Bahnhof Wilhelmshöhe","public_transport":"stop_position","railway":"tram_stop","ref":"F","ref:IFOPT":"de:06611:200007::4","ref:ibnr":"715536","tram":"yes","wheelchair":"limited"}},{"type":"node","id":1992843812,"lat":51.2805906,"lon":9.4462674,"tags":{"name":"Heinrich-Plett-Straße","network":"Nordhessischer VerkehrsVerbund","network:guid":"DE-HE-NVV","network:short":"NVV","network:wikidata":"Q1998056","network:wikipedia":"de:Nordhessischer Verkehrsverbund","public_transport":"stop_position","railway":"tram_stop","ref_name":"Heinrich-Plett-Straße, Kassel","tram":"yes","uic_ref":"80710311","wheelchair":"yes"}},{"type":"node","id":1992843814,"lat":51.2349419,"lon":9.6740702,"tags":{"bench":"yes","bin":"yes","lit":"yes","name":"Helsa-Eschenstruth Waldhof","network":"Nordhessischer VerkehrsVerbund","network:guid":"DE-HE-NVV","network:short":"NVV","network:wikidata":"Q1998056","network:wikipedia":"de:Nordhessischer Verkehrsverbund","public_transport":"stop_position","railway":"tram_stop","shelter":"yes","tactile_paving":"yes","tram":"yes","wheelchair:description":"Hochbord vorhanden"}},{"type":"node","id":1992843815,"lat":51.3147368,"lon":9.4842547,"tags":{"name":"Karthäuserstraße","public_transport":"stop_position","railway":"tram_stop","tram":"yes","wheelchair":"yes"}},{"type":"node","id":1992843816,"lat":51.2944394,"lon":9.5562598,"tags":{"name":"Am Kupferhammer","public_transport":"stop_position","railway":"tram_stop","railway:ref":"FKBHA","ref_name":"Am Kupferhammer, Kassel","tram":"yes","uic_ref":"719498"}},{"type":"node","id":1992843819,"lat":51.3122503,"lon":9.4920681,"tags":{"name":"Rathaus","public_transport":"stop_position","railway":"tram_stop","railway:ref":"FKRAT","ref:IFOPT":"de:06611:200003::B","ref_name":"Rathaus, Kassel","tram":"yes","uic_ref":"80712896","wheelchair":"yes"}},{"type":"node","id":1992963612,"lat":51.3188597,"lon":9.4965719,"tags":{"name":"Lutherplatz","public_transport":"stop_position","railway":"tram_stop","railway:ref":"FKLPL","ref_name":"Lutherplatz, Kassel","tram":"yes","uic_ref":"715535","wheelchair":"yes"}},{"type":"node","id":1992963615,"lat":51.3076173,"lon":9.4884164,"tags":{"name":"Am Weinberg","public_transport":"stop_position","railway":"tram_stop","railway:ref":"FKNZW","ref:IFOPT":"de:06611:200040::2","tram":"yes","uic_ref":"712236","wheelchair":"yes"}},{"type":"node","id":1992963619,"lat":51.315851,"lon":9.4919056,"tags":{"name":"Scheidemannplatz","public_transport":"stop_position","railway":"tram_stop","ref:IFOPT":"de:06611:200073::D","ref_name":"Scheidemannplatz, Kassel","tram":"yes","uic_ref":"713679","wheelchair":"yes"}},{"type":"node","id":1993003361,"lat":51.3304901,"lon":9.4984912,"tags":{"name":"Hauptfriedhof","network":"Nordhessischer VerkehrsVerbund","network:guid":"DE-HE-NVV","network:short":"NVV","network:wikidata":"Q1998056","network:wikipedia":"de:Nordhessischer Verkehrsverbund","public_transport":"stop_position","railway":"tram_stop","railway:ref":"FKHFH","tram":"yes","wheelchair":"yes","wikidata":"Q114437138"}},{"type":"node","id":1993003364,"lat":51.3368355,"lon":9.4905337,"tags":{"name":"Hegelsbergstraße","public_transport":"stop_position","railway":"tram_stop","railway:ref":"FKHBS","ref_name":"Hegelsbergstraße, Kassel","tram":"yes","uic_ref":"710634","wheelchair":"yes","wikidata":"Q114437142"}},{"type":"node","id":1993003366,"lat":51.3400878,"lon":9.4812241,"tags":{"name":"Holländische Straße","public_transport":"stop_position","railway":"tram_stop","railway:ref":"FKHST","ref":"B","ref:ibnr":"711180","ref_name":"Holländische Straße, Kassel","tram":"yes","wheelchair":"yes","wikidata":"Q114437088"}},{"type":"node","id":1993003368,"lat":51.3401202,"lon":9.4813741,"tags":{"name":"Holländische Straße","public_transport":"stop_position","railway":"tram_stop","railway:ref":"FKHST","ref":"A","ref:ibnr":"711180","ref_name":"Holländische Straße, Kassel","tram":"yes","wheelchair":"yes","wikidata":"Q114437088"}},{"type":"node","id":1993003370,"lat":51.3205133,"lon":9.5019484,"tags":{"bus":"yes","name":"Holländischer Platz/Universität","public_transport":"stop_position","railway":"tram_stop","railway:ref":"FKHPL","tram":"yes","uic_ref":"711363","wheelchair":"yes"}},{"type":"node","id":1993003372,"lat":51.3268437,"lon":9.4999893,"tags":{"alt_name":"Philipp-Scheidemann-Haus","name":"Halitplatz","public_transport":"stop_position","railway":"tram_stop","railway:ref":"FKMBS","ref_name":"Mombachstraße, Kassel","tram":"yes","uic_ref":"710636","wheelchair":"yes","wikidata":"Q114437203"}},{"type":"node","id":1993003551,"lat":51.33393,"lon":9.49489,"tags":{"name":"Wiener Straße","public_transport":"stop_position","railway":"tram_stop","railway:ref":"FKWST","ref_name":"Wiener Straße, Kassel","tram":"yes","uic_ref":"711550","wheelchair":"yes","wikidata":"Q114437112"}},{"type":"node","id":1995200582,"lat":51.3909262,"lon":9.4555479,"tags":{"name":"Espenau-Mönchehof","public_transport":"stop_position","railway":"tram_stop","tram":"yes","wheelchair":"no"}},{"type":"node","id":2365698618,"lat":51.3449162,"lon":9.4761412,"tags":{"name":"Berliner Straße","public_transport":"stop_position","railway":"tram_stop","ref_name":"Berliner Straße, Kassel","tram":"yes","uic_ref":"711442","wheelchair":"yes","wikidata":"Q114437090"}},{"type":"node","id":2365698715,"lat":51.3526354,"lon":9.4683992,"tags":{"name":"Dörnbergstraße","network":"Nordhessischer VerkehrsVerbund","network:guid":"DE-HE-NVV","network:short":"NVV","network:wikidata":"Q1998056","network:wikipedia":"de:Nordhessischer Verkehrsverbund","public_transport":"stop_position","railway":"tram_stop","ref_name":"Niedervellmar Dörnbergstr., Vellmar","tram":"yes","uic_ref":"715717","wheelchair":"yes","wikidata":"Q114437102"}},{"type":"node","id":2365698789,"lat":51.3575959,"lon":9.4675856,"tags":{"name":"Festplatz","public_transport":"stop_position","railway":"tram_stop","tram":"yes","uic_ref":"712486","wheelchair":"yes","wikidata":"Q114437147"}},{"type":"node","id":2365698849,"lat":51.3610849,"lon":9.4692703,"tags":{"name":"Stadtmitte","public_transport":"stop_position","railway":"tram_stop","ref:ibnr":"716117","tram":"yes","wheelchair":"yes"}},{"type":"node","id":2365698910,"lat":51.3650817,"lon":9.4692797,"tags":{"name":"Nordstraße","public_transport":"stop_position","railway":"tram_stop","ref_name":"Nordstraße, Vellmar","tram":"yes","uic_ref":"711390","wheelchair":"yes","wikidata":"Q114437148"}},{"type":"node","id":2365700763,"lat":51.3688749,"lon":9.470839,"tags":{"name":"Musikerviertel","public_transport":"stop_position","railway":"tram_stop","ref_name":"Musikerviertel, Vellmar","tram":"yes","uic_ref":"711444","wheelchair":"yes","wikidata":"Q114437149"}},{"type":"node","id":2370519164,"lat":51.3288002,"lon":9.523886,"tags":{"name":"Am Fasanenhof","public_transport":"stop_position","railway":"tram_stop","ref_name":"Am Fasanenhof, Kassel","tram":"yes","uic_ref":"711405"}},{"type":"node","id":2370519189,"lat":51.3268689,"lon":9.5333702,"tags":{"name":"Kirche Wolfsanger","public_transport":"stop_position","railway":"tram_stop","tram":"yes"}},{"type":"node","id":2370519241,"lat":51.328127,"lon":9.5301316,"tags":{"name":"Wolfsgraben","network":"Nordhessischer VerkehrsVerbund","network:short":"NVV","network:wikidata":"Q1998056","public_transport":"stop_position","railway":"tram_stop","ref_name":"Wolfsgraben, Kassel","tram":"yes"}},{"type":"node","id":2370629410,"lat":51.3260172,"lon":9.5185098,"tags":{"name":"Alte Stadtgrenze","public_transport":"stop_position","railway":"tram_stop","ref_name":"Alte Stadtgrenze, Kassel","tram":"yes"}},{"type":"node","id":2377351217,"lat":51.3271898,"lon":9.5097221,"tags":{"name":"Klinikum Kassel","operator":"Kasseler Verkehrs Gesellschaft AG","public_transport":"stop_position","railway":"tram_stop","ref:IFOPT":"de:06611:200025::B","tram":"yes","uic_name":"Klinikum Kassel, Kassel","uic_ref":"710487","wheelchair":"yes","wikidata":"Q114437214"}},{"type":"node","id":2497093745,"lat":51.2579821,"lon":9.6827418,"tags":{"local_ref":"C","name":"Helsa Bahnhof","network":"Nordhessischer VerkehrsVerbund","network:guid":"DE-HE-NVV","network:short":"NVV","network:wikidata":"Q1998056","network:wikipedia":"de:Nordhessischer Verkehrsverbund","public_transport":"stop_position","railway":"tram_stop","railway:ref":"FHSA","tram":"yes","wheelchair":"yes"}},{"type":"node","id":2715501248,"lat":51.3130774,"lon":9.4474569,"tags":{"name":"Bahnhof Wilhelmshöhe","public_transport":"stop_position","railway":"tram_stop","ref":"D","ref:IFOPT":"de:06611:200007::2","ref:ibnr":"715536","tram":"yes","wheelchair":"yes"}},{"type":"node","id":2715501254,"lat":51.3132679,"lon":9.4468526,"tags":{"name":"Bahnhof Wilhelmshöhe","public_transport":"stop_position","railway":"tram_stop","ref":"G","ref:IFOPT":"de:06611:200007::5","ref:ibnr":"715536","tram":"yes","wheelchair":"yes"}},{"type":"node","id":2813134899,"lat":51.3128704,"lon":9.4587759,"tags":{"name":"Berlepschstraße","public_transport":"stop_position","railway":"tram_stop","ref_name":"Berlepschstraße, Kassel","tram":"yes","uic_ref":"80715588","wheelchair":"yes"}},{"type":"node","id":2820756724,"lat":51.2765911,"lon":9.4539885,"tags":{"name":"Kassel-Oberzwehren","operator":"DB Station&Service AG","public_transport":"stop_position","railway":"stop","ref":"2","train":"yes","tram":"yes"}},{"type":"node","id":2821187062,"lat":51.3114923,"lon":9.4477482,"tags":{"local_ref":"7","name":"Kassel-Wilhelmshöhe","operator":"DB InfraGO AG","public_transport":"stop_position","railway":"stop","train":"yes","tram":"yes"}},{"type":"node","id":2821187064,"lat":51.3115679,"lon":9.4480727,"tags":{"local_ref":"9","name":"Kassel-Wilhelmshöhe","operator":"DB InfraGO AG","public_transport":"stop_position","railway":"stop","train":"yes","tram":"yes"}},{"type":"node","id":2891886851,"lat":51.1984251,"lon":9.7203947,"tags":{"bench":"no","bin":"no","name":"Hessisch Lichtenau Stadtmitte","network":"Nordhessischer VerkehrsVerbund","network:guid":"DE-HE-NVV","network:short":"NVV","network:wikidata":"Q1998056","network:wikipedia":"de:Nordhessischer Verkehrsverbund","public_transport":"stop_position","railway":"tram_stop","shelter":"no","tactile_paving":"yes","tram":"yes","wheelchair":"yes","wheelchair:description":"Kasseler Bord vorhanden"}},{"type":"node","id":2940954683,"lat":51.3176347,"lon":9.5000028,"tags":{"name":"Am Stern","public_transport":"stop_position","railway":"tram_stop","railway:ref":"FKASK","ref:IFOPT":"de:06611:200004::A","ref_name":"Am Stern, Kassel","tram":"yes","wheelchair":"yes"}},{"type":"node","id":2942123738,"lat":51.282422,"lon":9.4449046,"tags":{"name":"Schulzentrum Brückenhof","network":"Nordhessischer VerkehrsVerbund","network:guid":"DE-HE-NVV","network:short":"NVV","network:wikidata":"Q1998056","network:wikipedia":"de:Nordhessischer Verkehrsverbund","public_transport":"stop_position","railway":"tram_stop","ref_name":"Schulzentrum Brückenhof, Kassel","tram":"yes","uic_ref":"80716650"}},{"type":"node","id":3069055148,"lat":51.286896,"lon":9.6367904,"tags":{"local_ref":"B","name":"Kaufungen-Oberkaufungen Bahnhof","network":"Nordhessischer VerkehrsVerbund","network:guid":"DE-HE-NVV","network:short":"NVV","network:wikidata":"Q1998056","network:wikipedia":"de:Nordhessischer Verkehrsverbund","public_transport":"stop_position","railway":"tram_stop","railway:ref":"FOKN","ref:DHID":"de:06633:203478::2","ref_name":"Kaufungen-Oberkaufungen Bahnhof","tram":"yes"}},{"type":"node","id":3076262134,"lat":51.348428,"lon":9.4721958,"tags":{"name":"Triftstraße","network":"Nordhessischer VerkehrsVerbund","network:guid":"DE-HE-NVV","network:short":"NVV","network:wikidata":"Q1998056","network:wikipedia":"de:Nordhessischer Verkehrsverbund","public_transport":"stop_position","railway":"tram_stop","ref_name":"Niedervellmar Triftstraße, Vellmar","tram":"yes","uic_ref":"711443","wheelchair":"yes","wikidata":"Q114437091"}},{"type":"node","id":3165690278,"lat":51.2835559,"lon":9.6000448,"tags":{"name":"Kaufungen-Niederkaufungen Mitte","network":"Nordhessischer VerkehrsVerbund","network:guid":"DE-HE-NVV","network:short":"NVV","network:wikidata":"Q1998056","network:wikipedia":"de:Nordhessischer Verkehrsverbund","public_transport":"stop_position","railway":"tram_stop","tram":"yes","wheelchair":"yes"}},{"type":"node","id":3165717359,"lat":51.2833316,"lon":9.6086097,"tags":{"name":"Kaufungen-Niederkaufungen Bahnhof","network":"Nordhessischer VerkehrsVerbund","network:guid":"DE-HE-NVV","network:short":"NVV","network:wikidata":"Q1998056","network:wikipedia":"de:Nordhessischer Verkehrsverbund","public_transport":"stop_position","railway":"tram_stop","railway:ref":"FNG","tram":"yes","wheelchair":"yes"}},{"type":"node","id":3166403453,"lat":51.2834378,"lon":9.6091674,"tags":{"name":"Kaufungen-Niederkaufungen Bahnhof","public_transport":"stop_position","railway":"tram_stop","railway:ref":"FNG","tram":"yes","wheelchair":"yes"}},{"type":"node","id":3166409961,"lat":51.2825452,"lon":9.6198605,"tags":{"name":"Kaufungen-Oberkaufungen Gesamtschule","network":"Nordhessischer VerkehrsVerbund","network:guid":"DE-HE-NVV","network:short":"NVV","network:wikidata":"Q1998056","network:wikipedia":"de:Nordhessischer Verkehrsverbund","public_transport":"stop_position","railway":"tram_stop","tram":"yes"}},{"type":"node","id":3166409962,"lat":51.2861127,"lon":9.6301764,"tags":{"name":"Kaufungen-Oberkaufungen Mitte","public_transport":"stop_position","railway":"tram_stop","tram":"yes"}},{"type":"node","id":3166410059,"lat":51.2845388,"lon":9.614643,"tags":{"name":"Kaufungen-Niederkaufungen Rieckswiesen","network":"Nordhessischer VerkehrsVerbund","network:guid":"DE-HE-NVV","network:short":"NVV","network:wikidata":"Q1998056","network:wikipedia":"de:Nordhessischer Verkehrsverbund","public_transport":"stop_position","railway":"tram_stop","tram":"yes","wheelchair":"yes"}},{"type":"node","id":3383533584,"lat":51.31683,"lon":9.493522,"tags":{"name":"Scheidemannplatz","network":"Nordhessischer VerkehrsVerbund","network:guid":"DE-HE-NVV","network:short":"NVV","network:wikidata":"Q1998056","network:wikipedia":"de:Nordhessischer Verkehrsverbund","public_transport":"stop_position","railway":"tram_stop","tram":"yes"}},{"type":"node","id":3658312050,"lat":51.3167266,"lon":9.4934754,"tags":{"name":"Scheidemannplatz","network":"Nordhessischer VerkehrsVerbund","network:guid":"DE-HE-NVV","network:short":"NVV","network:wikidata":"Q1998056","network:wikipedia":"de:Nordhessischer Verkehrsverbund","public_transport":"stop_position","railway":"tram_stop","tram":"yes"}},{"type":"node","id":3809238892,"lat":51.3228648,"lon":9.4462626,"tags":{"name":"Kirche Kirchditmold","public_transport":"stop_position","railway":"tram_stop","ref":"713786","tram":"yes","uic_ref":"713786","wikidata":"Q114437207"}},{"type":"node","id":3899194286,"lat":51.3142681,"lon":9.4882155,"tags":{"name":"Ständeplatz","public_transport":"stop_position","railway":"tram_stop","tram":"yes","uic_ref":"80710637","wheelchair":"yes"}},{"type":"node","id":4008432862,"lat":51.3804011,"lon":9.360064,"tags":{"name":"Calden-Fürstenwald","operator":"DB RegioNetz Infrastruktur GmbH;Kurhessenbahn","public_transport":"stop_position","railway":"stop","train":"yes","tram":"yes"}},{"type":"node","id":4093197871,"lat":51.3122216,"lon":9.4911531,"tags":{"name":"Rathaus/Fünffensterstraße","network":"Nordhessischer VerkehrsVerbund","network:guid":"DE-HE-NVV","network:short":"NVV","network:wikidata":"Q1998056","network:wikipedia":"de:Nordhessischer Verkehrsverbund","public_transport":"stop_position","railway":"tram_stop","railway:ref":"FKRFF","ref:IFOPT":"de:06611:200436::1","ref_name":"Rathaus/Fünffensterstraße, Kassel","tram":"yes","uic_ref":"716122","wheelchair":"yes"}},{"type":"node","id":4159737605,"lat":51.3122496,"lon":9.4920692,"tags":{"name":"Rathaus","public_transport":"stop_position","railway":"tram_stop","railway:ref":"FKRAT","tram":"yes","uic_ref":"80712896","wheelchair":"yes"}},{"type":"node","id":4196000740,"lat":51.3144885,"lon":9.4896537,"tags":{"name":"Wilhelmsstraße/Stadtmuseum","public_transport":"stop_position","railway":"tram_stop","railway:ref":"FKWSM","ref":"A","ref:IFOPT":"de:06611:200055::1","ref:ibnr":"710021","ref_name":"Wilhelmsstraße/Stadtmuseum, Kassel","tram":"yes","wheelchair":"yes"}},{"type":"node","id":4208114047,"lat":51.3767484,"lon":9.2516837,"tags":{"name":"Oberelsungen","operator":"DB RegioNetz Infrastruktur GmbH;Kurhessenbahn","public_transport":"stop_position","railway":"stop","train":"yes","tram":"yes"}},{"type":"node","id":4213268014,"lat":51.4272001,"lon":9.4642915,"tags":{"name":"Immenhausen","public_transport":"stop_position","railway":"halt","train":"yes","tram":"yes"}},{"type":"node","id":4518062064,"lat":51.3037366,"lon":9.4839319,"tags":{"ibnr:name":"Heinrich-Heine-Straße/Uni, Kassel","name":"Heinrich-Heine-Straße/Universität","public_transport":"stop_position","railway":"tram_stop","railway:ref":"FKNZH","ref":"1","ref:IFOPT":"de:06611:200041::1","ref:ibnr":"714882","tram":"yes","wheelchair":"yes"}},{"type":"node","id":4542336962,"lat":51.5429578,"lon":9.4023237,"tags":{"local_ref":"1","name":"Hofgeismar-Hümme","public_transport":"stop_position","tram":"yes"}},{"type":"node","id":4913832474,"lat":51.3628744,"lon":9.4339158,"tags":{"local_ref":"2","name":"Ahnatal-Casselbreite","operator":"DB RegioNetz Infrastruktur GmbH;Kurhessenbahn","public_transport":"stop_position","railway":"stop","train":"yes","tram":"yes","wikidata":"Q114437241"}},{"type":"node","id":4913832475,"lat":51.3628345,"lon":9.4339105,"tags":{"local_ref":"1","name":"Ahnatal-Casselbreite","operator":"DB RegioNetz Infrastruktur GmbH;Kurhessenbahn","public_transport":"stop_position","railway":"stop","train":"yes","tram":"yes","wikidata":"Q114437241"}},{"type":"node","id":5056131532,"lat":51.1717428,"lon":9.5127167,"tags":{"local_ref":"2","name":"Körle","operator":"DB InfraGO AG","public_transport":"stop_position","railway":"stop","train":"yes","tram":"yes"}},{"type":"node","id":5056131533,"lat":51.1717137,"lon":9.5126691,"tags":{"local_ref":"1","name":"Körle","operator":"DB InfraGO AG","public_transport":"stop_position","railway":"stop","train":"yes","tram":"yes"}},{"type":"node","id":5175990295,"lat":51.3244502,"lon":9.4522132,"tags":{"local_ref":"1","name":"Kassel-Kirchditmold","operator":"DB InfraGO AG","public_transport":"stop_position","railway":"stop","tram":"yes","wikidata":"Q114437104"}},{"type":"node","id":5497642055,"lat":51.2901642,"lon":9.4727419,"tags":{"name":"Leuschnerstraße","network":"Nordhessischer VerkehrsVerbund","network:guid":"DE-HE-NVV","network:short":"NVV","network:wikidata":"Q1998056","network:wikipedia":"de:Nordhessischer Verkehrsverbund","public_transport":"stop_position","railway":"tram_stop","ref_name":"Leuschnerstraße, Kassel","tram":"yes","uic_ref":"715763","wheelchair":"yes"}},{"type":"node","id":5499667488,"lat":51.3182832,"lon":9.4885784,"tags":{"name":"Hauptbahnhof","public_transport":"stop_position","railway":"tram_stop","ref":"5.1;5.2","tram":"yes"}},{"type":"node","id":5510159811,"lat":51.3398666,"lon":9.4811486,"tags":{"name":"Holländische Straße","public_transport":"stop_position","railway":"tram_stop","ref":"E","tram":"yes"}},{"type":"node","id":5616012363,"lat":51.1324243,"lon":9.5483998,"tags":{"local_ref":"2","name":"Melsungen-Bartenwetzerbrücke","operator":"DB InfraGO AG","public_transport":"stop_position","railway":"stop","train":"yes","tram":"yes"}},{"type":"node","id":5616012364,"lat":51.132401,"lon":9.5483559,"tags":{"local_ref":"1","name":"Melsungen-Bartenwetzerbrücke","operator":"DB InfraGO AG","public_transport":"stop_position","railway":"stop","train":"yes","tram":"yes"}},{"type":"node","id":5616012365,"lat":51.3182199,"lon":9.4885391,"tags":{"name":"Hauptbahnhof","public_transport":"stop_position","railway":"stop","ref":"4","tram":"yes"}},{"type":"node","id":5616012366,"lat":51.318354,"lon":9.4886062,"tags":{"name":"Hauptbahnhof","public_transport":"stop_position","railway":"stop","ref":"6","tram":"yes"}},{"type":"node","id":5616012367,"lat":51.3244635,"lon":9.4522641,"tags":{"local_ref":"2","name":"Kassel-Kirchditmold","operator":"DB InfraGO AG","public_transport":"stop_position","railway":"stop","tram":"yes","wikidata":"Q114437104"}},{"type":"node","id":5616012368,"lat":51.3326057,"lon":9.4526045,"tags":{"local_ref":"2","name":"Kassel-Harleshausen","operator":"DB InfraGO AG","public_transport":"stop_position","railway":"stop","train":"yes","tram":"yes","wheelchair":"no","wikidata":"Q114437084"}},{"type":"node","id":5616012369,"lat":51.3391207,"lon":9.4634082,"tags":{"local_ref":"2","name":"Kassel-Jungfernkopf","operator":"DB InfraGO AG","public_transport":"stop_position","railway":"stop","train":"yes","tram":"yes","wikidata":"Q114437105"}},{"type":"node","id":5616012370,"lat":51.3391449,"lon":9.4633667,"tags":{"local_ref":"1","name":"Kassel-Jungfernkopf","operator":"DB InfraGO AG","public_transport":"stop_position","railway":"stop","tram":"yes","wikidata":"Q114437105"}},{"type":"node","id":5616012371,"lat":51.3542061,"lon":9.4608988,"tags":{"local_ref":"2","name":"Vellmar-Osterberg/EKZ","operator":"DB Station&Service AG","public_transport":"stop_position","railway":"stop","train":"yes","tram":"yes","wikidata":"Q114437100"}},{"type":"node","id":5616012372,"lat":51.3541787,"lon":9.4608561,"tags":{"local_ref":"1","name":"Vellmar-Osterberg/EKZ","operator":"DB Station&Service AG","public_transport":"stop_position","railway":"stop","tram":"yes","wikidata":"Q114437100"}},{"type":"node","id":5616012373,"lat":51.3600408,"lon":9.4519467,"tags":{"local_ref":"1","name":"Vellmar-Obervellmar","operator":"DB Station&Service AG","public_transport":"stop_position","railway":"stop","train":"yes","tram":"yes"}},{"type":"node","id":5616012374,"lat":51.3593424,"lon":9.4529145,"tags":{"local_ref":"2","name":"Vellmar-Obervellmar","operator":"DB InfraGO AG","public_transport":"stop_position","railway":"stop","train":"yes","tram":"yes","wikidata":"Q96472497"}},{"type":"node","id":5616012375,"lat":51.3592891,"lon":9.4528191,"tags":{"local_ref":"3","name":"Vellmar-Obervellmar","operator":"DB InfraGO AG","public_transport":"stop_position","railway":"stop","train":"yes","tram":"yes","wikidata":"Q96472497"}},{"type":"node","id":5616012376,"lat":51.3629438,"lon":9.4223522,"tags":{"local_ref":"2","name":"Ahnatal-Heckershausen","operator":"DB RegioNetz Infrastruktur GmbH;Kurhessenbahn","public_transport":"stop_position","railway":"stop","train":"yes","tram":"yes","wikidata":"Q114437246"}},{"type":"node","id":5616012377,"lat":51.3630039,"lon":9.4223622,"tags":{"local_ref":"1","name":"Ahnatal-Heckershausen","operator":"DB RegioNetz Infrastruktur GmbH;Kurhessenbahn","public_transport":"stop_position","railway":"stop","train":"yes","tram":"yes","wikidata":"Q114437246"}},{"type":"node","id":5616012379,"lat":51.3631723,"lon":9.3921475,"tags":{"local_ref":"1","name":"Ahnatal-Weimar","operator":"DB RegioNetz Infrastruktur GmbH;Kurhessenbahn","public_transport":"stop_position","railway":"stop","train":"yes","tram":"yes","wikidata":"Q114437247"}},{"type":"node","id":5616012382,"lat":51.3650519,"lon":9.3048878,"tags":{"name":"Zierenberg","operator":"DB RegioNetz Infrastruktur GmbH;Kurhessenbahn","public_transport":"stop_position","railway":"stop","ref":"4","train":"yes","tram":"yes"}},{"type":"node","id":5616012383,"lat":51.3650151,"lon":9.3048603,"tags":{"name":"Zierenberg","operator":"DB RegioNetz Infrastruktur GmbH;Kurhessenbahn","public_transport":"stop_position","railway":"stop","ref":"1","train":"yes","tram":"yes"}},{"type":"node","id":5616012384,"lat":51.3649652,"lon":9.3048153,"tags":{"name":"Zierenberg","operator":"DB RegioNetz Infrastruktur GmbH;Kurhessenbahn","public_transport":"stop_position","railway":"stop","ref":"2","train":"yes","tram":"yes"}},{"type":"node","id":5616012386,"lat":51.3313042,"lon":9.17921,"tags":{"local_ref":"4","name":"Wolfhagen","network":"Nordhessischer VerkehrsVerbund","network:guid":"DE-HE-NVV","network:short":"NVV","network:wikidata":"Q1998056","network:wikipedia":"de:Nordhessischer Verkehrsverbund","operator":"DB RegioNetz Infrastruktur GmbH;Kurhessenbahn","public_transport":"stop_position","railway":"stop","train":"yes","tram":"yes","wheelchair":"yes"}},{"type":"node","id":10905922062,"lat":51.1451515,"lon":9.5602188,"tags":{"name":"Melsungen-Schwarzenberg","network":"Nordhessischer VerkehrsVerbund","network:short":"NVV","operator":"DB InfraGO AG","public_transport":"stop_position","railway":"stop","ref":"2","train":"yes","tram":"yes"}},{"type":"node","id":12824391030,"lat":51.2348356,"lon":9.6739538,"tags":{"bench":"yes","bin":"yes","lit":"yes","name":"Helsa-Eschenstruth Waldhof","network":"Nordhessischer VerkehrsVerbund","network:guid":"DE-HE-NVV","network:short":"NVV","network:wikidata":"Q1998056","network:wikipedia":"de:Nordhessischer Verkehrsverbund","public_transport":"stop_position","railway":"tram_stop","shelter":"yes","tactile_paving":"yes","tram":"yes","wheelchair:description":"Hochbord vorhanden"}},{"type":"node","id":1367837030,"lat":51.3201415,"lon":9.4923745,"tags":{"name":"Erzbergerstraße","note":"Zur Zeit kein regulärer Tramverkehr","public_transport":"stop_position","railway":"tram_stop","ref:ibnr":"714220","ref_name":"Erzbergerstraße, Kassel","tram":"yes"}},{"type":"node","id":1434839024,"lat":51.3201844,"lon":9.4923426,"tags":{"name":"Erzbergerstraße","note":"Zur Zeit kein regulärer Tramverkehr","public_transport":"stop_position","railway":"tram_stop","ref:ibnr":"714220","ref_name":"Erzbergerstraße, Kassel","tram":"yes"}},{"type":"node","id":1946804994,"lat":51.3131817,"lon":9.4420618,"tags":{"name":"Rolandstraße","public_transport":"stop_position","railway":"tram_stop","ref_name":"Rolandstraße, Kassel","tram":"yes","uic_ref":"80712557","wheelchair":"no"}},{"type":"node","id":1990182209,"lat":51.3011746,"lon":9.4140691,"tags":{"name":"Druseltal","public_transport":"stop_position","railway":"tram_stop","ref:ibnr":"714800","tram":"yes","uic_name":"Druseltal, Kassel","wheelchair":"yes"}},{"type":"node","id":2940914394,"lat":51.3391597,"lon":9.5170301,"tags":{"name":"Ihringshäuser Straße","public_transport":"stop_position","railway":"tram_stop","ref":"1","ref:ibnr":"711730","ref_name":"Ihringshäuser Straße, Kassel","tram":"yes","wheelchair":"yes","wikidata":"Q114437095"}},{"type":"node","id":4093917167,"lat":51.3190436,"lon":9.4902119,"tags":{"name":"Polizeipräsidium","network":"Nordhessischer VerkehrsVerbund","network:guid":"DE-HE-NVV","network:short":"NVV","network:wikidata":"Q1998056","network:wikipedia":"de:Nordhessischer Verkehrsverbund","note":"keine reguläre Haltestelle, nur in Ausnahmefällen","old_name":"Ottostraße","operator":"Kasseler Verkehrs-Gesellschaft","public_transport":"stop_position","railway":"tram_stop","shelter":"no","tram":"yes","wheelchair":"no"}},{"type":"node","id":4338301679,"lat":51.3190108,"lon":9.4901868,"tags":{"name":"Polizeipräsidium","network":"Nordhessischer VerkehrsVerbund","network:guid":"DE-HE-NVV","network:short":"NVV","network:wikidata":"Q1998056","network:wikipedia":"de:Nordhessischer Verkehrsverbund","note":"keine reguläre Haltestelle, nur in Ausnahmefällen","old_name":"Ottostraße","operator":"Kasseler Verkehrs-Gesellschaft","public_transport":"stop_position","railway":"tram_stop","shelter":"no","tram":"yes","wheelchair":"no"}},{"type":"node","id":4851413054,"lat":51.3157552,"lon":9.4236564,"tags":{"name":"Wilhelmshöhe (Park)","public_transport":"stop_position","railway":"tram_stop","tram":"yes"}},{"type":"node","id":5842561272,"lat":51.2994651,"lon":9.4825896,"tags":{"name":"Auestadion (Vorplatz)","name:signed":"no","public_transport":"stop_position","railway":"tram_stop","ref":"C","ref:IFOPT":"de:06611:200042::3","tram":"yes"}},{"type":"node","id":5842561273,"lat":51.2994784,"lon":9.4825044,"tags":{"name":"Auestadion (Vorplatz)","name:signed":"no","public_transport":"stop_position","railway":"tram_stop","ref":"D","ref:IFOPT":"de:06611:200042::4","tram":"yes"}},{"type":"node","id":13768201687,"lat":51.3122213,"lon":9.4911522,"tags":{"name":"Rathaus/Fünffensterstraße","network":"Nordhessischer VerkehrsVerbund","network:guid":"DE-HE-NVV","network:short":"NVV","network:wikidata":"Q1998056","network:wikipedia":"de:Nordhessischer Verkehrsverbund","public_transport":"stop_position","railway":"tram_stop","railway:ref":"FKRFF","ref:IFOPT":"de:06611:200436::1","ref_name":"Rathaus/Fünffensterstraße, Kassel","tram":"yes","uic_ref":"716122","wheelchair":"yes"}},{"type":"node","id":13768695566,"lat":51.317893,"lon":9.5008976,"tags":{"highway":"bus_stop","name":"Am Stern","network":"Nordhessischer VerkehrsVerbund","network:guid":"DE-HE-NVV","network:short":"NVV","network:wikidata":"Q1998056","network:wikipedia":"de:Nordhessischer Verkehrsverbund","public_transport":"stop_position","railway":"tram_stop","railway:ref":"FKASA","ref:IFOPT":"de:06611:200004::B","ref_name":"Am Stern, Kassel","tram":"yes","wheelchair":"yes"}},{"type":"node","id":13768725111,"lat":51.3183091,"lon":9.5004161,"tags":{"name":"Am Stern","public_transport":"stop_position","railway":"tram_stop","railway:ref":"FKASH","ref:IFOPT":"de:06611:200004::C","ref_name":"Am Stern, Kassel","tram":"yes","wheelchair":"yes"}},{"type":"node","id":13768725136,"lat":51.3181618,"lon":9.4997756,"tags":{"name":"Am Stern","network":"Nordhessischer VerkehrsVerbund","network:guid":"DE-HE-NVV","network:short":"NVV","network:wikidata":"Q1998056","network:wikipedia":"de:Nordhessischer Verkehrsverbund","public_transport":"stop_position","railway":"tram_stop","railway:ref":"FKASL","ref:IFOPT":"de:06611:200004::D","ref_name":"Am Stern, Kassel","tram":"yes","uic_ref":"715108","wheelchair":"yes"}},{"type":"node","id":13768725161,"lat":51.317635,"lon":9.5000017,"tags":{"name":"Am Stern","public_transport":"stop_position","railway":"tram_stop","railway:ref":"FKASK","ref:IFOPT":"de:06611:200004::A","ref_name":"Am Stern, Kassel","tram":"yes","wheelchair":"yes"}}]}