{"elements":[{"type":"node","id":2751209998,"lat":34.7656459,"lon":113.7603109,"tags":{"name":"东风南路","name:en":"DONGFENG NANLU","public_transport":"stop_position","railway":"station","station":"subway","subway":"yes","wikidata":"Q17013591","wikipedia":"en:Dongfengnanlu station"}},{"type":"node","id":2751209999,"lat":34.7536042,"lon":113.6597814,"tags":{"name":"二七广场","name:en":"Erqi Square","public_transport":"stop_position","railway":"stop","subway":"yes"}},{"type":"node","id":2751210000,"lat":34.7582289,"lon":113.6672495,"tags":{"name":"人民路","name:en":"RENMIN LU","public_transport":"stop_position","railway":"station","station":"subway","subway":"yes","wikipedia":"zh:人民路站 (郑州市)"}},{"type":"node","id":2751210001,"lat":34.7674526,"lon":113.7193767,"tags":{"name":"会展中心","name:en":"Convention and Exhibition Center","name:zh":"会展中心","public_transport":"stop_position","railway":"stop","subway":"yes"}},{"type":"node","id":2751210002,"lat":34.7664171,"lon":113.7489282,"tags":{"name":"农业南路","name:en":"NONGYE NANLU","public_transport":"stop_position","railway":"station","station":"subway","subway":"yes","wikipedia":"zh:农业南路站"}},{"type":"node","id":2751210003,"lat":34.7486919,"lon":113.636912,"tags":{"name":"医学院","name:en":"Yixueyuan","public_transport":"stop_position","railway":"station","station":"subway","subway":"yes","wikidata":"Q19851971"}},{"type":"node","id":2751210004,"lat":34.7608683,"lon":113.7870274,"tags":{"name":"博学路","name:en":"Boxue Road","public_transport":"stop_position","railway":"station","station":"subway","subway":"yes"}},{"type":"node","id":2751210005,"lat":34.7744903,"lon":113.8043458,"tags":{"name":"市体育中心","name:en":"ZHENGZHOU SPORTS CENTER","public_transport":"stop_position","railway":"station","station":"subway","subway":"yes","wikidata":"Q17025033","wikipedia":"zh:市体育中心站"}},{"type":"node","id":2751210006,"lat":34.7570123,"lon":113.6075681,"tags":{"name":"五一公园","name:en":"WUYI GONGYUAN","public_transport":"stop_position","railway":"stop","subway":"yes"}},{"type":"node","id":2751210007,"lat":34.764036,"lon":113.7075723,"tags":{"name":"民航路","name:en":"Minhang Road","public_transport":"stop_position","railway":"station","station":"subway","subway":"yes"}},{"type":"node","id":2751210008,"lat":34.7646076,"lon":113.6968273,"tags":{"name":"燕庄","name:en":"Yanzhuang","public_transport":"stop_position","railway":"stop","subway":"yes"}},{"type":"node","id":2751210009,"lat":34.7563467,"lon":113.618275,"tags":{"name":"碧沙岗","name:en":"Bishagang","public_transport":"stop_position","railway":"station","station":"subway","subway":"yes","wikidata":"Q17039721"}},{"type":"node","id":2751210010,"lat":34.7578972,"lon":113.5973509,"tags":{"name":"秦岭路","name:en":"Qinling Road","public_transport":"stop_position","railway":"station","station":"subway","subway":"yes"}},{"type":"node","id":2751210012,"lat":34.748666,"lon":113.6270395,"tags":{"name":"绿城广场","name:en":"LUCHENG GUANGCHANG","public_transport":"stop_position","railway":"stop","subway":"yes"}},{"type":"node","id":2751210013,"lat":34.7614951,"lon":113.5821748,"tags":{"name":"西三环","name:en":"Xisanhuan","public_transport":"stop_position","railway":"station","station":"subway","subway":"yes","wikidata":"Q17062884"}},{"type":"node","id":2751210014,"lat":34.7622809,"lon":113.5641084,"tags":{"name":"西流湖","name:en":"Xiliuhu","public_transport":"stop_position","railway":"station","station":"subway","subway":"yes","wikidata":"Q17064889"}},{"type":"node","id":2751210015,"lat":34.7601056,"lon":113.7707911,"tags":{"name":"郑州东站","name:en":"Zhengzhoudong Station","public_transport":"stop_position","railway":"stop","subway":"yes"}},{"type":"node","id":2751210016,"lat":34.7473938,"lon":113.6500665,"tags":{"name":"郑州火车站","name:en":"Zhengzhou Railway Station","public_transport":"stop_position","railway":"stop","subway":"yes"}},{"type":"node","id":2751210017,"lat":34.7637697,"lon":113.7382772,"tags":{"name":"黄河南路","name:en":"South Huanghe Road","public_transport":"stop_position","railway":"stop","subway":"yes"}},{"type":"node","id":3576658125,"lat":34.7636445,"lon":113.5479847,"tags":{"name":"市民中心","name:en":"Civic Center","public_transport":"stop_position","railway":"station","station":"subway","subway":"yes","wikidata":"Q55607709"}},{"type":"node","id":4356460711,"lat":34.7754686,"lon":113.6761262,"tags":{"name":"黄河路","name:en":"Huanghelu","public_transport":"stop_position","railway":"stop","subway":"yes"}},{"type":"node","id":4356460715,"lat":34.7900886,"lon":113.6757316,"tags":{"name":"关虎屯","name:en":"Guanhutun","public_transport":"stop_position","railway":"station","station":"subway","subway":"yes","wikidata":"Q10893999"}},{"type":"node","id":4356460717,"lat":34.7968643,"lon":113.6757302,"tags":{"name":"东风路","name:en":"DONGFENG LU","public_transport":"stop_position","railway":"stop","subway":"yes"}},{"type":"node","id":4356460719,"lat":34.8071493,"lon":113.6756288,"tags":{"name":"北三环","name:en":"Beisanhuan","public_transport":"stop_position","railway":"station","station":"subway","subway":"yes","wikidata":"Q28415060"}},{"type":"node","id":4356460722,"lat":34.8211718,"lon":113.6756829,"tags":{"name":"沙门","name:en":"Shamen","public_transport":"stop_position","railway":"stop","subway":"yes"}},{"type":"node","id":4356460725,"lat":34.8300495,"lon":113.6750499,"tags":{"name":"柳林","name:en":"Liulin","public_transport":"stop_position","railway":"station","station":"subway","subway":"yes","wikidata":"Q17025433"}},{"type":"node","id":4356460730,"lat":34.8450852,"lon":113.6729541,"tags":{"name":"刘庄","name:en":"Liuzhuang","public_transport":"stop_position","railway":"station","station":"subway","subway":"yes","wikidata":"Q17025081"}},{"type":"node","id":4356460741,"lat":34.7302115,"lon":113.6757738,"tags":{"name":"二里岗","name:en":"Erligang","public_transport":"stop_position","railway":"stop","subway":"yes"}},{"type":"node","id":4356460743,"lat":34.7214118,"lon":113.6758722,"tags":{"name":"南五里堡","name:en":"Nanwulibao","public_transport":"stop_position","railway":"stop","subway":"yes"}},{"type":"node","id":4356460744,"lat":34.7073113,"lon":113.676164,"tags":{"name":"花寨","name:en":"Huazhai","public_transport":"stop_position","railway":"station","station":"subway","subway":"yes","wikidata":"Q28415061"}},{"type":"node","id":4356460745,"lat":34.6996451,"lon":113.6762465,"tags":{"name":"南三环","name:en":"Nansanhuan","public_transport":"stop_position","railway":"station","station":"subway","subway":"yes","wikidata":"Q17022888"}},{"type":"node","id":4356460746,"lat":34.6848191,"lon":113.6760933,"tags":{"name":"站马屯","name:en":"Zhanmatun","public_transport":"stop_position","railway":"station","station":"subway","subway":"yes","wikidata":"Q17023409"}},{"type":"node","id":4608190656,"lat":34.7689603,"lon":113.5347801,"tags":{"name":"铁炉","name:en":"Tielu","public_transport":"stop_position","railway":"stop","subway":"yes"}},{"type":"node","id":4608190657,"lat":34.7849091,"lon":113.5348178,"tags":{"name":"兰寨","name:en":"Lanzhai","public_transport":"stop_position","railway":"station","station":"subway","subway":"yes","wikidata":"Q55616571"}},{"type":"node","id":4608190658,"lat":34.7954023,"lon":113.534794,"tags":{"name":"梧桐街","name:en":"Wutongjie","public_transport":"stop_position","railway":"station","station":"subway","subway":"yes","wikidata":"Q55637960"}},{"type":"node","id":4608190663,"lat":34.8088168,"lon":113.5352664,"tags":{"name":"郑州大学","name:en":"Zhengzhou University","public_transport":"stop_position","railway":"stop","subway":"yes","wikidata":"Q21245983"}},{"type":"node","id":4608190665,"lat":34.8181427,"lon":113.5356567,"tags":{"name":"郑大科技园","name:en":"Zhengzhou University Sci-Tech Park","public_transport":"stop_position","railway":"station","station":"subway","subway":"yes","wikidata":"Q29896242","wikipedia":"zh:郑大科技园站"}},{"type":"node","id":4608190667,"lat":34.8283818,"lon":113.5360877,"tags":{"name":"河南工业大学","name:en":"Henan University of Technology","public_transport":"stop_position","railway":"station","station":"subway","subway":"yes","wikidata":"Q17028944","wikipedia":"zh:河南工业大学站"}},{"type":"node","id":4608190670,"lat":34.7938544,"lon":113.8042512,"tags":{"name":"龙子湖","name:en":"Longzihu","public_transport":"stop_position","railway":"stop","subway":"yes","wikipedia":"zh:龙子湖站"}},{"type":"node","id":4608190673,"lat":34.8090467,"lon":113.8058421,"tags":{"name":"文苑北路","name:en":"Wenyuanbeilu","public_transport":"stop_position","railway":"station","station":"subway","subway":"yes","wikidata":"Q21245981"}},{"type":"node","id":4608190677,"lat":34.8199279,"lon":113.8066064,"tags":{"name":"河南大学新区","name:en":"New Campus of Henan University","public_transport":"stop_position","railway":"station","station":"subway","subway":"yes","wikipedia":"zh:河南大学新区站"}},{"type":"node","id":4608281168,"lat":34.6640501,"lon":113.6757419,"tags":{"name":"南四环","name:en":"Nansihuan","public_transport":"stop_position","railway":"stop","subway":"yes","wikidata":"Q28415062"}},{"type":"node","id":4608372197,"lat":34.6489841,"lon":113.6775446,"tags":{"name":"十八里河","name:en":"Shibalihe","public_transport":"stop_position","railway":"stop","subway":"yes"}},{"type":"node","id":4608372244,"lat":34.6278386,"lon":113.6755341,"tags":{"name":"沙窝李","name:en":"Shawoli","public_transport":"stop_position","railway":"stop","subway":"yes"}},{"type":"node","id":4608372249,"lat":34.612786,"lon":113.6769704,"tags":{"name":"后胡","name:en":"Shuanghudadao","public_transport":"stop_position","railway":"stop","subway":"yes"}},{"type":"node","id":4608372266,"lat":34.6016531,"lon":113.6896555,"tags":{"name":"小乔","name:en":"Xiaoqiao","public_transport":"stop_position","railway":"stop","subway":"yes"}},{"type":"node","id":4608373290,"lat":34.5951057,"lon":113.7198277,"tags":{"name":"华南城西","name:en":"Huanancheng West","public_transport":"stop_position","railway":"stop","subway":"yes"}},{"type":"node","id":4608373293,"lat":34.5951539,"lon":113.7430629,"tags":{"name":"华南城","name:en":"Hunancheng","public_transport":"stop_position","railway":"stop","subway":"yes"}},{"type":"node","id":4608373301,"lat":34.5952222,"lon":113.7678493,"tags":{"name":"华南城东","name:en":"Huanancheng East","public_transport":"stop_position","railway":"stop","subway":"yes"}},{"type":"node","id":4608373347,"lat":34.5859922,"lon":113.8321379,"tags":{"name":"港区北","name:en":"Gangqu North","public_transport":"stop_position","railway":"stop","subway":"yes","wikipedia:zh":"港区北站"}},{"type":"node","id":4608373393,"lat":34.5270849,"lon":113.8473567,"tags":{"name":"新郑机场","name:en":"Xinzheng International Airport","public_transport":"stop_position","railway":"stop","station":"subway","subway":"yes"}},{"type":"node","id":5105079192,"lat":34.5520682,"lon":113.8515824,"tags":{"name":"综合保税区","name:en":"ZONGHE BAOSHUIQU","name:zh":"综合保税区","public_transport":"stop_position","railway":"stop","subway":"yes","wikidata":"Q19269035"}},{"type":"node","id":5105079204,"lat":34.5699202,"lon":113.8541884,"tags":{"name":"恩平湖","name:en":"Enpinghu","name:zh":"恩平湖","public_transport":"stop_position","railway":"stop","subway":"yes","wikidata":"Q22934482"}},{"type":"node","id":5115224467,"lat":34.7599942,"lon":113.7695913,"tags":{"name":"郑州东站","name:en":"Zhengzhou East Railway Station","public_transport":"stop_position","railway":"stop","subway":"yes"}},{"type":"node","id":5115224503,"lat":34.7464701,"lon":113.7676871,"tags":{"name":"省骨科医院","name:en":"Henan Orthopaedics Hospital","public_transport":"stop_position","railway":"stop","subway":"yes"}},{"type":"node","id":5115224513,"lat":34.7220855,"lon":113.7582722,"tags":{"name":"经开中心广场","name:en":"Jingkaizhongxinguangchang","public_transport":"station","railway":"station","station":"subway","subway":"yes","wikidata":"Q63965813"}},{"type":"node","id":5115224516,"lat":34.7219881,"lon":113.7002433,"tags":{"name":"航海广场","name:en":"Hanghaiguangchang","public_transport":"station","railway":"station","station":"subway","subway":"yes","train":"yes","wikidata":"Q63965816"}},{"type":"node","id":5115224517,"lat":34.7216601,"lon":113.6761251,"tags":{"name":"南五里堡","name:en":"Nanwulibao","public_transport":"stop_position","railway":"stop","subway":"yes"}},{"type":"node","id":5115224518,"lat":34.7216149,"lon":113.6612731,"tags":{"name":"冯庄","name:en":"Fengzhuang","public_transport":"station","railway":"station","station":"subway","subway":"yes","train":"yes","wikidata":"Q63965805"}},{"type":"node","id":5115304263,"lat":34.784985,"lon":113.7290319,"tags":{"name":"农业东路","name:en":"Nongyedonglu","public_transport":"stop_position","railway":"stop","subway":"yes"}},{"type":"node","id":5115304300,"lat":34.8338557,"lon":113.6106839,"tags":{"name":"老鸦陈","name:en":"Laoyachen","public_transport":"stop_position","railway":"stop","subway":"yes","wikipedia":"zh:老鸦陈站"}},{"type":"node","id":5115304309,"lat":34.8210863,"lon":113.6199373,"tags":{"name":"王砦","name:en":"Wangzhai","public_transport":"stop_position","railway":"stop","subway":"yes"}},{"type":"node","id":5214942909,"lat":34.7630019,"lon":113.6774366,"tags":{"name":"紫荆山","name:en":"Zijingshan","public_transport":"stop_position","railway":"stop","subway":"yes"}},{"type":"node","id":5453874745,"lat":34.7212462,"lon":113.6126049,"tags":{"name":"后河芦","name:en":"Houhelu","public_transport":"station","railway":"station","station":"subway","subway":"yes","train":"yes","wikidata":"Q63965799"}},{"type":"node","id":6178582394,"lat":34.791908,"lon":113.7324661,"tags":{"name":"龙湖中环南","name:en":"Longhuzhonghuannan","public_transport":"stop_position","railway":"stop","subway":"yes"}},{"type":"node","id":6369356334,"lat":34.7878491,"lon":113.6605448,"tags":{"name":"农业大学","name:en":"Nongye Daxue","public_transport":"stop_position","railway":"stop","subway":"yes"}},{"type":"node","id":6369357255,"lat":34.748966,"lon":113.6979539,"tags":{"name":"博览中心","name:en":"Bolanzhongxin","public_transport":"stop_position","railway":"stop","subway":"yes"}},{"type":"node","id":6369357364,"lat":34.79055,"lon":113.6073553,"tags":{"name":"五龙口","name:en":"Wulongkou","public_transport":"stop_position","railway":"stop","subway":"yes"}},{"type":"node","id":6369357386,"lat":34.78715,"lon":113.7101501,"tags":{"name":"金汇桥","name:en":"Jinhuiqiao","public_transport":"stop_position","railway":"stop","subway":"yes"}},{"type":"node","id":6369357409,"lat":34.7961968,"lon":113.7567916,"tags":{"name":"郑大一附院东区","name:en":"Zhengda Yifuyuan Dongqu","public_transport":"stop_position","railway":"stop","subway":"yes"}},{"type":"node","id":6369357499,"lat":34.8002449,"lon":113.6602362,"tags":{"name":"白庙","name:en":"Baimiao","public_transport":"stop_position","railway":"stop","subway":"yes"}},{"type":"node","id":6369357714,"lat":34.7759163,"lon":113.6608048,"tags":{"name":"郑州人民医院","name:en":"Zhengzhou People's Hospital","public_transport":"stop_position","railway":"stop","subway":"yes"}},{"type":"node","id":6369357742,"lat":34.7744779,"lon":113.7018578,"tags":{"name":"姚砦","name:en":"Yaozhai","public_transport":"stop_position","railway":"stop","subway":"yes"}},{"type":"node","id":6484901168,"lat":34.7700134,"lon":113.7648064,"tags":{"name":"金水东路","name:en":"Jinshuidonglu","public_transport":"stop_position","railway":"station","station":"subway","subway":"yes","wikidata":"Q63956112"}},{"type":"node","id":6484901169,"lat":34.7775175,"lon":113.761015,"tags":{"name":"祭城","name:en":"Zhacheng","public_transport":"stop_position","railway":"stop","subway":"yes"}},{"type":"node","id":6484908331,"lat":34.7776288,"lon":113.7448095,"tags":{"name":"儿童医院","name:en":"Children's Hospital","public_transport":"stop_position","railway":"stop","subway":"yes"}},{"type":"node","id":6484908332,"lat":34.7790782,"lon":113.7255437,"tags":{"name":"中央商务区","name:en":"Central Business District","public_transport":"stop_position","railway":"stop","subway":"yes"}},{"type":"node","id":6484908333,"lat":34.7773979,"lon":113.7122888,"tags":{"name":"众意西路","name:en":"Zhongyixilu","public_transport":"stop_position","railway":"station","station":"subway","subway":"yes","wikidata":"Q63965823"}},{"type":"node","id":6484908334,"lat":34.7753761,"lon":113.7024772,"tags":{"name":"姚砦","name:en":"Yaozhai","public_transport":"stop_position","railway":"stop","subway":"yes"}},{"type":"node","id":6484916169,"lat":34.7757089,"lon":113.6759504,"tags":{"name":"黄河路","name:en":"Huanghelu","public_transport":"stop_position","railway":"stop","subway":"yes"}},{"type":"node","id":6489311183,"lat":34.7754542,"lon":113.6446477,"tags":{"name":"海滩寺","name:en":"Haitansi","public_transport":"stop_position","railway":"stop","subway":"yes"}},{"type":"node","id":6489312528,"lat":34.7666331,"lon":113.6157618,"tags":{"name":"月季公园","name:en":"YUEJI GONGYUAN","public_transport":"station","railway":"station","station":"subway","subway":"yes","train":"yes","wikidata":"Q63965790","wikipedia":"zh:月季公園站"}},{"type":"node","id":6489312539,"lat":34.7477171,"lon":113.6075341,"tags":{"name":"市中心医院","name:en":"Zhengzhou Central Hospital","public_transport":"stop_position","railway":"stop","subway":"yes"}},{"type":"node","id":6489312540,"lat":34.7380638,"lon":113.6075387,"tags":{"name":"陇海西路","name:en":"LONGHAI XILU","public_transport":"station","railway":"station","station":"subway","subway":"yes","train":"yes","wikidata":"Q63965793","wikipedia":"zh:陇海西路站"}},{"type":"node","id":6489312541,"lat":34.7302922,"lon":113.6075593,"tags":{"name":"桐淮","name:en":"Tonghuai","public_transport":"stop_position","railway":"stop","subway":"yes","wikidata":"Q63965796"}},{"type":"node","id":6489312550,"lat":34.7218692,"lon":113.6219076,"tags":{"name":"齐礼阎","name:en":"Qiliyan","public_transport":"station","railway":"station","station":"subway","subway":"yes","train":"yes","wikidata":"Q63965802"}},{"type":"node","id":6489312551,"lat":34.7215444,"lon":113.6373877,"tags":{"name":"市第二人民医院","name:en":"Zhengzhou No.2 People's Hospital","public_transport":"stop_position","railway":"stop","subway":"yes","wikidata":"Q63978960"}},{"type":"node","id":6489312552,"lat":34.7215708,"lon":113.6506677,"tags":{"name":"京广南路","name:en":"Jingguangnanlu","public_transport":"station","railway":"station","station":"subway","subway":"yes","train":"yes","wikidata":"Q63965803"}},{"type":"node","id":6489312558,"lat":34.7219521,"lon":113.6834257,"tags":{"name":"城东南路","name:en":"Chengdongnanlu","public_transport":"station","railway":"station","station":"subway","subway":"yes","train":"yes","wikidata":"Q63965797"}},{"type":"node","id":6489312564,"lat":34.7219896,"lon":113.7163584,"tags":{"name":"七里河","name:en":"Qilihe","public_transport":"stop_position","railway":"stop","station":"subway","subway":"yes","wikidata":"Q63965831"}},{"type":"node","id":6489312566,"lat":34.7219954,"lon":113.7264067,"tags":{"name":"中原福塔","name:en":"Zhongyuan Tower","public_transport":"station","railway":"station","station":"subway","subway":"yes","train":"yes","wikidata":"Q63965809"}},{"type":"node","id":6489312568,"lat":34.7219399,"lon":113.7410089,"tags":{"name":"福塔东","name:en":"Futa Dong","public_transport":"stop_position","railway":"stop","subway":"yes","wikidata":"Q63965832"}},{"type":"node","id":6489312572,"lat":34.7277304,"lon":113.7674526,"tags":{"name":"经北二路","name:en":"Jingbeierlu","public_transport":"stop_position","railway":"stop","subway":"yes"}},{"type":"node","id":6489312829,"lat":34.7517346,"lon":113.7676379,"tags":{"name":"康宁街","name:en":"Kangningjie","public_transport":"station","railway":"station","station":"subway","subway":"yes","train":"yes","wikidata":"Q63965834"}},{"type":"node","id":6660718165,"lat":34.5270348,"lon":113.8473138,"tags":{"name":"新郑机场","name:en":"Xinzheng International Airport","public_transport":"stop_position","railway":"stop","station":"subway","subway":"yes"}},{"type":"node","id":6670345193,"lat":34.404409,"lon":113.8419047,"tags":{"name":"双鹤湖","name:en":"Shuanghehu","public_transport":"stop_position","railway":"stop","subway":"yes"}},{"type":"node","id":6670345195,"lat":34.393883,"lon":113.8419237,"tags":{"name":"双鹤湖南","name:en":"Shuanghehu Nan","public_transport":"stop_position","railway":"stop","subway":"yes"}},{"type":"node","id":6796414933,"lat":34.7757187,"lon":113.6609532,"tags":{"name":"郑州人民医院","name:en":"Zhengzhou People's Hospital","public_transport":"stop_position","railway":"stop","subway":"yes"}},{"type":"node","id":6796415717,"lat":34.7756922,"lon":113.6866535,"tags":{"name":"省人民医院","name:en":"Henan People's Hospital","public_transport":"stop_position","railway":"station","station":"subway","subway":"yes"}},{"type":"node","id":6810396746,"lat":34.8684194,"lon":113.6385591,"tags":{"name":"黄河迎宾馆","name:en":"Huangheyingbinguan","public_transport":"stop_position","railway":"stop","subway":"yes"}},{"type":"node","id":6810396750,"lat":34.8671848,"lon":113.6067009,"tags":{"name":"惠济区政府","name:en":"HUIJI QU ZHENGFU","public_transport":"stop_position","railway":"station","station":"subway","subway":"yes","wikidata":"Q80692599","wikipedia":"zh:惠济区政府站"}},{"type":"node","id":6810397331,"lat":34.867838,"lon":113.6200969,"tags":{"name":"毛庄","name:en":"Maozhuang","public_transport":"stop_position","railway":"station","station":"subway","subway":"yes","wikidata":"Q86728586"}},{"type":"node","id":6810397344,"lat":34.8681881,"lon":113.5870682,"tags":{"name":"贾河","name:en":"Jiahe","public_transport":"station","railway":"station","station":"subway","subway":"yes","wikidata":"Q86728520","wikipedia":"zh:贾河站"}},{"type":"node","id":6814961706,"lat":34.7689593,"lon":113.5344279,"tags":{"name":"铁炉","name:en":"Tielu","name:zh":"铁炉","public_transport":"stop_position","railway":"stop","subway":"yes"}},{"type":"node","id":6814961707,"lat":34.7497514,"lon":113.5348255,"tags":{"name":"市委党校","name:en":"Shiwei Dangxiao","public_transport":"stop_position","railway":"stop","subway":"yes"}},{"type":"node","id":6814961708,"lat":34.7398244,"lon":113.5349178,"tags":{"name":"奥体中心","name:en":"Olympic Sports Center","public_transport":"stop_position","railway":"stop","subway":"yes"}},{"type":"node","id":6833574700,"lat":34.749803,"lon":113.6774674,"tags":{"name":"东大街","name:en":"Dongdajie","public_transport":"stop_position","railway":"stop","subway":"yes"}},{"type":"node","id":6849488410,"lat":34.775635,"lon":113.6434332,"tags":{"name":"海滩寺","name:en":"Haitansi","public_transport":"stop_position","railway":"stop","subway":"yes"}},{"type":"node","id":6853125699,"lat":34.7403528,"lon":113.6760186,"tags":{"name":"陇海东路","name:en":"Longhaidonglu","public_transport":"station","railway":"station","station":"subway","subway":"yes","wikidata":"Q28152900"}},{"type":"node","id":6853125704,"lat":34.749753,"lon":113.6759743,"tags":{"name":"东大街","name:en":"Dongdajie","public_transport":"stop_position","railway":"stop","subway":"yes","wikidata":"Q10869964"}},{"type":"node","id":6859263325,"lat":34.7590467,"lon":113.5347984,"tags":{"name":"市民大道","name:en":"Shimindadao","public_transport":"stop_position","railway":"stop","subway":"yes"}},{"type":"node","id":6859280025,"lat":34.7240944,"lon":113.5350175,"tags":{"name":"莲湖","name:en":"Lianhu","name:zh":"莲湖","public_transport":"stop_position","railway":"stop","subway":"yes"}},{"type":"node","id":6859282028,"lat":34.7755015,"lon":113.515691,"tags":{"construction:public_transport":"stop_position","name":"须水","name:en":"Xushui","railway":"stop","subway":"yes"}},{"type":"node","id":6925856345,"lat":34.7485244,"lon":113.7195036,"tags":{"name":"东十里铺","name:en":"Dongshilipu","public_transport":"stop_position","railway":"stop","subway":"yes"}},{"type":"node","id":7042371344,"lat":34.7569627,"lon":113.6075252,"tags":{"name":"五一公园","name:en":"WUYI GONGYUAN","public_transport":"stop_position","railway":"stop","subway":"yes"}},{"type":"node","id":7042371346,"lat":34.7714314,"lon":113.6339964,"tags":{"name":"沙口路","name:en":"Shakoulu","public_transport":"stop_position","railway":"stop","subway":"yes"}},{"type":"node","id":7118931928,"lat":34.8677558,"lon":113.6565508,"tags":{"name":"金洼","name:en":"Jinwa","public_transport":"stop_position","railway":"station","station":"subway","subway":"yes","wikidata":"Q80692504"}},{"type":"node","id":7118931929,"lat":34.8633655,"lon":113.6727529,"tags":{"name":"金达路","name:en":"JINDA LU","public_transport":"stop_position","railway":"station","station":"subway","subway":"yes","wikidata":"Q86728599","wikipedia":"zh:金达路站"}},{"type":"node","id":7415606422,"lat":34.7961149,"lon":113.7116738,"tags":{"name":"小营","name:en":"Xiaoying","public_transport":"stop_position","railway":"stop","subway":"yes"}},{"type":"node","id":7415606425,"lat":34.8130149,"lon":113.7195892,"tags":{"name":"金融岛西","name:en":"Jinrongdao Xi","public_transport":"stop_position","railway":"stop","subway":"yes"}},{"type":"node","id":7415704886,"lat":34.4435154,"lon":113.8338153,"tags":{"name":"龙王","name:en":"Longwang","public_transport":"stop_position","railway":"stop","subway":"yes"}},{"type":"node","id":8241861388,"lat":34.8348441,"lon":113.6199516,"tags":{"name":"省体育中心","name:en":"Henan Sports Center","public_transport":"stop_position","railway":"stop","subway":"yes"}},{"type":"node","id":8358874567,"lat":34.7454616,"lon":113.7681111,"tags":{"name":"省骨科医院","name:en":"Henan Orthopaedics Hospital","public_transport":"stop_position","railway":"stop","subway":"yes"}},{"type":"node","id":8358896539,"lat":34.7537823,"lon":113.6583018,"tags":{"name":"二七广场","name:en":"Erqi Square","public_transport":"stop_position","railway":"stop","subway":"yes"}},{"type":"node","id":8358896541,"lat":34.7511979,"lon":113.6713576,"tags":{"name":"西大街","name:en":"Xidajie","public_transport":"stop_position","railway":"stop","subway":"yes"}},{"type":"node","id":8358896553,"lat":34.7479498,"lon":113.7076075,"tags":{"name":"凤凰台","name:en":"Fenghuangtai","public_transport":"stop_position","railway":"stop","subway":"yes"}},{"type":"node","id":8358926262,"lat":34.8334563,"lon":113.6208513,"tags":{"name":"省体育中心","name:en":"Henan Sports Center","public_transport":"stop_position","railway":"stop","subway":"yes"}},{"type":"node","id":8734880701,"lat":34.8091318,"lon":113.5504926,"tags":{"name":"银屏路","name:en":"Yinping Lu","public_transport":"stop_position","railway":"stop","subway":"yes"}},{"type":"node","id":8735070575,"lat":34.5113398,"lon":113.8952397,"tags":{"name":"机场东","name:en":"Jichangdong","public_transport":"stop_position","railway":"stop","subway":"yes"}},{"type":"node","id":8735070576,"lat":34.5111941,"lon":113.8951702,"tags":{"name":"机场东","name:en":"Jichangdong","public_transport":"stop_position","railway":"stop","subway":"yes"}},{"type":"node","id":8735070608,"lat":34.5573162,"lon":113.8274855,"tags":{"name":"枣园","name:en":"Zaoyuan","public_transport":"stop_position","railway":"stop","subway":"yes"}},{"type":"node","id":8735081743,"lat":34.5866829,"lon":113.8305674,"tags":{"name":"港区北","name:en":"Gangqu North","name:zh":"港区北","public_transport":"stop_position","railway":"stop","subway":"yes"}},{"type":"node","id":8735081756,"lat":34.5978447,"lon":113.8406393,"tags":{"name":"长安路北","name:en":"Chang'an Lu Bei","public_transport":"stop_position","railway":"stop","subway":"yes"}},{"type":"node","id":8735192138,"lat":34.749007,"lon":113.5353689,"tags":{"name":"市委党校","name:en":"Shiwei Dangxiao","public_transport":"stop_position","railway":"stop","subway":"yes"}},{"type":"node","id":8735234635,"lat":34.7443306,"lon":113.8149349,"tags":{"name":"圃田","name:en":"Putian","public_transport":"stop_position","railway":"stop","subway":"yes"}},{"type":"node","id":8735234641,"lat":34.7930874,"lon":113.768682,"tags":{"name":"高铁公园","name:en":"Gaotie Gongyuan","public_transport":"stop_position","railway":"stop","subway":"yes"}},{"type":"node","id":8898485410,"lat":34.7680554,"lon":113.7192581,"tags":{"name":"会展中心","name:en":"Convention and Exhibition Center","name:zh":"会展中心","public_transport":"stop_position","railway":"stop","subway":"yes"}},{"type":"node","id":8898485411,"lat":34.8203802,"lon":113.6772115,"tags":{"name":"沙门","name:en":"Shamen","public_transport":"stop_position","railway":"stop","subway":"yes"}},{"type":"node","id":8898485412,"lat":34.7480508,"lon":113.6853169,"tags":{"name":"郑州文庙","name:en":"Zhengzhouwenmiao","public_transport":"stop_position","railway":"stop","subway":"yes"}},{"type":"node","id":8898485413,"lat":34.7216139,"lon":113.7962222,"tags":{"name":"营岗","name:en":"Yinggang","public_transport":"stop_position","railway":"stop","subway":"yes"}},{"type":"node","id":8898766963,"lat":34.5520805,"lon":113.8515116,"tags":{"name":"综合保税区","name:en":"ZONGHE BAOSHUIQU","name:zh":"综合保税区","public_transport":"stop_position","railway":"stop","subway":"yes","wikidata":"Q19269035"}},{"type":"node","id":8898766967,"lat":34.569921,"lon":113.854116,"tags":{"name":"恩平湖","name:en":"Enpinghu","name:zh":"恩平湖","public_transport":"stop_position","railway":"stop","subway":"yes","wikidata":"Q22934482"}},{"type":"node","id":8898766989,"lat":34.5859326,"lon":113.8321364,"tags":{"name":"港区北","name:en":"Gangqu North","public_transport":"stop_position","railway":"stop","subway":"yes"}},{"type":"node","id":8914768649,"lat":34.7224023,"lon":113.7158672,"tags":{"name":"七里河","name:en":"Qilihe","public_transport":"stop_position","railway":"stop","subway":"yes"}},{"type":"node","id":8986930250,"lat":34.7479919,"lon":113.719646,"tags":{"name":"东十里铺","name:en":"Dongshilipu","public_transport":"stop_position","railway":"stop","subway":"yes"}},{"type":"node","id":9006301331,"lat":34.7790969,"lon":113.7232428,"tags":{"name":"中央商务区","name:en":"Central Business District","public_transport":"stop_position","railway":"stop","subway":"yes"}},{"type":"node","id":9166743745,"lat":34.8031288,"lon":113.7324916,"tags":{"name":"龙湖南","name:en":"Longhunan","public_transport":"stop_position","railway":"stop","subway":"yes"}},{"type":"node","id":9166743750,"lat":34.8102964,"lon":113.7309462,"tags":{"name":"金融岛南","name:en":"Jinrongdao Nan","public_transport":"stop_position","railway":"stop","subway":"yes","wikipedia":"zh:金融岛南站"}},{"type":"node","id":9166743763,"lat":34.825238,"lon":113.7286332,"tags":{"name":"龙湖北","name:en":"Longhubei","public_transport":"stop_position","railway":"stop","subway":"yes","wikipedia":"zh:龙湖北站"}},{"type":"node","id":9166743764,"lat":34.8304701,"lon":113.7199143,"tags":{"name":"龙湖中环北","name:en":"Longhuzhonghuanbei","public_transport":"stop_position","railway":"stop","subway":"yes"}},{"type":"node","id":9166743765,"lat":34.8305525,"lon":113.7076284,"tags":{"name":"清华附中","name:en":"Qinghuafuzhong","public_transport":"stop_position","railway":"stop","subway":"yes"}},{"type":"node","id":9166743766,"lat":34.831182,"lon":113.7076132,"tags":{"name":"清华附中","name:en":"Qinghuafuzhong","public_transport":"stop_position","railway":"stop","subway":"yes"}},{"type":"node","id":9166743767,"lat":34.8272969,"lon":113.6976137,"tags":{"name":"森林公园北","name:en":"Senlingongyuanbei","public_transport":"stop_position","railway":"stop","subway":"yes"}},{"type":"node","id":9166743768,"lat":34.8205151,"lon":113.6921748,"tags":{"name":"杨君刘","name:en":"Yangjunliu","public_transport":"stop_position","railway":"stop","subway":"yes"}},{"type":"node","id":9166743769,"lat":34.831902,"lon":113.6347666,"tags":{"name":"北二十里铺","name:en":"Beiershilipu","name:zh":"北二十里铺","public_transport":"stop_position","railway":"stop","subway":"yes"}},{"type":"node","id":9166743770,"lat":34.8308687,"lon":113.6480249,"tags":{"name":"丰庆路","name:en":"Fengqinglu","public_transport":"stop_position","railway":"stop","subway":"yes"}},{"type":"node","id":9166743771,"lat":34.8254034,"lon":113.6552145,"tags":{"name":"张家村","name:en":"Zhangjiacun","public_transport":"stop_position","railway":"stop","subway":"yes"}},{"type":"node","id":9166743772,"lat":34.8205466,"lon":113.6637069,"tags":{"name":"陈寨东","name:en":"Chenzhaidong","public_transport":"stop_position","railway":"stop","subway":"yes"}},{"type":"node","id":9166821254,"lat":34.6862804,"lon":113.7325492,"tags":{"name":"郎庄","name:en":"Langzhuang","public_transport":"stop_position","railway":"stop","subway":"yes"}},{"type":"node","id":9166821264,"lat":34.6915921,"lon":113.7276824,"tags":{"name":"姚庄","name:en":"Yaozhuang","public_transport":"stop_position","railway":"stop","subway":"yes"}},{"type":"node","id":9166821269,"lat":34.7014352,"lon":113.7206701,"tags":{"name":"金岱","name:en":"Jindai","public_transport":"stop_position","railway":"stop","subway":"yes"}},{"type":"node","id":9166821274,"lat":34.7128049,"lon":113.7159282,"tags":{"name":"果树所","name:en":"Guoshusuo","public_transport":"stop_position","railway":"stop","subway":"yes"}},{"type":"node","id":9166821280,"lat":34.7419717,"lon":113.7194774,"tags":{"name":"货站街","name:en":"Huozhanjie","public_transport":"stop_position","railway":"stop","subway":"yes"}},{"type":"node","id":9166821292,"lat":34.7559475,"lon":113.7199534,"tags":{"name":"商鼎路","name:en":"Shangdinglu","public_transport":"stop_position","railway":"stop","subway":"yes"}},{"type":"node","id":9166941252,"lat":34.7490734,"lon":113.7278951,"tags":{"name":"通泰路","name:en":"Tongtailu","public_transport":"stop_position","railway":"stop","subway":"yes"}},{"type":"node","id":9166941253,"lat":34.7488881,"lon":113.7408892,"tags":{"name":"西周","name:en":"Xizhou","public_transport":"stop_position","railway":"stop","subway":"yes"}},{"type":"node","id":9166941258,"lat":34.7475265,"lon":113.7525373,"tags":{"name":"东周","name:en":"Dongzhou","public_transport":"stop_position","railway":"stop","subway":"yes"}},{"type":"node","id":9166941262,"lat":34.7429738,"lon":113.7874242,"tags":{"name":"圃田西","name:en":"Putianxi","public_transport":"stop_position","railway":"stop","subway":"yes"}},{"type":"node","id":9166941266,"lat":34.7480186,"lon":113.6980838,"tags":{"name":"博览中心","name:en":"Bolanzhongxin","public_transport":"stop_position","railway":"stop","subway":"yes"}},{"type":"node","id":9166941276,"lat":34.7593546,"lon":113.6539195,"tags":{"name":"人民公园","name:en":"People's Park","public_transport":"stop_position","railway":"stop","subway":"yes"}},{"type":"node","id":9166941281,"lat":34.7670801,"lon":113.6506306,"tags":{"name":"大石桥","name:en":"Dashiqiao","public_transport":"stop_position","railway":"stop","subway":"yes"}},{"type":"node","id":9166941285,"lat":34.7664788,"lon":113.6497791,"tags":{"name":"大石桥","name:en":"Dashiqiao","public_transport":"stop_position","railway":"stop","subway":"yes"}},{"type":"node","id":9166941294,"lat":34.7866756,"lon":113.6363628,"tags":{"name":"南阳新村","name:en":"Nanyangxincun","public_transport":"stop_position","railway":"stop","subway":"yes"}},{"type":"node","id":9166941299,"lat":34.7962892,"lon":113.6297877,"tags":{"name":"同乐","name:en":"Tongle","public_transport":"stop_position","railway":"stop","subway":"yes"}},{"type":"node","id":9166941302,"lat":34.807968,"lon":113.6220489,"tags":{"name":"兴隆铺","name:en":"Xinglongpu","public_transport":"stop_position","railway":"stop","subway":"yes"}},{"type":"node","id":9167219141,"lat":34.5871242,"lon":113.8123438,"tags":{"name":"孟庄","name:en":"Mengzhuang","public_transport":"stop_position","subway":"yes"}},{"type":"node","id":9167219142,"lat":34.586847,"lon":113.8123351,"tags":{"name":"孟庄","name:en":"Mengzhuang","public_transport":"stop_position","subway":"yes"}},{"type":"node","id":9167698311,"lat":34.6640535,"lon":113.6758415,"tags":{"name":"南四环","name:en":"Nansihuan","public_transport":"stop_position","railway":"stop","subway":"yes","wikidata":"Q28415062"}},{"type":"node","id":9167747128,"lat":34.6489794,"lon":113.6776051,"tags":{"name":"十八里河","name:en":"Shibalihe","public_transport":"stop_position","railway":"stop","subway":"yes"}},{"type":"node","id":9167747168,"lat":34.6278449,"lon":113.6755881,"tags":{"name":"沙窝李","name:en":"Shawoli","public_transport":"stop_position","railway":"stop","subway":"yes"}},{"type":"node","id":9167747178,"lat":34.6127868,"lon":113.6770298,"tags":{"name":"后胡","name:en":"Shuanghudadao","public_transport":"stop_position","railway":"stop","subway":"yes"}},{"type":"node","id":9167747195,"lat":34.601721,"lon":113.6896469,"tags":{"name":"小乔","name:en":"Xiaoqiao","public_transport":"stop_position","railway":"stop","subway":"yes"}},{"type":"node","id":9167747246,"lat":34.5951604,"lon":113.7198257,"tags":{"name":"华南城西","name:en":"Huanancheng West","public_transport":"stop_position","railway":"stop","subway":"yes"}},{"type":"node","id":9167747257,"lat":34.5952255,"lon":113.7430564,"tags":{"name":"华南城","name:en":"Hunancheng","public_transport":"stop_position","railway":"stop","subway":"yes"}},{"type":"node","id":9167747277,"lat":34.5952686,"lon":113.767844,"tags":{"name":"华南城东","name:en":"Huanancheng East","public_transport":"stop_position","railway":"stop","subway":"yes"}},{"type":"node","id":9167747282,"lat":34.5859998,"lon":113.8470355,"tags":{"name":"康平湖","name:en":"Kangpinghu","public_transport":"stop_position","railway":"stop","subway":"yes"}},{"type":"node","id":9167747283,"lat":34.5860616,"lon":113.8470329,"tags":{"name":"康平湖","name:en":"Kangpinghu","public_transport":"stop_position","railway":"stop","subway":"yes"}},{"type":"node","id":9167747291,"lat":34.5779735,"lon":113.853215,"tags":{"name":"兰河公园","name:en":"Lanhegongyuan","public_transport":"stop_position","railway":"stop","subway":"yes"}},{"type":"node","id":9167747292,"lat":34.577973,"lon":113.8532874,"tags":{"name":"兰河公园","name:en":"Lanhegongyuan","public_transport":"stop_position","railway":"stop","subway":"yes"}},{"type":"node","id":9546951818,"lat":34.7489652,"lon":113.6978286,"tags":{"name":"博览中心","name:en":"Bolanzhongxin","public_transport":"stop_position","railway":"stop","subway":"yes"}},{"type":"node","id":9546951824,"lat":34.774506,"lon":113.7017605,"tags":{"name":"姚砦","name:en":"Yaozhai","public_transport":"stop_position","railway":"stop","subway":"yes"}},{"type":"node","id":9546951834,"lat":34.7871797,"lon":113.7100074,"tags":{"name":"金汇桥","name:en":"Jinhuiqiao","public_transport":"stop_position","railway":"stop","subway":"yes"}},{"type":"node","id":9546951836,"lat":34.7961409,"lon":113.7115164,"tags":{"name":"小营","name:en":"Xiaoying","public_transport":"stop_position","railway":"stop","subway":"yes"}},{"type":"node","id":9546951848,"lat":34.8130098,"lon":113.7194757,"tags":{"name":"金融岛西","name:en":"Jinrongdao Xi","public_transport":"stop_position","railway":"stop","subway":"yes"}},{"type":"node","id":9546951851,"lat":34.8311846,"lon":113.7075121,"tags":{"name":"清华附中","name:en":"Qinghuafuzhong","public_transport":"stop_position","railway":"stop","subway":"yes"}},{"type":"node","id":9546951869,"lat":34.6742869,"lon":113.4474769,"tags":{"name":"贾峪","name:en":"Jiayu","public_transport":"stop_position","railway":"stop","subway":"yes"}},{"type":"node","id":9546951974,"lat":34.6742601,"lon":113.4474742,"tags":{"name":"贾峪","name:en":"Jiayu","public_transport":"stop_position","railway":"stop","subway":"yes"}},{"type":"node","id":10065875835,"lat":34.7398178,"lon":113.5486183,"tags":{"name":"常庄","name:en":"Changzhuang","public_transport":"stop_position","subway":"yes"}},{"type":"node","id":10065875836,"lat":34.739849,"lon":113.5486134,"tags":{"name":"常庄","name:en":"Changzhuang","public_transport":"stop_position","subway":"yes"}},{"type":"node","id":10065875837,"lat":34.6696528,"lon":113.4761382,"tags":{"name":"洞林湖","name:en":"Donglinhu","public_transport":"stop_position","subway":"yes"}},{"type":"node","id":10065875838,"lat":34.6697583,"lon":113.47616,"tags":{"name":"洞林湖","name:en":"Donglinhu","public_transport":"stop_position","subway":"yes"}},{"type":"node","id":10065875839,"lat":34.6744714,"lon":113.493315,"tags":{"name":"洞林寺","name:en":"Donglinsi","public_transport":"stop_position","subway":"yes"}},{"type":"node","id":10065875840,"lat":34.6744454,"lon":113.4933364,"tags":{"name":"洞林寺","name:en":"Donglinsi","public_transport":"stop_position","subway":"yes"}},{"type":"node","id":10065875841,"lat":34.7396914,"lon":113.5348754,"tags":{"name":"奥体中心","name:en":"Olympic Sports Center","public_transport":"stop_position","subway":"yes"}},{"type":"node","id":10065875842,"lat":34.7397229,"lon":113.5348753,"tags":{"name":"奥体中心","name:en":"Olympic Sports Center","public_transport":"stop_position","subway":"yes"}},{"type":"node","id":10065875844,"lat":34.7409705,"lon":113.5147191,"tags":{"name":"奥体中心西","name:en":"Olympics Center West","public_transport":"stop_position","subway":"yes"}},{"type":"node","id":10065875845,"lat":34.7410019,"lon":113.514722,"tags":{"name":"奥体中心西","name:en":"Olympics Center West","public_transport":"stop_position","subway":"yes"}},{"type":"node","id":10065875846,"lat":34.7046102,"lon":113.5103976,"tags":{"name":"马寨","name:en":"Mazhai","public_transport":"stop_position","subway":"yes"}},{"type":"node","id":10065875847,"lat":34.7046096,"lon":113.5104358,"tags":{"name":"马寨","name:en":"Mazhai","public_transport":"stop_position","subway":"yes"}},{"type":"node","id":10065875848,"lat":34.6938277,"lon":113.5104407,"tags":{"name":"安宁路","name:en":"Anning Road","public_transport":"stop_position","subway":"yes"}},{"type":"node","id":10065875849,"lat":34.6938271,"lon":113.5104789,"tags":{"name":"安宁路","name:en":"Anning Road","public_transport":"stop_position","subway":"yes"}},{"type":"node","id":10065875850,"lat":34.7155159,"lon":113.5113601,"tags":{"name":"河南建院","name:en":"Henan Jianyuan","public_transport":"stop_position","subway":"yes"}},{"type":"node","id":10065875851,"lat":34.7155183,"lon":113.5113222,"tags":{"name":"河南建院","name:en":"Henan Jianyuan","public_transport":"stop_position","subway":"yes"}},{"type":"node","id":11180513977,"lat":34.6691038,"lon":113.7889776,"tags":{"name":"滨河新城南","name:en":"Binhe Xincheng Nan","public_transport":"stop_position","railway":"stop","subway":"yes"}},{"type":"node","id":11180513978,"lat":34.6691038,"lon":113.7890533,"tags":{"name":"滨河新城南","name:en":"Binhe Xincheng Nan","public_transport":"stop_position","railway":"stop","subway":"yes"}},{"type":"node","id":11180513980,"lat":34.6780662,"lon":113.7889762,"tags":{"name":"司赵","name:en":"Sizhao","public_transport":"stop_position","railway":"stop","subway":"yes"}},{"type":"node","id":11180513981,"lat":34.678064,"lon":113.789059,"tags":{"name":"司赵","name:en":"Sizhao","public_transport":"stop_position","railway":"stop","subway":"yes"}},{"type":"node","id":11180513983,"lat":34.6889862,"lon":113.7890489,"tags":{"name":"滨河新城","name:en":"BINHE XINCHENG","public_transport":"stop_position","railway":"stop","subway":"yes"}},{"type":"node","id":11180513984,"lat":34.6889862,"lon":113.788947,"tags":{"name":"滨河新城","name:en":"BINHE XINCHENG","public_transport":"stop_position","railway":"stop","subway":"yes"}},{"type":"node","id":11180513985,"lat":34.6966896,"lon":113.7890308,"tags":{"name":"潮河","name:en":"Chaohe","public_transport":"stop_position","railway":"stop","subway":"yes"}},{"type":"node","id":11180513986,"lat":34.6966872,"lon":113.7889457,"tags":{"name":"潮河","name:en":"Chaohe","public_transport":"stop_position","railway":"stop","subway":"yes"}},{"type":"node","id":11180514005,"lat":34.7215962,"lon":113.7961025,"tags":{"name":"营岗","name:en":"Yinggang","public_transport":"stop_position","railway":"stop","subway":"yes"}},{"type":"node","id":11180565945,"lat":34.7428694,"lon":113.7873946,"tags":{"name":"圃田西","name:en":"Putianxi","public_transport":"stop_position","railway":"stop","subway":"yes"}},{"type":"node","id":11180565948,"lat":34.7453794,"lon":113.7680824,"tags":{"name":"省骨科医院","name:en":"Henan Orthopaedics Hospital","public_transport":"stop_position","railway":"stop","subway":"yes"}},{"type":"node","id":11180565950,"lat":34.7474775,"lon":113.752523,"tags":{"name":"东周","name:en":"Dongzhou","public_transport":"stop_position","railway":"stop","subway":"yes"}},{"type":"node","id":11180568859,"lat":34.7478963,"lon":113.7196632,"tags":{"name":"东十里铺","name:en":"Dongshilipu","public_transport":"stop_position","railway":"stop","subway":"yes"}},{"type":"node","id":11180568862,"lat":34.748985,"lon":113.7279298,"tags":{"name":"通泰路","name:en":"Tongtailu","public_transport":"stop_position","railway":"stop","subway":"yes"}},{"type":"node","id":11180568867,"lat":34.7488219,"lon":113.7408902,"tags":{"name":"西周","name:en":"Xizhou","public_transport":"stop_position","railway":"stop","subway":"yes"}},{"type":"node","id":11180568870,"lat":34.7479955,"lon":113.6853431,"tags":{"name":"郑州文庙","name:en":"Zhengzhouwenmiao","public_transport":"stop_position","railway":"stop","subway":"yes"}},{"type":"node","id":11180568873,"lat":34.747937,"lon":113.6980835,"tags":{"name":"博览中心","name:en":"Bolanzhongxin","public_transport":"stop_position","railway":"stop","subway":"yes"}},{"type":"node","id":11180568875,"lat":34.7478742,"lon":113.7076067,"tags":{"name":"凤凰台","name:en":"Fenghuangtai","public_transport":"stop_position","railway":"stop","subway":"yes"}},{"type":"node","id":11180568876,"lat":34.7497178,"lon":113.6774385,"tags":{"name":"东大街","name:en":"Dongdajie","public_transport":"stop_position","railway":"stop","subway":"yes"}},{"type":"node","id":11180603328,"lat":34.7511216,"lon":113.6713338,"tags":{"name":"西大街","name:en":"Xidajie","public_transport":"stop_position","railway":"stop","subway":"yes"}},{"type":"node","id":11180603334,"lat":34.7537203,"lon":113.6582584,"tags":{"name":"二七广场","name:en":"Erqi Square","public_transport":"stop_position","railway":"stop","subway":"yes"}},{"type":"node","id":11180604444,"lat":34.7593458,"lon":113.6538405,"tags":{"name":"人民公园","name:en":"People's Park","public_transport":"stop_position","railway":"stop","subway":"yes"}},{"type":"node","id":11180604453,"lat":34.7664264,"lon":113.6497021,"tags":{"name":"大石桥","name:en":"Dashiqiao","public_transport":"stop_position","railway":"stop","subway":"yes"}},{"type":"node","id":11180604459,"lat":34.7756008,"lon":113.6433399,"tags":{"name":"海滩寺","name:en":"Haitansi","public_transport":"stop_position","railway":"stop","subway":"yes"}},{"type":"node","id":11180604462,"lat":34.7866246,"lon":113.6362964,"tags":{"name":"南阳新村","name:en":"Nanyangxincun","public_transport":"stop_position","railway":"stop","subway":"yes"}},{"type":"node","id":11180604464,"lat":34.7962505,"lon":113.629725,"tags":{"name":"同乐","name:en":"Tongle","public_transport":"stop_position","railway":"stop","subway":"yes"}},{"type":"node","id":11180604469,"lat":34.8079234,"lon":113.6219841,"tags":{"name":"兴隆铺","name:en":"Xinglongpu","public_transport":"stop_position","railway":"stop","subway":"yes"}},{"type":"node","id":11180604476,"lat":34.8210876,"lon":113.6198384,"tags":{"name":"王砦","name:en":"Wangzhai","public_transport":"stop_position","railway":"stop","subway":"yes"}},{"type":"node","id":11180604478,"lat":34.8348375,"lon":113.6198518,"tags":{"name":"省体育中心","name:en":"Henan Sports Center","public_transport":"stop_position","railway":"stop","subway":"yes"}},{"type":"node","id":11232456261,"lat":34.7479426,"lon":113.6489804,"tags":{"name":"郑州火车站","name:en":"Zhengzhou Railway Station","public_transport":"stop_position","railway":"stop","subway":"yes"}},{"type":"node","id":11311327146,"lat":34.7479811,"lon":113.6489546,"tags":{"name":"郑州火车站","name:en":"Zhengzhou Railway Station","public_transport":"stop_position","railway":"stop","subway":"yes"}},{"type":"node","id":11311327151,"lat":34.7459219,"lon":113.639476,"tags":{"name":"医学院","name:en":"Yixueyuan","public_transport":"stop_position","railway":"stop","subway":"yes"}},{"type":"node","id":11311327166,"lat":34.7458797,"lon":113.639476,"tags":{"name":"医学院","name:en":"Yixueyuan","public_transport":"stop_position","railway":"stop","subway":"yes"}},{"type":"node","id":11311327168,"lat":34.7483371,"lon":113.6236591,"tags":{"name":"绿城广场","name:en":"LUCHENG GUANGCHANG","public_transport":"stop_position","railway":"stop","subway":"yes"}},{"type":"node","id":11311342469,"lat":34.7482696,"lon":113.6236456,"tags":{"name":"绿城广场","name:en":"LUCHENG GUANGCHANG","public_transport":"stop_position","railway":"stop","subway":"yes"}},{"type":"node","id":11311342476,"lat":34.7487168,"lon":113.6089874,"tags":{"name":"市中心医院","name:en":"Zhengzhou Central Hospital","public_transport":"stop_position","railway":"stop","subway":"yes"}},{"type":"node","id":11311342477,"lat":34.7486441,"lon":113.6089847,"tags":{"name":"市中心医院","name:en":"Zhengzhou Central Hospital","public_transport":"stop_position","railway":"stop","subway":"yes"}},{"type":"node","id":11311342481,"lat":34.7486461,"lon":113.5923013,"tags":{"name":"二砂","name:en":"ERSHA","public_transport":"stop_position","railway":"stop","subway":"yes"}},{"type":"node","id":11311342482,"lat":34.7487154,"lon":113.5923067,"tags":{"name":"二砂","name:en":"ERSHA","public_transport":"stop_position","railway":"stop","subway":"yes"}},{"type":"node","id":11311342485,"lat":34.748718,"lon":113.5764388,"tags":{"name":"西流湖公园南","name:en":"XILIUHU GONGYUAN NAN","public_transport":"stop_position","railway":"stop","subway":"yes"}},{"type":"node","id":11311342486,"lat":34.7486318,"lon":113.5764414,"tags":{"name":"西流湖公园南","name:en":"XILIUHU GONGYUAN NAN","public_transport":"stop_position","railway":"stop","subway":"yes"}},{"type":"node","id":11311342492,"lat":34.7492093,"lon":113.5505487,"tags":{"name":"郑州一中","name:en":"ZHENGZHOU YIZHONG","public_transport":"stop_position","railway":"stop","subway":"yes"}},{"type":"node","id":11311342493,"lat":34.7490965,"lon":113.5505527,"tags":{"name":"郑州一中","name:en":"ZHENGZHOU YIZHONG","public_transport":"stop_position","railway":"stop","subway":"yes"}},{"type":"node","id":11311342495,"lat":34.7491423,"lon":113.5353634,"tags":{"name":"市委党校","name:en":"Shiwei Dangxiao","public_transport":"stop_position","railway":"stop","subway":"yes"}},{"type":"node","id":11311342502,"lat":34.7491246,"lon":113.500413,"tags":{"name":"柳湖","name:en":"Liuhu","public_transport":"stop_position","railway":"stop","subway":"yes"}},{"type":"node","id":11311342503,"lat":34.7490377,"lon":113.500417,"tags":{"name":"柳湖","name:en":"Liuhu","public_transport":"stop_position","railway":"stop","subway":"yes"}},{"type":"node","id":11311342508,"lat":34.7503485,"lon":113.4761644,"tags":{"name":"庙王","name:en":"MIAOWANG","public_transport":"stop_position","railway":"stop","subway":"yes"}},{"type":"node","id":11311342509,"lat":34.7502279,"lon":113.4761611,"tags":{"name":"庙王","name:en":"MIAOWANG","public_transport":"stop_position","railway":"stop","subway":"yes"}},{"type":"node","id":11311342514,"lat":34.7505674,"lon":113.4405768,"tags":{"name":"李商隐公园","name:en":"LISHANGYIN GONGYUAN","public_transport":"stop_position","railway":"stop","subway":"yes"}},{"type":"node","id":11311342515,"lat":34.7504933,"lon":113.4405795,"tags":{"name":"李商隐公园","name:en":"LISHANGYIN GONGYUAN","public_transport":"stop_position","railway":"stop","subway":"yes"}},{"type":"node","id":11311342526,"lat":34.7509095,"lon":113.421301,"tags":{"name":"郑州西站","name:en":"ZHENGZHOUXI RAILWAY STATION","public_transport":"stop_position","railway":"stop","subway":"yes"}},{"type":"node","id":11311342527,"lat":34.7507972,"lon":113.4213039,"tags":{"name":"郑州西站","name:en":"ZHENGZHOUXI RAILWAY STATION","public_transport":"stop_position","railway":"stop","subway":"yes"}},{"type":"node","id":11313377569,"lat":34.7398266,"lon":113.5350412,"tags":{"name":"奥体中心","name:en":"Olympic Sports Center","public_transport":"stop_position","railway":"stop","subway":"yes"}},{"type":"node","id":11313377571,"lat":34.7240869,"lon":113.5351719,"tags":{"name":"莲湖","name:en":"Lianhu","name:zh":"莲湖","public_transport":"stop_position","railway":"stop","subway":"yes"}},{"type":"node","id":11313377573,"lat":34.7497558,"lon":113.5350187,"tags":{"name":"市委党校","name:en":"Shiwei Dangxiao","public_transport":"stop_position","railway":"stop","subway":"yes"}},{"type":"node","id":11313377575,"lat":34.7590467,"lon":113.5349647,"tags":{"name":"市民大道","name:en":"Shimindadao","public_transport":"stop_position","railway":"stop","subway":"yes"}},{"type":"node","id":11313377576,"lat":34.7689637,"lon":113.5345566,"tags":{"name":"铁炉","name:en":"Tielu","name:zh":"铁炉","public_transport":"stop_position","railway":"stop","subway":"yes"}},{"type":"node","id":11313377584,"lat":34.7756037,"lon":113.515699,"tags":{"construction:public_transport":"stop_position","name":"须水","name:en":"Xushui","railway":"stop","subway":"yes"}},{"type":"node","id":11316674350,"lat":34.7354404,"lon":113.5064925,"tags":{"name":"金桢路","name:en":"Jinzhen Road","public_transport":"stop_position","subway":"yes"}},{"type":"node","id":11316674351,"lat":34.7354404,"lon":113.5064543,"tags":{"name":"金桢路","name:en":"Jinzhen Road","public_transport":"stop_position","subway":"yes"}},{"type":"node","id":11317055950,"lat":34.498634,"lon":113.9177879,"tags":{"name":"港区会展","name:en":"Gangquhuizhan","public_transport":"stop_position","railway":"stop","station":"subway","subway":"yes"}},{"type":"node","id":11317055951,"lat":34.4986356,"lon":113.9178893,"tags":{"name":"港区会展","name:en":"Gangquhuizhan","public_transport":"stop_position","railway":"stop","station":"subway","subway":"yes"}},{"type":"node","id":11323093806,"lat":34.1427853,"lon":113.8262134,"tags":{"name":"农大路","name:en":"Nongda Lu","public_transport":"stop_position","railway":"stop","subway":"yes"}},{"type":"node","id":11323120389,"lat":34.1735201,"lon":113.819658,"tags":{"name":"永和路","name:en":"Yonghe Lu","public_transport":"stop_position","railway":"stop","subway":"yes"}},{"type":"node","id":11323120392,"lat":34.1427751,"lon":113.8261576,"tags":{"name":"农大路","name:en":"Nongda Lu","public_transport":"stop_position","railway":"stop","subway":"yes"}},{"type":"node","id":11323120403,"lat":34.1241731,"lon":113.8343708,"tags":{"name":"体育中心","name:en":"Xuchang Sports Center","public_transport":"stop_position","railway":"stop","subway":"yes"}},{"type":"node","id":11323120409,"lat":34.1089359,"lon":113.8453567,"tags":{"name":"电气谷","name:en":"Dianqigu","public_transport":"stop_position","railway":"stop","subway":"yes"}},{"type":"node","id":11323120417,"lat":34.089711,"lon":113.8567496,"tags":{"name":"芙蓉湖","name:en":"Furonghu","public_transport":"stop_position","railway":"stop","subway":"yes"}},{"type":"node","id":11323124975,"lat":34.5979518,"lon":113.8406344,"tags":{"name":"长安路北","name:en":"Chang'an Lu Bei","public_transport":"stop_position","railway":"stop","subway":"yes"}},{"type":"node","id":11323124985,"lat":34.5866929,"lon":113.8304297,"tags":{"name":"港区北","name:en":"Gangqu North","name:zh":"港区北","public_transport":"stop_position","railway":"stop","subway":"yes"}},{"type":"node","id":11323124990,"lat":34.5573434,"lon":113.8273575,"tags":{"name":"枣园","name:en":"Zaoyuan","public_transport":"stop_position","railway":"stop","subway":"yes"}},{"type":"node","id":11323124994,"lat":34.5408491,"lon":113.8227627,"tags":{"name":"翱翔路","name:en":"Aoxiang Lu","public_transport":"stop_position","railway":"stop","subway":"yes"}},{"type":"node","id":11323125042,"lat":34.4434579,"lon":113.8336151,"tags":{"name":"龙王","name:en":"Longwang","public_transport":"stop_position","railway":"stop","subway":"yes"}},{"type":"node","id":11323125046,"lat":34.424696,"lon":113.8416912,"tags":{"name":"龙王南","name:en":"Longwang Nan","public_transport":"stop_position","railway":"stop","subway":"yes"}},{"type":"node","id":11435036689,"lat":34.7213274,"lon":113.740791,"tags":{"name":"福塔东","name:en":"Futa Dong","public_transport":"stop_position","railway":"stop","subway":"yes"}},{"type":"node","id":11435036691,"lat":34.7314502,"lon":113.7408124,"tags":{"name":"经北五路","name:en":"Jingbeiwu Lu","public_transport":"stop_position","railway":"stop","subway":"yes"}},{"type":"node","id":11435036700,"lat":34.7631117,"lon":113.7383386,"tags":{"name":"黄河南路","name:en":"South Huanghe Road","public_transport":"stop_position","railway":"stop","subway":"yes"}},{"type":"node","id":11435036711,"lat":34.7760757,"lon":113.7439238,"tags":{"name":"儿童医院","name:en":"Children's Hospital","public_transport":"stop_position","railway":"stop","subway":"yes"}},{"type":"node","id":11435036716,"lat":34.7827466,"lon":113.7547009,"tags":{"name":"东风东路","name:en":"Dongfengdong Lu","public_transport":"stop_position","railway":"stop","subway":"yes"}},{"type":"node","id":11435036723,"lat":34.7938355,"lon":113.7678759,"tags":{"name":"高铁公园","name:en":"Gaotie Gongyuan","public_transport":"stop_position","railway":"stop","subway":"yes"}},{"type":"node","id":11435036746,"lat":34.793917,"lon":113.7678491,"tags":{"name":"高铁公园","name:en":"Gaotie Gongyuan","public_transport":"stop_position","railway":"stop","subway":"yes"}},{"type":"node","id":11435036751,"lat":34.7828611,"lon":113.7545748,"tags":{"name":"东风东路","name:en":"Dongfengdong Lu","public_transport":"stop_position","railway":"stop","subway":"yes"}},{"type":"node","id":11435036755,"lat":34.7761683,"lon":113.7438567,"tags":{"name":"儿童医院","name:en":"Children's Hospital","public_transport":"stop_position","railway":"stop","subway":"yes"}},{"type":"node","id":11435044576,"lat":34.7314679,"lon":113.7406783,"tags":{"name":"经北五路","name:en":"Jingbeiwu Lu","public_transport":"stop_position","railway":"stop","subway":"yes"}},{"type":"node","id":11435044578,"lat":34.7213097,"lon":113.7406837,"tags":{"name":"福塔东","name:en":"Futa Dong","public_transport":"stop_position","railway":"stop","subway":"yes"}},{"type":"node","id":11435044587,"lat":34.703752,"lon":113.7374085,"tags":{"name":"梁湖","name:en":"Lianghu","public_transport":"stop_position","railway":"stop","subway":"yes"}},{"type":"node","id":11435044589,"lat":34.7037548,"lon":113.7375604,"tags":{"name":"梁湖","name:en":"Lianghu","public_transport":"stop_position","railway":"stop","subway":"yes"}},{"type":"node","id":11435085683,"lat":34.7941099,"lon":113.7878122,"tags":{"name":"龙子湖西","name:en":"Longzihu Xi","public_transport":"stop_position","railway":"stop","subway":"yes"}},{"type":"node","id":11435085684,"lat":34.7942254,"lon":113.7878247,"tags":{"name":"龙子湖西","name:en":"Longzihu Xi","public_transport":"stop_position","railway":"stop","subway":"yes"}},{"type":"node","id":11435085685,"lat":34.7956187,"lon":113.8205866,"tags":{"name":"龙子湖东","name:en":"Longzihu Dong","public_transport":"stop_position","railway":"stop","subway":"yes"}},{"type":"node","id":11435085686,"lat":34.7957417,"lon":113.8205709,"tags":{"name":"龙子湖东","name:en":"Longzihu Dong","public_transport":"stop_position","railway":"stop","subway":"yes"}},{"type":"node","id":11435085687,"lat":34.7937402,"lon":113.8041083,"tags":{"name":"龙子湖","name:en":"Longzihu","public_transport":"stop_position","railway":"stop","subway":"yes"}},{"type":"node","id":11435085688,"lat":34.7938707,"lon":113.8041141,"tags":{"name":"龙子湖","name:en":"Longzihu","public_transport":"stop_position","railway":"stop","subway":"yes"}},{"type":"node","id":11435725019,"lat":34.749994,"lon":113.7406838,"tags":{"name":"西周","name:en":"Xizhou","public_transport":"stop_position","railway":"stop","subway":"yes"}},{"type":"node","id":11435725020,"lat":34.7499777,"lon":113.74051,"tags":{"name":"西周","name:en":"Xizhou","public_transport":"stop_position","railway":"stop","subway":"yes"}},{"type":"node","id":11435725021,"lat":34.7631075,"lon":113.7381833,"tags":{"name":"黄河南路","name:en":"South Huanghe Road","public_transport":"stop_position","railway":"stop","subway":"yes"}},{"type":"node","id":11503239948,"lat":34.4871523,"lon":113.8329435,"tags":{"name":"遵大路","name:en":"Zunda Lu","public_transport":"stop_position","railway":"stop","subway":"yes"}},{"type":"node","id":11503239949,"lat":34.4870422,"lon":113.8329395,"tags":{"name":"遵大路","name:en":"Zunda Lu","public_transport":"stop_position","railway":"stop","subway":"yes"}},{"type":"node","id":11503255963,"lat":34.4246779,"lon":113.8418673,"tags":{"name":"龙王南","name:en":"Longwang Nan","public_transport":"stop_position","railway":"stop","subway":"yes"}},{"type":"node","id":11503270473,"lat":34.4685862,"lon":113.8286394,"tags":{"name":"苑陵故城西","name:en":"Yuanlinggucheng Xi","public_transport":"stop_position","railway":"stop","subway":"yes"}},{"type":"node","id":11503270474,"lat":34.468584,"lon":113.8287878,"tags":{"name":"苑陵故城西","name:en":"Yuanlinggucheng Xi","public_transport":"stop_position","railway":"stop","subway":"yes"}},{"type":"node","id":11503270480,"lat":34.4604824,"lon":113.8288227,"tags":{"name":"洵美路","name:en":"Xunmei Lu","public_transport":"stop_position","railway":"stop","subway":"yes"}},{"type":"node","id":11503270481,"lat":34.460478,"lon":113.8286637,"tags":{"name":"洵美路","name:en":"Xunmei Lu","public_transport":"stop_position","railway":"stop","subway":"yes"}},{"type":"node","id":11503299235,"lat":34.4138029,"lon":113.8419029,"tags":{"name":"双鹤湖北","name:en":"Shuanghehu Bei","public_transport":"stop_position","railway":"stop","subway":"yes"}},{"type":"node","id":11503299236,"lat":34.4138073,"lon":113.8416583,"tags":{"name":"双鹤湖北","name:en":"Shuanghehu Bei","public_transport":"stop_position","railway":"stop","subway":"yes"}},{"type":"node","id":11503299242,"lat":34.4044113,"lon":113.8416885,"tags":{"name":"双鹤湖","name:en":"Shuanghehu","public_transport":"stop_position","railway":"stop","subway":"yes"}},{"type":"node","id":11503299247,"lat":34.3938768,"lon":113.8417414,"tags":{"name":"双鹤湖南","name:en":"Shuanghehu Nan","public_transport":"stop_position","railway":"stop","subway":"yes"}},{"type":"node","id":11503326076,"lat":34.3817979,"lon":113.8419636,"tags":{"name":"八千","name:en":"Baqian","public_transport":"stop_position","railway":"stop","subway":"yes"}},{"type":"node","id":11503326077,"lat":34.3817978,"lon":113.8417691,"tags":{"name":"八千","name:en":"Baqian","public_transport":"stop_position","railway":"stop","subway":"yes"}},{"type":"node","id":11532959784,"lat":34.303976,"lon":113.839315,"tags":{"name":"双庙李","name:en":"Shuangmiaoli","public_transport":"stop_position","railway":"stop","subway":"yes"}},{"type":"node","id":11532959785,"lat":34.3039771,"lon":113.8393741,"tags":{"name":"双庙李","name:en":"Shuangmiaoli","public_transport":"stop_position","railway":"stop","subway":"yes"}},{"type":"node","id":11532959787,"lat":34.2773069,"lon":113.8395243,"tags":{"name":"大周","name:en":"Dazhou","public_transport":"stop_position","railway":"stop","subway":"yes"}},{"type":"node","id":11532959788,"lat":34.277309,"lon":113.8393461,"tags":{"name":"大周","name:en":"Dazhou","public_transport":"stop_position","railway":"stop","subway":"yes"}},{"type":"node","id":11532959802,"lat":34.2321639,"lon":113.8129518,"tags":{"name":"颍川路","name:en":"Yingchuan Lu","public_transport":"stop_position","railway":"stop","subway":"yes"}},{"type":"node","id":11532959803,"lat":34.2321617,"lon":113.8128943,"tags":{"name":"颍川路","name:en":"Yingchuan Lu","public_transport":"stop_position","railway":"stop","subway":"yes"}},{"type":"node","id":11533032426,"lat":34.1087996,"lon":113.8455199,"tags":{"name":"电气谷","name:en":"Dianqigu","public_transport":"stop_position","railway":"stop","subway":"yes"}},{"type":"node","id":11533032436,"lat":34.0897404,"lon":113.8568211,"tags":{"name":"芙蓉湖","name:en":"Furonghu","public_transport":"stop_position","railway":"stop","subway":"yes"}},{"type":"node","id":11533032439,"lat":34.0676579,"lon":113.8714349,"tags":{"name":"鹿鸣湖","name:en":"Luminghu","public_transport":"stop_position","railway":"stop","subway":"yes"}},{"type":"node","id":11533032440,"lat":34.0677731,"lon":113.8711659,"tags":{"name":"鹿鸣湖","name:en":"Luminghu","public_transport":"stop_position","railway":"stop","subway":"yes"}},{"type":"node","id":11533032446,"lat":34.0495829,"lon":113.8797694,"tags":{"name":"许昌东站","name:en":"Xuchangdong","public_transport":"stop_position","railway":"stop","subway":"yes"}},{"type":"node","id":11533032447,"lat":34.049572,"lon":113.8796602,"tags":{"name":"许昌东站","name:en":"Xuchangdong","public_transport":"stop_position","railway":"stop","subway":"yes"}},{"type":"node","id":11533073926,"lat":34.2000815,"lon":113.8152591,"tags":{"name":"葛天源","name:en":"Getianyuan","public_transport":"stop_position","railway":"stop","subway":"yes"}},{"type":"node","id":11533073927,"lat":34.2000726,"lon":113.8151383,"tags":{"name":"葛天源","name:en":"Getianyuan","public_transport":"stop_position","railway":"stop","subway":"yes"}},{"type":"node","id":11533073934,"lat":34.1735342,"lon":113.8198001,"tags":{"name":"永和路","name:en":"Yonghe Lu","public_transport":"stop_position","railway":"stop","subway":"yes"}},{"type":"node","id":11533073940,"lat":34.1242127,"lon":113.8344335,"tags":{"name":"体育中心","name:en":"Xuchang Sports Center","public_transport":"stop_position","railway":"stop","subway":"yes"}},{"type":"node","id":11754781732,"lat":34.5699144,"lon":113.8300268,"tags":{"name":"文体中心","public_transport":"stop_position","railway":"stop","subway":"yes"}},{"type":"node","id":11754781733,"lat":34.5699014,"lon":113.8301992,"tags":{"name":"文体中心","public_transport":"stop_position","railway":"stop","subway":"yes"}},{"type":"node","id":11754781735,"lat":34.5408279,"lon":113.822855,"tags":{"name":"翱翔路","name:en":"Aoxiang Lu","public_transport":"stop_position","railway":"stop","subway":"yes"}},{"type":"node","id":11754781739,"lat":34.5272617,"lon":113.8426251,"tags":{"name":"新郑机场","name:en":"XINZHENG INTERNATIONAL AIRPORT","public_transport":"stop_position","railway":"stop","subway":"yes"}},{"type":"node","id":11754781740,"lat":34.5272892,"lon":113.8427234,"tags":{"name":"新郑机场","name:en":"XINZHENG INTERNATIONAL AIRPORT","public_transport":"stop_position","railway":"stop","subway":"yes"}},{"type":"node","id":12385746551,"lat":34.765658,"lon":113.698224,"tags":{"name":"燕庄","name:en":"Yanzhuang","public_transport":"stop_position","railway":"stop","subway":"yes"}},{"type":"node","id":12385746552,"lat":34.7656402,"lon":113.6983649,"tags":{"name":"燕庄","name:en":"Yanzhuang","public_transport":"stop_position","railway":"stop","subway":"yes"}},{"type":"node","id":12385748256,"lat":34.7392028,"lon":113.6978395,"tags":{"name":"凤凰台南","name:en":"Fenghuangtai Nan","public_transport":"stop_position","railway":"stop","subway":"yes"}},{"type":"node","id":12385748257,"lat":34.73922,"lon":113.6979716,"tags":{"name":"凤凰台南","name:en":"Fenghuangtai Nan","public_transport":"stop_position","railway":"stop","subway":"yes"}},{"type":"node","id":12385748261,"lat":34.7301967,"lon":113.6768355,"tags":{"name":"二里岗","name:en":"Erligang","public_transport":"stop_position","railway":"stop","subway":"yes"}},{"type":"node","id":12385748262,"lat":34.7300607,"lon":113.6768258,"tags":{"name":"二里岗","name:en":"Erligang","public_transport":"stop_position","railway":"stop","subway":"yes"}},{"type":"node","id":12385748279,"lat":34.7288029,"lon":113.6856686,"tags":{"name":"二里岗东","name:en":"Erligang Dong","public_transport":"stop_position","railway":"stop","subway":"yes"}},{"type":"node","id":12385748280,"lat":34.7287163,"lon":113.6856594,"tags":{"name":"二里岗东","name:en":"Erligang Dong","public_transport":"stop_position","railway":"stop","subway":"yes"}},{"type":"node","id":12385748285,"lat":34.7304134,"lon":113.6691437,"tags":{"name":"陇秀公园","name:en":"Longxiu Gongyuan","public_transport":"stop_position","railway":"stop","subway":"yes"}},{"type":"node","id":12385748286,"lat":34.7302977,"lon":113.6691446,"tags":{"name":"陇秀公园","name:en":"Longxiu Gongyuan","public_transport":"stop_position","railway":"stop","subway":"yes"}},{"type":"node","id":12385762507,"lat":34.7302295,"lon":113.6490048,"tags":{"name":"火车头体育场","name:en":"Huochetou Tiyuchang","public_transport":"stop_position","railway":"stop","subway":"yes"}},{"type":"node","id":12385762508,"lat":34.7301186,"lon":113.6490009,"tags":{"name":"火车头体育场","name:en":"Huochetou Tiyuchang","public_transport":"stop_position","railway":"stop","subway":"yes"}},{"type":"node","id":12385762513,"lat":34.7300903,"lon":113.6385506,"tags":{"name":"大学中路","name:en":"Daxue Zhonglu","public_transport":"stop_position","railway":"stop","subway":"yes"}},{"type":"node","id":12385762514,"lat":34.7300011,"lon":113.6385479,"tags":{"name":"大学中路","name:en":"Daxue Zhonglu","public_transport":"stop_position","railway":"stop","subway":"yes"}},{"type":"node","id":12385762519,"lat":34.7302068,"lon":113.6228839,"tags":{"name":"嵩淮","name:en":"Songhuai","public_transport":"stop_position","railway":"stop","subway":"yes"}},{"type":"node","id":12385762520,"lat":34.7300795,"lon":113.6228822,"tags":{"name":"嵩淮","name:en":"Songhuai","public_transport":"stop_position","railway":"stop","subway":"yes"}},{"type":"node","id":12385762521,"lat":34.7301472,"lon":113.6064512,"tags":{"name":"桐淮","name:en":"Tonghuai","public_transport":"stop_position","railway":"stop","subway":"yes"}},{"type":"node","id":12385762522,"lat":34.7300186,"lon":113.6064495,"tags":{"name":"桐淮","name:en":"Tonghuai","public_transport":"stop_position","railway":"stop","subway":"yes"}},{"type":"node","id":12385762525,"lat":34.7301978,"lon":113.5978658,"tags":{"name":"卧龙岗","name:en":"Wolonggang","public_transport":"stop_position","railway":"stop","subway":"yes"}},{"type":"node","id":12385762526,"lat":34.7301062,"lon":113.5978657,"tags":{"name":"卧龙岗","name:en":"Wolonggang","public_transport":"stop_position","railway":"stop","subway":"yes"}},{"type":"node","id":12385762529,"lat":34.7301814,"lon":113.5856027,"tags":{"name":"李江沟","name:en":"Lijianggou","public_transport":"stop_position","railway":"stop","subway":"yes"}},{"type":"node","id":12385762530,"lat":34.7300595,"lon":113.5856026,"tags":{"name":"李江沟","name:en":"Lijianggou","public_transport":"stop_position","railway":"stop","subway":"yes"}},{"type":"node","id":12385762531,"lat":34.7285237,"lon":113.5675445,"tags":{"name":"冯湾","name:en":"Fengwan","public_transport":"stop_position","railway":"stop","subway":"yes"}},{"type":"node","id":12385762532,"lat":34.7283833,"lon":113.5675408,"tags":{"name":"冯湾","name:en":"Fengwan","public_transport":"stop_position","railway":"stop","subway":"yes"}},{"type":"node","id":12446938196,"lat":34.7213057,"lon":113.637702,"tags":{"name":"市第二人民医院","name:en":"Zhengzhou No.2 People's Hospital","public_transport":"stop_position","railway":"stop","subway":"yes","wikidata":"Q63978960"}},{"type":"node","id":12446938197,"lat":34.7212972,"lon":113.6378464,"tags":{"name":"市第二人民医院","name:en":"Zhengzhou No.2 People's Hospital","public_transport":"stop_position","railway":"stop","subway":"yes","wikidata":"Q63978960"}},{"type":"node","id":12446959272,"lat":34.8092437,"lon":113.5504934,"tags":{"name":"银屏路","name:en":"Yinping Lu","public_transport":"stop_position","railway":"stop","subway":"yes"}},{"type":"node","id":12446966719,"lat":34.7878461,"lon":113.6604434,"tags":{"name":"农业大学","name:en":"Nongye Daxue","public_transport":"stop_position","railway":"stop","subway":"yes"}},{"type":"node","id":12446980608,"lat":34.800324,"lon":113.6602538,"tags":{"name":"白庙","name:en":"Baimiao","public_transport":"stop_position","railway":"stop","subway":"yes"}},{"type":"node","id":12447034948,"lat":34.7443433,"lon":113.8147761,"tags":{"name":"圃田","name:en":"Putian","public_transport":"stop_position","railway":"stop","subway":"yes"}},{"type":"node","id":12447034972,"lat":34.7930791,"lon":113.7688168,"tags":{"name":"高铁公园","name:en":"Gaotie Gongyuan","public_transport":"stop_position","railway":"stop","subway":"yes"}},{"type":"node","id":12447034974,"lat":34.79632,"lon":113.7566634,"tags":{"name":"郑大一附院东区","name:en":"Zhengda Yifuyuan Dongqu","public_transport":"stop_position","railway":"stop","subway":"yes"}},{"type":"node","id":12466608876,"lat":34.8450277,"lon":113.6469022,"tags":{"name":"琉璃寺","name:en":"Liulisi","public_transport":"stop_position","railway":"stop","subway":"yes"}},{"type":"node","id":12466608877,"lat":34.8450519,"lon":113.6470215,"tags":{"name":"琉璃寺","name:en":"Liulisi","public_transport":"stop_position","railway":"stop","subway":"yes"}},{"type":"node","id":12466608880,"lat":34.8253481,"lon":113.6550149,"tags":{"name":"张家村","name:en":"Zhangjiacun","public_transport":"stop_position","railway":"stop","subway":"yes"}},{"type":"node","id":12466608881,"lat":34.8253639,"lon":113.6550667,"tags":{"name":"张家村","name:en":"Zhangjiacun","public_transport":"stop_position","railway":"stop","subway":"yes"}},{"type":"node","id":12466608882,"lat":34.7997569,"lon":113.6598473,"tags":{"name":"白庙","name:en":"Baimiao","public_transport":"stop_position","railway":"stop","subway":"yes"}},{"type":"node","id":12466608883,"lat":34.799769,"lon":113.659978,"tags":{"name":"白庙","name:en":"Baimiao","public_transport":"stop_position","railway":"stop","subway":"yes"}},{"type":"node","id":12466608884,"lat":34.8138417,"lon":113.6581591,"tags":{"name":"陈砦站","name:en":"CHENZHAI","public_transport":"stop_position","railway":"stop","subway":"yes"}},{"type":"node","id":12466608885,"lat":34.8138419,"lon":113.6582716,"tags":{"name":"陈砦站","name:en":"CHENZHAI","public_transport":"stop_position","railway":"stop","subway":"yes"}},{"type":"node","id":12466608887,"lat":34.7928692,"lon":113.7323838,"tags":{"name":"龙湖中环南","name:en":"Longhuzhonghuannan","public_transport":"stop_position","railway":"stop","subway":"yes"}},{"type":"node","id":12466608888,"lat":34.7929765,"lon":113.7323978,"tags":{"name":"龙湖中环南","name:en":"Longhuzhonghuannan","public_transport":"stop_position","railway":"stop","subway":"yes"}},{"type":"node","id":12466608889,"lat":34.7959341,"lon":113.7119605,"tags":{"name":"小营","name:en":"Xiaoying","public_transport":"stop_position","railway":"stop","subway":"yes"}},{"type":"node","id":12466608890,"lat":34.7960535,"lon":113.7120129,"tags":{"name":"小营","name:en":"Xiaoying","public_transport":"stop_position","railway":"stop","subway":"yes"}},{"type":"node","id":12466608891,"lat":34.7957499,"lon":113.6884769,"tags":{"name":"枣庄","name:en":"Zaozhuang","public_transport":"stop_position","railway":"stop","subway":"yes"}},{"type":"node","id":12466608892,"lat":34.7958837,"lon":113.6885099,"tags":{"name":"枣庄","name:en":"Zaozhuang","public_transport":"stop_position","railway":"stop","subway":"yes"}},{"type":"node","id":12466608893,"lat":34.7987881,"lon":113.6731768,"tags":{"name":"东风路","name:en":"Dongfenglu","public_transport":"stop_position","railway":"stop","subway":"yes"}},{"type":"node","id":12466608894,"lat":34.7989264,"lon":113.6732148,"tags":{"name":"东风路","name:en":"Dongfenglu","public_transport":"stop_position","railway":"stop","subway":"yes"}},{"type":"node","id":12466608895,"lat":34.8007111,"lon":113.6420859,"tags":{"name":"省中医院","name:en":"Sheng Zhongyiyuan","public_transport":"stop_position","railway":"stop","subway":"yes"}},{"type":"node","id":12466608896,"lat":34.8007981,"lon":113.6420873,"tags":{"name":"省中医院","name:en":"Sheng Zhongyiyuan","public_transport":"stop_position","railway":"stop","subway":"yes"}},{"type":"node","id":12466608897,"lat":34.7966564,"lon":113.6296505,"tags":{"name":"同乐","name:en":"Tongle","public_transport":"stop_position","railway":"stop","subway":"yes"}},{"type":"node","id":12466608898,"lat":34.7967192,"lon":113.6296109,"tags":{"name":"同乐","name:en":"Tongle","public_transport":"stop_position","railway":"stop","subway":"yes"}},{"type":"node","id":12466608899,"lat":34.7906607,"lon":113.6073796,"tags":{"name":"五龙口","name:en":"Wulongkou","public_transport":"stop_position","railway":"stop","subway":"yes"}},{"type":"node","id":12466608900,"lat":34.791994,"lon":113.5984871,"tags":{"name":"大学科技园","name:en":"Daxue Kejiyuan","public_transport":"stop_position","railway":"stop","subway":"yes"}},{"type":"node","id":12466637901,"lat":34.7920709,"lon":113.5985037,"tags":{"name":"大学科技园","name:en":"Daxue Kejiyuan","public_transport":"stop_position","railway":"stop","subway":"yes"}},{"type":"node","id":12466637902,"lat":34.7928897,"lon":113.5724654,"tags":{"name":"南流","name:en":"Nanliu","public_transport":"stop_position","railway":"stop","subway":"yes"}},{"type":"node","id":12466637903,"lat":34.7929861,"lon":113.5725295,"tags":{"name":"南流","name:en":"Nanliu","public_transport":"stop_position","railway":"stop","subway":"yes"}},{"type":"node","id":12466637904,"lat":34.8022667,"lon":113.562278,"tags":{"name":"冬青街","name:en":"Dongqing Jie","public_transport":"stop_position","railway":"stop","subway":"yes"}},{"type":"node","id":12466637905,"lat":34.8022656,"lon":113.5624029,"tags":{"name":"冬青街","name:en":"Dongqing Jie","public_transport":"stop_position","railway":"stop","subway":"yes"}},{"type":"node","id":12466637906,"lat":34.8088233,"lon":113.5346963,"tags":{"name":"郑州大学","name:en":"Zhengzhou University","public_transport":"stop_position","railway":"stop","subway":"yes"}},{"type":"node","id":12466637907,"lat":34.8089506,"lon":113.534696,"tags":{"name":"郑州大学","name:en":"Zhengzhou University","public_transport":"stop_position","railway":"stop","subway":"yes"}},{"type":"node","id":12466637908,"lat":34.8091794,"lon":113.5177454,"tags":{"name":"祥营","name:en":"Xiangying","public_transport":"stop_position","railway":"stop","subway":"yes"}},{"type":"node","id":12466637909,"lat":34.8090427,"lon":113.5177448,"tags":{"name":"祥营","name:en":"Xiangying","public_transport":"stop_position","railway":"stop","subway":"yes"}},{"type":"node","id":12466637910,"lat":34.8090665,"lon":113.4993052,"tags":{"name":"轻工业大学","name:en":"Qinggongye Daxue","public_transport":"stop_position","railway":"stop","subway":"yes"}},{"type":"node","id":12466637911,"lat":34.8089487,"lon":113.4993066,"tags":{"name":"轻工业大学","name:en":"Qinggongye Daxue","public_transport":"stop_position","railway":"stop","subway":"yes"}},{"type":"node","id":12466637912,"lat":34.8088953,"lon":113.4724,"tags":{"name":"天健湖","name:en":"Tianjianhu","public_transport":"stop_position","railway":"stop","subway":"yes"}},{"type":"node","id":12466637913,"lat":34.8090066,"lon":113.4723973,"tags":{"name":"天健湖","name:en":"Tianjianhu","public_transport":"stop_position","railway":"stop","subway":"yes"}},{"type":"node","id":12466815414,"lat":34.8686163,"lon":113.638588,"tags":{"name":"黄河迎宾馆","name:en":"Huangheyingbinguan","public_transport":"stop_position","railway":"stop","subway":"yes"}},{"type":"node","id":12466815415,"lat":34.8686085,"lon":113.638459,"tags":{"name":"黄河迎宾馆","name:en":"Huangheyingbinguan","public_transport":"stop_position","railway":"stop","subway":"yes"}},{"type":"node","id":12466815417,"lat":34.8815591,"lon":113.636894,"tags":{"name":"东赵","name:en":"Dongzhao","public_transport":"stop_position","railway":"stop","subway":"yes"}},{"type":"node","id":12466815418,"lat":34.8815634,"lon":113.637037,"tags":{"name":"东赵","name:en":"Dongzhao","public_transport":"stop_position","railway":"stop","subway":"yes"}},{"type":"node","id":12466815420,"lat":34.8608332,"lon":113.6404449,"tags":{"name":"北大学城","name:en":"BEI DAXUECHENG","public_transport":"stop_position","railway":"stop","subway":"yes"}},{"type":"node","id":12466815421,"lat":34.8607876,"lon":113.6401707,"tags":{"name":"北大学城","name:en":"BEI DAXUECHENG","public_transport":"stop_position","railway":"stop","subway":"yes"}},{"type":"node","id":12468667500,"lat":34.6568521,"lon":113.6379429,"tags":{"name":"南岗刘","name:en":"Nangangliu","public_transport":"stop_position","railway":"stop","subway":"yes"}},{"type":"node","id":12468674801,"lat":34.6568539,"lon":113.6377941,"tags":{"name":"南岗刘","name:en":"Nangangliu","public_transport":"stop_position","railway":"stop","subway":"yes"}},{"type":"node","id":12468674803,"lat":34.6719499,"lon":113.6378609,"tags":{"name":"南环公园","name:en":"Nanhuan Gongyuan","public_transport":"stop_position","railway":"stop","subway":"yes"}},{"type":"node","id":12468674804,"lat":34.671949,"lon":113.6380179,"tags":{"name":"南环公园","name:en":"Nanhuan Gongyuan","public_transport":"stop_position","railway":"stop","subway":"yes"}},{"type":"node","id":12468674806,"lat":34.6819695,"lon":113.6381436,"tags":{"name":"荆胡","name:en":"Jinghu","public_transport":"stop_position","railway":"stop","subway":"yes"}},{"type":"node","id":12468674807,"lat":34.6819686,"lon":113.6382523,"tags":{"name":"荆胡","name:en":"Jinghu","public_transport":"stop_position","railway":"stop","subway":"yes"}},{"type":"node","id":12468674809,"lat":34.6955192,"lon":113.638236,"tags":{"name":"漓江路","name:en":"Lijiang Lu","public_transport":"stop_position","railway":"stop","subway":"yes"}},{"type":"node","id":12468674810,"lat":34.6955103,"lon":113.6380969,"tags":{"name":"漓江路","name:en":"Lijiang Lu","public_transport":"stop_position","railway":"stop","subway":"yes"}},{"type":"node","id":12468674813,"lat":34.706893,"lon":113.6381023,"tags":{"name":"王胡砦","name:en":"Wanghuzhai","public_transport":"stop_position","railway":"stop","subway":"yes"}},{"type":"node","id":12468674814,"lat":34.7068947,"lon":113.6379236,"tags":{"name":"王胡砦","name:en":"Wanghuzhai","public_transport":"stop_position","railway":"stop","subway":"yes"}},{"type":"node","id":12468674817,"lat":34.7295041,"lon":113.6379073,"tags":{"name":"大学中路","name:en":"Daxue Zhonglu","public_transport":"stop_position","railway":"stop","subway":"yes"}},{"type":"node","id":12468674818,"lat":34.729504,"lon":113.6377639,"tags":{"name":"大学中路","name:en":"Daxue Zhonglu","public_transport":"stop_position","railway":"stop","subway":"yes"}},{"type":"node","id":12468674819,"lat":34.7357434,"lon":113.637926,"tags":{"name":"市骨科医院","name:en":"Shi Guke Yiyuan","public_transport":"stop_position","railway":"stop","subway":"yes"}},{"type":"node","id":12468674820,"lat":34.735743,"lon":113.637815,"tags":{"name":"市骨科医院","name:en":"Shi Guke Yiyuan","public_transport":"stop_position","railway":"stop","subway":"yes"}},{"type":"node","id":12468674822,"lat":34.7465655,"lon":113.637738,"tags":{"name":"医学院","name:en":"Yixueyuan","public_transport":"stop_position","railway":"stop","subway":"yes"}},{"type":"node","id":12468674823,"lat":34.7465656,"lon":113.6375079,"tags":{"name":"医学院","name:en":"Yixueyuan","public_transport":"stop_position","railway":"stop","subway":"yes"}},{"type":"node","id":12468674824,"lat":34.7568385,"lon":113.6390739,"tags":{"name":"郑大一附院","name:en":"Zhengda Yifuyuan","public_transport":"stop_position","railway":"stop","subway":"yes"}},{"type":"node","id":12468674825,"lat":34.7568595,"lon":113.6389587,"tags":{"name":"郑大一附院","name:en":"Zhengda Yifuyuan","public_transport":"stop_position","railway":"stop","subway":"yes"}},{"type":"node","id":12468674831,"lat":34.7669673,"lon":113.6507086,"tags":{"name":"大石桥","name:en":"Dashiqiao","public_transport":"stop_position","railway":"stop","subway":"yes"}},{"type":"node","id":12468674836,"lat":34.7759144,"lon":113.6606865,"tags":{"name":"郑州人民医院","name:en":"Zhengzhou People's Hospital","public_transport":"stop_position","railway":"stop","subway":"yes"}},{"type":"node","id":12468692016,"lat":34.7591364,"lon":113.8428692,"tags":{"name":"省社科院","name:en":"Sheng Shekeyuan","public_transport":"stop_position","railway":"stop","subway":"yes"}},{"type":"node","id":12468692017,"lat":34.7592415,"lon":113.842868,"tags":{"name":"省社科院","name:en":"Sheng Shekeyuan","public_transport":"stop_position","railway":"stop","subway":"yes"}},{"type":"node","id":12468692019,"lat":34.7596954,"lon":113.8635805,"tags":{"name":"福泽路","name:en":"Fuze Lu","public_transport":"stop_position","railway":"stop","subway":"yes"}},{"type":"node","id":12468692020,"lat":34.7598014,"lon":113.8635831,"tags":{"name":"福泽路","name:en":"Fuze Lu","public_transport":"stop_position","railway":"stop","subway":"yes"}},{"type":"node","id":12468692022,"lat":34.7598298,"lon":113.8765962,"tags":{"name":"李湖桥","name:en":"Lihuqiao","public_transport":"stop_position","railway":"stop","subway":"yes"}},{"type":"node","id":12468692023,"lat":34.7597284,"lon":113.8765916,"tags":{"name":"李湖桥","name:en":"Lihuqiao","public_transport":"stop_position","railway":"stop","subway":"yes"}},{"type":"node","id":12468692025,"lat":34.759226,"lon":113.8966754,"tags":{"name":"龙王庙","name:en":"Longwangmiao","public_transport":"stop_position","railway":"stop","subway":"yes"}},{"type":"node","id":12468692026,"lat":34.7593479,"lon":113.8966773,"tags":{"name":"龙王庙","name:en":"Longwangmiao","public_transport":"stop_position","railway":"stop","subway":"yes"}},{"type":"node","id":12468692028,"lat":34.7619197,"lon":113.9236968,"tags":{"name":"绿博园","name:en":"Luboyuan","public_transport":"stop_position","railway":"stop","subway":"yes"}},{"type":"node","id":12468692029,"lat":34.7620462,"lon":113.9236547,"tags":{"name":"绿博园","name:en":"Luboyuan","public_transport":"stop_position","railway":"stop","subway":"yes"}},{"type":"node","id":12468692031,"lat":34.7641634,"lon":113.9418916,"tags":{"name":"鲁庙","name:en":"Lumiao","public_transport":"stop_position","railway":"stop","subway":"yes"}},{"type":"node","id":12468692032,"lat":34.7640185,"lon":113.9419021,"tags":{"name":"鲁庙","name:en":"Lumiao","public_transport":"stop_position","railway":"stop","subway":"yes"}},{"type":"node","id":12468737661,"lat":34.7800083,"lon":113.7698028,"tags":{"name":"畅和街","name:en":"Changhe Jie","public_transport":"stop_position","railway":"stop","subway":"yes"}},{"type":"node","id":12468737662,"lat":34.7800074,"lon":113.7696913,"tags":{"name":"畅和街","name:en":"Changhe Jie","public_transport":"stop_position","railway":"stop","subway":"yes"}},{"type":"node","id":12468737665,"lat":34.7600082,"lon":113.7698365,"tags":{"name":"郑州东站","name:en":"Zhengzhou East Railway Station","public_transport":"stop_position","railway":"stop","subway":"yes"}},{"type":"node","id":12468737666,"lat":34.7600031,"lon":113.7697495,"tags":{"name":"郑州东站","name:en":"Zhengzhou East Railway Station","public_transport":"stop_position","railway":"stop","subway":"yes"}},{"type":"node","id":12468737667,"lat":34.743061,"lon":113.7874238,"tags":{"name":"圃田西","name:en":"Putianxi","public_transport":"stop_position","railway":"stop","subway":"yes"}},{"type":"node","id":12468737668,"lat":34.7431472,"lon":113.7874298,"tags":{"name":"圃田西","name:en":"Putianxi","public_transport":"stop_position","railway":"stop","subway":"yes"}},{"type":"node","id":12762787145,"lat":34.763065,"lon":113.6759689,"tags":{"name":"紫荆山","name:en":"Zijingshan","public_transport":"stop_position","railway":"stop","subway":"yes"}}]}