{"elements":[{"type":"node","id":10839298818,"lat":50.6520291,"lon":5.6041861,"tags":{"name":"Parc Reine Astrid","public_transport":"stop_position","railway":"tram_stop","tram":"yes"}},{"type":"node","id":11208371891,"lat":50.6391427,"lon":5.5687259,"tags":{"name":"Pont d'Avroy","public_transport":"stop_position","railway":"tram_stop","tram":"yes","wheelchair":"yes"}},{"type":"node","id":12258271435,"lat":50.6459333,"lon":5.6094501,"tags":{"name":"Liège Expo","public_transport":"stop_position","railway":"tram_stop","tram":"yes"}},{"type":"node","id":12258271436,"lat":50.6459058,"lon":5.6093445,"tags":{"name":"Liège Expo","public_transport":"stop_position","railway":"tram_stop","tram":"yes"}},{"type":"node","id":12258271437,"lat":50.645576,"lon":5.6095308,"tags":{"name":"Liège Expo","public_transport":"stop_position","railway":"tram_stop","tram":"yes"}},{"type":"node","id":12258271438,"lat":50.654765,"lon":5.6120754,"tags":{"name":"Coronmeuse","public_transport":"stop_position","railway":"tram_stop","tram":"yes"}},{"type":"node","id":12258271439,"lat":50.6548154,"lon":5.6125902,"tags":{"name":"Coronmeuse","public_transport":"stop_position","railway":"tram_stop","tram":"yes"}},{"type":"node","id":12258271440,"lat":50.611049,"lon":5.5436934,"tags":{"name":"Standard","public_transport":"stop_position","railway":"tram_stop","tram":"yes"}},{"type":"node","id":12258271441,"lat":50.6109285,"lon":5.5441988,"tags":{"name":"Standard","public_transport":"stop_position","railway":"tram_stop","tram":"yes"}},{"type":"node","id":12805945722,"lat":50.6096755,"lon":5.5532687,"tags":{"name":"Place Ferrer","public_transport":"stop_position","railway":"tram_stop","tram":"yes"}},{"type":"node","id":12805945723,"lat":50.6096159,"lon":5.5540723,"tags":{"name":"Place Ferrer","public_transport":"stop_position","railway":"tram_stop","tram":"yes"}},{"type":"node","id":12805945724,"lat":50.6095757,"lon":5.5607408,"tags":{"name":"Petit Bourgogne","public_transport":"stop_position","railway":"tram_stop","tram":"yes"}},{"type":"node","id":12805945725,"lat":50.6095036,"lon":5.5612668,"tags":{"name":"Petit Bourgogne","public_transport":"stop_position","railway":"tram_stop","tram":"yes"}},{"type":"node","id":12805945726,"lat":50.6143911,"lon":5.5728201,"tags":{"name":"Val Benoît","public_transport":"stop_position","railway":"tram_stop","tram":"yes"}},{"type":"node","id":12805945727,"lat":50.6147291,"lon":5.5729331,"tags":{"name":"Val Benoît","public_transport":"stop_position","railway":"tram_stop","tram":"yes"}},{"type":"node","id":12805945728,"lat":50.6205588,"lon":5.5738452,"tags":{"name":"Général Leman","public_transport":"stop_position","railway":"tram_stop","tram":"yes"}},{"type":"node","id":12805945729,"lat":50.6200797,"lon":5.573726,"tags":{"name":"Général Leman","network":"TECL","operator":"TEC","public_transport":"stop_position","railway":"tram_stop","tram":"yes"}},{"type":"node","id":12805945730,"lat":50.6250807,"lon":5.5688079,"tags":{"name":"Gare des Guillemins","public_transport":"stop_position","railway":"tram_stop","tram":"yes"}},{"type":"node","id":12805945731,"lat":50.6247004,"lon":5.5684011,"tags":{"name":"Gare des Guillemins","public_transport":"stop_position","railway":"tram_stop","tram":"yes"}},{"type":"node","id":12805945732,"lat":50.6272576,"lon":5.5715623,"tags":{"name":"Petit Paradis","public_transport":"stop_position","railway":"tram_stop","tram":"yes"}},{"type":"node","id":12805945733,"lat":50.6274928,"lon":5.5718892,"tags":{"name":"Petit Paradis","public_transport":"stop_position","railway":"tram_stop","tram":"yes"}},{"type":"node","id":12805945734,"lat":50.6297703,"lon":5.5692819,"tags":{"name":"Blonden","public_transport":"stop_position","railway":"tram_stop","tram":"yes"}},{"type":"node","id":12805945735,"lat":50.6300662,"lon":5.5689521,"tags":{"name":"Blonden","public_transport":"stop_position","railway":"tram_stop","tram":"yes"}},{"type":"node","id":12805945736,"lat":50.6352061,"lon":5.5689292,"tags":{"name":"Charlemagne","public_transport":"stop_position","railway":"tram_stop","tram":"yes"}},{"type":"node","id":12805945737,"lat":50.6355545,"lon":5.568778,"tags":{"name":"Charlemagne","public_transport":"stop_position","railway":"tram_stop","tram":"yes"}},{"type":"node","id":12805945738,"lat":50.6394614,"lon":5.5688408,"tags":{"name":"Pont d'Avroy","public_transport":"stop_position","railway":"tram_stop","tram":"yes","wheelchair":"yes"}},{"type":"node","id":12805945739,"lat":50.6416877,"lon":5.5668154,"tags":{"name":"Sauvenière","public_transport":"stop_position","railway":"tram_stop","tram":"yes"}},{"type":"node","id":12805945740,"lat":50.6420921,"lon":5.5663524,"tags":{"name":"Sauvenière","public_transport":"stop_position","railway":"tram_stop","tram":"yes"}},{"type":"node","id":12805945741,"lat":50.643952,"lon":5.5703491,"tags":{"name":"Opéra","public_transport":"stop_position","railway":"tram_stop","tram":"yes"}},{"type":"node","id":12805945742,"lat":50.6440573,"lon":5.5698317,"tags":{"name":"Opéra","public_transport":"stop_position","railway":"tram_stop","tram":"yes"}},{"type":"node","id":12805945744,"lat":50.6467164,"lon":5.5847483,"tags":{"name":"Curtius","public_transport":"stop_position","railway":"tram_stop","tram":"yes"}},{"type":"node","id":12805945745,"lat":50.6522569,"lon":5.6047801,"tags":{"name":"Parc Reine Astrid","public_transport":"stop_position","railway":"tram_stop","tram":"yes"}},{"type":"node","id":12805945746,"lat":50.6448465,"lon":5.5735867,"tags":{"name":"Place Saint-Lambert","public_transport":"stop_position","railway":"tram_stop","tram":"yes"}},{"type":"node","id":12805945747,"lat":50.6448741,"lon":5.5737808,"tags":{"name":"Place Saint-Lambert","public_transport":"stop_position","railway":"tram_stop","tram":"yes"}},{"type":"node","id":12805945748,"lat":50.6465909,"lon":5.5797397,"tags":{"name":"Féronstrée","public_transport":"stop_position","railway":"tram_stop","tram":"yes"}},{"type":"node","id":12805945749,"lat":50.6467565,"lon":5.5802013,"tags":{"name":"Féronstrée","public_transport":"stop_position","railway":"tram_stop","tram":"yes"}},{"type":"node","id":12805945750,"lat":50.647275,"lon":5.5859025,"tags":{"name":"Pont Maghin","public_transport":"stop_position","railway":"tram_stop","tram":"yes"}},{"type":"node","id":12805945751,"lat":50.6475937,"lon":5.5857041,"tags":{"name":"Pont Maghin","public_transport":"stop_position","railway":"tram_stop","tram":"yes"}},{"type":"node","id":12805945752,"lat":50.6482448,"lon":5.5929278,"tags":{"name":"Marengo","public_transport":"stop_position","railway":"tram_stop","tram":"yes"}},{"type":"node","id":12805945753,"lat":50.6481701,"lon":5.5924056,"tags":{"name":"Marengo","public_transport":"stop_position","railway":"tram_stop","tram":"yes"}},{"type":"node","id":12805945754,"lat":50.649137,"lon":5.5971379,"tags":{"name":"Pont Atlas","public_transport":"stop_position","railway":"tram_stop","tram":"yes"}},{"type":"node","id":12805945755,"lat":50.6492104,"lon":5.5976577,"tags":{"name":"Pont Atlas","public_transport":"stop_position","railway":"tram_stop","tram":"yes"}},{"type":"node","id":12805945756,"lat":50.6466069,"lon":5.6038557,"tags":{"name":"Droixhe","public_transport":"stop_position","railway":"tram_stop","tram":"yes"}},{"type":"node","id":12805945757,"lat":50.6469335,"lon":5.6036357,"tags":{"name":"Droixhe","public_transport":"stop_position","railway":"tram_stop","tram":"yes"}},{"type":"node","id":13135628236,"lat":50.6451138,"lon":5.5796187,"tags":{"name":"La Batte","public_transport":"stop_position","railway":"tram_stop","tram":"yes"}}]}