{"elements":[{"type":"node","id":25292215,"lat":51.5113382,"lon":7.4047721,"tags":{"name":"Auf dem Brümmer","public_transport":"stop_position","railway":"tram_stop","ref:IFOPT":"de:05913:129:21:21","tram":"yes","wheelchair":"no"}},{"type":"node","id":30911609,"lat":51.4518531,"lon":7.2724741,"tags":{"layer":"3","level":"1","local_ref":"3","name":"Hustadt (TQ)","public_transport":"stop_position","railway":"stop","ref:IFOPT":"de:05911:5254:2:03","subway":"yes","wheelchair":"yes"}},{"type":"node","id":30911613,"lat":51.4501798,"lon":7.2655358,"tags":{"local_ref":"2","name":"Lennershof","public_transport":"stop_position","railway":"stop","ref:IFOPT":"de:05911:5140:1:02","subway":"yes","wheelchair":"yes"}},{"type":"node","id":30911616,"lat":51.4471225,"lon":7.2587945,"tags":{"local_ref":"9","name":"Ruhr-Universität","name:etymology:wikidata":"Q309948","network":"Verkehrsverbund Rhein-Ruhr","operator":"Bochum-Gelsenkirchener Straßenbahnen AG","public_transport":"stop_position","railway":"stop","ref":"Ruhr-Universität Bochum","ref:IFOPT":"de:05911:5554:3:09","subway":"yes","wheelchair":"limited"}},{"type":"node","id":30911630,"lat":51.4518546,"lon":7.2468425,"tags":{"local_ref":"2","name":"Markstraße","public_transport":"stop_position","railway":"stop","ref:IFOPT":"de:05911:5331:1:02","subway":"yes","wheelchair":"yes"}},{"type":"node","id":30911642,"lat":51.4569858,"lon":7.2387474,"tags":{"local_ref":"2","name":"Brenscheder Straße","public_transport":"stop_position","railway":"stop","ref:IFOPT":"de:05911:6111:2:02","subway":"yes","wheelchair":"yes"}},{"type":"node","id":30911651,"lat":51.4637213,"lon":7.2314472,"tags":{"local_ref":"6","name":"Wasserstraße","public_transport":"stop_position","railway":"stop","ref:IFOPT":"de:05911:6012:6:06","subway":"yes","wheelchair":"yes"}},{"type":"node","id":30911659,"lat":51.4734405,"lon":7.226125,"tags":{"description":"Oskar-Hoffmann-Straße","layer":"-2","level":"-2","local_ref":"3","name":"Oskar-Hoffmann-Straße","public_transport":"stop_position","railway":"stop","ref:IFOPT":"de:05911:5696:2:03","subway":"yes","wheelchair":"yes"}},{"type":"node","id":30911665,"lat":51.4829159,"lon":7.2162133,"tags":{"loc_name":"Bochum Rathaus (Nord)","local_ref":"2","name":"Rathaus","public_transport":"stop_position","railway":"stop","ref":"2","ref:IFOPT":"de:05911:5127:4:02","subway":"yes"}},{"type":"node","id":30921991,"lat":51.4689036,"lon":7.2269261,"tags":{"description":"Waldring","local_ref":"2","name":"Waldring","public_transport":"stop_position","railway":"stop","ref:IFOPT":"de:05911:6312:2:02","subway":"yes","wheelchair":"limited"}},{"type":"node","id":60059977,"lat":51.4672117,"lon":7.1580559,"tags":{"local_ref":"1","name":"Brucknerstraße","public_transport":"stop_position","railway":"tram_stop","ref:IFOPT":"de:05911:5426:1:01","tram":"yes"}},{"type":"node","id":60129760,"lat":51.471713,"lon":7.1707962,"tags":{"local_ref":"1","name":"Leibnizstraße","public_transport":"stop_position","railway":"tram_stop","ref:IFOPT":"de:05911:5163:1:01","tram":"yes"}},{"type":"node","id":60129767,"lat":51.4694459,"lon":7.1622651,"tags":{"local_ref":"1","name":"Röntgenstraße","public_transport":"stop_position","railway":"tram_stop","ref:IFOPT":"de:05911:5092:1:01","tram":"yes"}},{"type":"node","id":60163337,"lat":51.473957,"lon":7.1806576,"tags":{"local_ref":"1","name":"Engelsburger Straße","public_transport":"stop_position","railway":"tram_stop","ref:IFOPT":"de:05911:5105:1:01","tram":"yes"}},{"type":"node","id":60737592,"lat":51.4790426,"lon":7.1528882,"tags":{"local_ref":"1","name":"Vietingstraße","public_transport":"stop_position","railway":"tram_stop","ref:IFOPT":"de:05911:5223:1:01","tram":"yes","wheelchair":"yes"}},{"type":"node","id":71528149,"lat":51.5853554,"lon":7.4472384,"tags":{"name":"Herrentheystraße","public_transport":"stop_position","railway":"tram_stop","ref:IFOPT":"de:05978:6068:21:21","tram":"yes","wheelchair":"yes"}},{"type":"node","id":71528177,"lat":51.5829126,"lon":7.4554455,"tags":{"name":"Oetringhauser Straße","network":"VRR","network:wikidata":"Q448199","operator":"DSW21","public_transport":"stop_position","railway":"tram_stop","ref:IFOPT":"de:05913:370:21:22","tram":"yes"}},{"type":"node","id":71528227,"lat":51.5900489,"lon":7.4412231,"tags":{"name":"Brambauer Krankenhaus","public_transport":"stop_position","railway":"tram_stop","ref:IFOPT":"de:05978:6067:21:21","tram":"yes","wheelchair":"yes"}},{"type":"node","id":88282507,"lat":51.5320537,"lon":7.4183025,"tags":{"name":"Huckarde Abzweig","public_transport":"stop_position","railway":"tram_stop","ref:IFOPT":"de:05913:243:21:22","tram":"yes","wheelchair":"yes"}},{"type":"node","id":88282537,"lat":51.5260489,"lon":7.423754,"tags":{"name":"Insterburger Straße","public_transport":"stop_position","railway":"tram_stop","ref:IFOPT":"de:05913:257:22:22","tram":"yes","wheelchair":"yes"}},{"type":"node","id":88921231,"lat":51.5745139,"lon":7.4633568,"tags":{"name":"Wittichstraße","network":"VRR","network:wikidata":"Q448199","operator":"DSW21","public_transport":"stop_position","railway":"tram_stop","ref:IFOPT":"de:05913:515:21:21","tram":"yes","wheelchair":"yes"}},{"type":"node","id":88921260,"lat":51.5644222,"lon":7.464908,"tags":{"name":"Waldesruh","network":"VRR","network:wikidata":"Q448199","operator":"DSW21","public_transport":"stop_position","railway":"tram_stop","ref:IFOPT":"de:05913:487:21:22","tram":"yes","wheelchair":"yes"}},{"type":"node","id":88921281,"lat":51.555321,"lon":7.4653812,"tags":{"name":"Externberg","public_transport":"stop_position","railway":"tram_stop","ref:IFOPT":"de:05913:156:21:22","tram":"yes","wheelchair":"yes"}},{"type":"node","id":88921283,"lat":51.5578661,"lon":7.4648394,"tags":{"name":"Grävingholz","public_transport":"stop_position","railway":"tram_stop","ref:IFOPT":"de:05913:186:21:22","tram":"yes","wheelchair":"yes"}},{"type":"node","id":88921292,"lat":51.5521383,"lon":7.4643399,"tags":{"name":"Amtsstraße","public_transport":"stop_position","railway":"tram_stop","ref:IFOPT":"de:05913:33:21:22","tram":"yes","wheelchair":"yes"}},{"type":"node","id":88921304,"lat":51.5481753,"lon":7.4620486,"tags":{"name":"Zeche Minister Stein U","network":"VRR","network:wikidata":"Q448199","public_transport":"stop_position","railway":"tram_stop","ref:IFOPT":"de:05913:522:21:22","tram":"yes","wheelchair":"yes"}},{"type":"node","id":88921331,"lat":51.5699583,"lon":7.4647249,"tags":{"name":"Maienweg","network":"VRR","network:wikidata":"Q448199","operator":"DSW21","public_transport":"stop_position","railway":"tram_stop","ref:IFOPT":"de:05913:1172:21:22","tram":"yes","wheelchair":"limited"}},{"type":"node","id":92393913,"lat":51.5288454,"lon":7.4607868,"tags":{"name":"Lortzingstraße","public_transport":"stop_position","railway":"tram_stop","ref:IFOPT":"de:05913:322:22:22","tram":"yes","wheelchair":"yes"}},{"type":"node","id":92393920,"lat":51.5263677,"lon":7.4602424,"tags":{"name":"Münsterstraße","public_transport":"stop_position","railway":"stop","ref:IFOPT":"de:05913:528:22:22","subway":"yes","tram":"yes","wheelchair":"no"}},{"type":"node","id":92491689,"lat":51.5240591,"lon":7.4431825,"tags":{"local_ref":"1","name":"Dortmund Hafen","public_transport":"stop_position","railway":"tram_stop","ref":"1","ref:IFOPT":"de:05913:201:21:22","tram":"yes"}},{"type":"node","id":93005484,"lat":51.5537685,"lon":7.4992079,"tags":{"name":"Franz-Zimmer-Siedlung","public_transport":"stop_position","railway":"tram_stop","ref:IFOPT":"de:05913:165:22:22","tram":"yes","wheelchair":"yes"}},{"type":"node","id":93005529,"lat":51.5496494,"lon":7.4916005,"tags":{"local_ref":"1","name":"Schulte-Rödding","public_transport":"stop_position","railway":"tram_stop","ref":"1","ref:IFOPT":"de:05913:433:21:22","tram":"yes","wheelchair":"yes"}},{"type":"node","id":93005640,"lat":51.535805,"lon":7.4748514,"tags":{"local_ref":"1","name":"Eisenstraße","public_transport":"stop_position","railway":"tram_stop","ref":"1","ref:IFOPT":"de:05913:148:22:22","tram":"yes","wheelchair":"yes"}},{"type":"node","id":93005660,"lat":51.5307253,"lon":7.4729125,"tags":{"local_ref":"1","name":"Glückaufstraße","public_transport":"stop_position","railway":"tram_stop","ref":"1","ref:IFOPT":"de:05913:183:22:22","tram":"yes","wheelchair":"yes"}},{"type":"node","id":93709337,"lat":51.5807027,"lon":7.4628725,"tags":{"name":"Brechten Zentrum","public_transport":"stop_position","railway":"tram_stop","ref:IFOPT":"de:05913:91:21:22","tram":"yes","wheelchair":"yes"}},{"type":"node","id":102894878,"lat":51.50597,"lon":7.5264408,"tags":{"name":"Stadtkrone Ost","network":"VRR","public_transport":"stop_position","railway":"tram_stop","ref:IFOPT":"de:05913:763:21:21","tram":"yes","wheelchair":"no"}},{"type":"node","id":102894895,"lat":51.5073761,"lon":7.5350178,"tags":{"description":"stop_position Richtung Süd/Ost","name":"Hauptfriedhof","network":"VRR","network:wikidata":"Q448199","public_transport":"stop_position","railway":"tram_stop","ref:IFOPT":"de:05913:209:21:21","tram":"yes","wheelchair":"no"}},{"type":"node","id":102939727,"lat":51.50361,"lon":7.4980707,"tags":{"name":"Voßkuhle","network":"VRR","network:wikidata":"Q448199","public_transport":"stop_position","railway":"tram_stop","ref:IFOPT":"de:05913:484:21:21","tram":"yes","wheelchair":"no"}},{"type":"node","id":102939742,"lat":51.5027221,"lon":7.4917834,"tags":{"name":"Kohlgartenstraße","network":"VRR","network:wikidata":"Q448199","public_transport":"stop_position","railway":"tram_stop","ref:IFOPT":"de:05913:288:21:21","tram":"yes","wheelchair":"no"}},{"type":"node","id":102955517,"lat":51.4951297,"lon":7.4439112,"tags":{"description":"Theodor-Fliedner-Heim, Steig 2","local_ref":"2","name":"Theodor-Fliedner-Heim","network":"VRR","network:wikidata":"Q448199","public_transport":"stop_position","railway":"tram_stop","ref":"2","ref:IFOPT":"de:05913:465:21:22","tram":"yes","wheelchair":"yes"}},{"type":"node","id":149010636,"lat":51.5225799,"lon":7.5344419,"tags":{"name":"Knappschaftskrankenhaus","public_transport":"stop_position","railway":"tram_stop","ref:IFOPT":"de:05913:286:22:22","tram":"yes","wheelchair":"yes"}},{"type":"node","id":211343388,"lat":51.479276,"lon":7.2223843,"tags":{"description":"Bochum Hauptbahnhof, Gleis 2","local_ref":"42","name":"Bochum Hauptbahnhof","public_transport":"stop_position","railway":"stop","ref":"2","ref:IFOPT":"de:05911:5194:5:42","tram":"yes","wheelchair":"yes"}},{"type":"node","id":211343452,"lat":51.4766754,"lon":7.2164518,"tags":{"layer":"-2","level":"-2","local_ref":"2","name":"Bermuda3eck/Musikforum","public_transport":"stop_position","railway":"tram_stop","ref:IFOPT":"de:05911:5790:1:02","tram":"yes","wheelchair":"yes"}},{"type":"node","id":211343497,"lat":51.4722602,"lon":7.214626,"tags":{"description":"Gleis 2","local_ref":"6","name":"Schauspielhaus","public_transport":"stop_position","railway":"tram_stop","ref":"2","ref:IFOPT":"de:05911:5475:3:06","tram":"yes","wheelchair":"yes","wikidata":"Q56037411","wikipedia":"de:U-Bahnhof Schauspielhaus"}},{"type":"node","id":211343554,"lat":51.4863248,"lon":7.2301771,"tags":{"level":"-2","local_ref":"4","name":"Planetarium","public_transport":"stop_position","railway":"tram_stop","ref:IFOPT":"de:05911:5611:2:04","tram":"yes","wheelchair":"no","wikidata":"Q56037425","wikipedia":"de:U-Bahnhof Planetarium"}},{"type":"node","id":211343624,"lat":51.4901043,"lon":7.2392917,"tags":{"local_ref":"2","name":"Vonovia Ruhrstadion","network":"VRR","note":"In der Online-Fahrplanauskunft taucht teilweise noch der alte Name auf.","old_name":"Ruhrstadion;rewirpowerSTADION","operator":"Bochum-Gelsenkirchener Straßenbahnen AG","public_transport":"stop_position","railway":"tram_stop","ref:IFOPT":"de:05911:5296:2:02","toilets:wheelchair":"no","tram":"yes","wheelchair":"yes"}},{"type":"node","id":211343742,"lat":51.4795329,"lon":7.2044136,"tags":{"description":"Bochumer Verein/Jahrhunderthalle","local_ref":"1","name":"Bochumer Verein/Jahrhunderthalle","public_transport":"stop_position","railway":"tram_stop","ref:IFOPT":"de:05911:5692:1:01","tram":"yes"}},{"type":"node","id":243252967,"lat":51.4688413,"lon":7.2087428,"tags":{"local_ref":"3","name":"Bergmannsheil","public_transport":"stop_position","railway":"tram_stop","ref:IFOPT":"de:05911:5874:3:03","tram":"yes","wheelchair":"limited"}},{"type":"node","id":245449801,"lat":51.5545671,"lon":7.062782,"tags":{"description":"VELTINS-Arena, Gleis 1","name":"VELTINS-Arena","public_transport":"stop_position","railway":"tram_stop","ref":"1","tram":"yes","wheelchair":"no"}},{"type":"node","id":245494164,"lat":51.5015458,"lon":7.1058759,"tags":{"name":"Rheinelbestraße","public_transport":"stop_position","railway":"tram_stop","tram":"yes"}},{"type":"node","id":245917555,"lat":51.4760594,"lon":7.4354627,"tags":{"name":"Harkortstraße","network":"VRR","network:wikidata":"Q448199","operator":"DSW21","public_transport":"stop_position","railway":"tram_stop","ref:IFOPT":"de:05913:207:21:22","tram":"yes","wheelchair":"yes","wikidata":"Q127177259"}},{"type":"node","id":246704553,"lat":51.485526,"lon":7.1293877,"tags":{"local_ref":"1","name":"Lohrheidestraße","public_transport":"stop_position","railway":"tram_stop","ref:IFOPT":"de:05911:5559:1:01","tram":"yes","wheelchair":"yes"}},{"type":"node","id":246704565,"lat":51.4826332,"lon":7.1343775,"tags":{"local_ref":"3","name":"Freiheitstraße","public_transport":"stop_position","railway":"tram_stop","ref:IFOPT":"de:05911:5168:2:03","tram":"yes","wheelchair":"yes"}},{"type":"node","id":246706844,"lat":51.493725,"lon":7.1219849,"tags":{"bus":"yes","name":"Ückendorfer Platz","public_transport":"stop_position","railway":"tram_stop","tram":"yes"}},{"type":"node","id":247427725,"lat":51.5106979,"lon":7.4646902,"tags":{"description":"Stadtgarten, Gleis 1 (laut Nahverkehrsplan 2003, Auflistung \"Barrierefreie Stadtbahnhaltestellen\")","level":"-1","local_ref":"1","name":"Stadtgarten","public_transport":"stop_position","railway":"tram_stop","ref":"1","ref:IFOPT":"de:05913:526:21:21","tram":"yes","wheelchair":"no"}},{"type":"node","id":247431440,"lat":51.4842403,"lon":7.4711072,"tags":{"name":"Rombergpark","public_transport":"stop_position","railway":"tram_stop","ref":"2","ref:IFOPT":"de:05913:407:21:22","tram":"yes","wheelchair":"limited"}},{"type":"node","id":247435002,"lat":51.522122,"lon":7.4599874,"tags":{"layer":"-3","level":"-2","name":"Leopoldstraße","public_transport":"stop_position","railway":"tram_stop","ref:IFOPT":"de:05913:454:24:24","tram":"yes","wheelchair":"yes"}},{"type":"node","id":247649205,"lat":51.5152252,"lon":7.4685064,"tags":{"name":"Reinoldikirche","network":"VRR","network:wikidata":"Q448199","note":"Muss noch aus der U42-Relation (alt) entfernt werden!","public_transport":"stop_position","railway":"tram_stop","ref":"24","ref:IFOPT":"de:05913:398:23:24","tram":"yes","wheelchair":"yes"}},{"type":"node","id":248207500,"lat":51.3971773,"lon":7.1806809,"tags":{"name":"Hattingen Mitte","network":"VRR","network:wikidata":"Q448199","note":"nur Ausstieg aus der Straßenbahn","operator":"BOGESTRA","public_transport":"stop_position","railway":"tram_stop","ref":"Bahnsteig 7","ref:IFOPT":"de:5954:8437:3:7","tram":"yes","wheelchair":"yes"}},{"type":"node","id":248773978,"lat":51.4683104,"lon":7.4337851,"tags":{"name":"Grotenbachstraße","network":"VRR","network:wikidata":"Q448199","public_transport":"stop_position","railway":"tram_stop","ref:IFOPT":"de:05913:239:21:22","tram":"yes","wheelchair":"yes"}},{"type":"node","id":248774218,"lat":51.4711884,"lon":7.4355202,"tags":{"name":"Hombruch Hallenbad","public_transport":"stop_position","railway":"tram_stop","ref:IFOPT":"de:05913:429:21:22","tram":"yes","wheelchair":"limited"}},{"type":"node","id":248774219,"lat":51.4793115,"lon":7.4360618,"tags":{"name":"Eierkampstraße","public_transport":"stop_position","railway":"tram_stop","ref:IFOPT":"de:05913:147:21:22","tram":"yes","wheelchair":"yes"}},{"type":"node","id":250831626,"lat":51.4768834,"lon":7.4758487,"tags":{"name":"Hacheney U","network":"VRR","network:wikidata":"Q448199","public_transport":"stop_position","railway":"tram_stop","ref":"2","ref:IFOPT":"de:05913:200:21:22","ref:ibnr":"652098","tram":"yes","wheelchair":"limited"}},{"type":"node","id":250833146,"lat":51.5057373,"lon":7.4600259,"tags":{"description":"U-Bahn Saarslandstraße, Gleis 2","level":"-2","local_ref":"2","name":"Saarlandstraße","network":"VRR","network:wikidata":"Q448199","public_transport":"stop_position","railway":"tram_stop","ref":"2","ref:IFOPT":"de:05913:549:21:22","tram":"yes","wheelchair":"yes"}},{"type":"node","id":250833271,"lat":51.5009614,"lon":7.4588709,"tags":{"name":"Polizeipräsidium","network":"VRR","operator":"DSW21","public_transport":"stop_position","railway":"stop","ref":"1","ref:IFOPT":"de:05913:383:21:21","subway":"yes","wheelchair":"yes"}},{"type":"node","id":250833332,"lat":51.496935,"lon":7.459848,"tags":{"description":"Westfalenhallen, Gleis 2","local_ref":"2","name":"Westfalenhallen","network":"VRR","public_transport":"stop_position","railway":"stop","ref":"2","ref:IFOPT":"de:05913:499:21:22","subway":"yes","wheelchair":"yes"}},{"type":"node","id":250834509,"lat":51.5007633,"lon":7.4830225,"tags":{"local_ref":"1","name":"Märkische Straße","network":"VRR","network:wikidata":"Q448199","public_transport":"stop_position","railway":"tram_stop","ref":"1","ref:IFOPT":"de:05913:527:22:22","subway":"yes","tram":"yes","wheelchair":"no"}},{"type":"node","id":252628293,"lat":51.5409051,"lon":7.4069011,"tags":{"local_ref":"1","name":"Buschstraße","public_transport":"stop_position","railway":"tram_stop","ref":"1","ref:IFOPT":"de:05913:109:22:22","toilets:wheelchair":"no","tram":"yes","wheelchair":"yes"}},{"type":"node","id":252628305,"lat":51.5372587,"lon":7.4112559,"tags":{"local_ref":"1","name":"Parsevalstraße","public_transport":"stop_position","railway":"tram_stop","ref":"1","ref:IFOPT":"de:05913:377:22:22","tram":"yes","wheelchair":"yes"}},{"type":"node","id":252628314,"lat":51.5348464,"lon":7.4148563,"tags":{"description":"Huckarde Bushof, Gleis 1","local_ref":"1","name":"Huckarde Bushof","public_transport":"stop_position","railway":"tram_stop","ref":"1","ref:IFOPT":"de:05913:244:22:22","tram":"yes"}},{"type":"node","id":252628855,"lat":51.5575829,"lon":7.5432126,"tags":{"name":"Droote","public_transport":"stop_position","railway":"tram_stop","ref:IFOPT":"de:05913:136:22:22","tram":"yes","wheelchair":"yes"}},{"type":"node","id":252628865,"lat":51.5523509,"lon":7.5427951,"tags":{"description":"Scharnhorst Zentrum, Gleis 1","layer":"2","level":"2","local_ref":"1","name":"Scharnhorst Zentrum","public_transport":"stop_position","railway":"stop","ref":"1","ref:IFOPT":"de:05913:424:22:22","tram":"yes","wheelchair":"yes"}},{"type":"node","id":252628876,"lat":51.5496173,"lon":7.5383977,"tags":{"name":"Flughafenstraße","public_transport":"stop_position","railway":"tram_stop","ref:IFOPT":"de:05913:163:22:22","tram":"yes","wheelchair":"yes"}},{"type":"node","id":252628888,"lat":51.5499206,"lon":7.5291354,"tags":{"name":"Gleiwitzstraße","public_transport":"stop_position","railway":"tram_stop","ref:IFOPT":"de:05913:182:22:22","tram":"yes","wheelchair":"yes"}},{"type":"node","id":252628916,"lat":51.5547438,"lon":7.5123914,"tags":{"level":"1","name":"Kirchderne","public_transport":"stop_position","railway":"tram_stop","ref":"1","ref:IFOPT":"de:05913:273:22:22","tram":"yes"}},{"type":"node","id":254086661,"lat":51.5238762,"lon":7.452703,"tags":{"name":"Schützenstraße","public_transport":"stop_position","railway":"stop","ref:IFOPT":"de:05913:184:22:22","subway":"yes","wheelchair":"yes"}},{"type":"node","id":255466356,"lat":51.4819733,"lon":7.216234,"tags":{"layer":"-2","level":"-2","loc_name":"Bochum Rathaus (Süd)","local_ref":"1","name":"Bochum Rathaus","public_transport":"stop_position","railway":"tram_stop","ref":"1","ref:IFOPT":"de:05911:5127:5:01","tram":"yes","wheelchair":"yes"}},{"type":"node","id":257405239,"lat":51.5149042,"lon":7.4745735,"tags":{"name":"Ostentor","public_transport":"stop_position","railway":"tram_stop","ref:IFOPT":"de:05913:373:21:22","tram":"yes","wheelchair":"yes"}},{"type":"node","id":257405245,"lat":51.5139766,"lon":7.4827161,"tags":{"name":"Lippestraße","public_transport":"stop_position","railway":"tram_stop","ref:IFOPT":"de:05913:318:21:21","tram":"yes","wheelchair":"yes"}},{"type":"node","id":260573861,"lat":51.4979584,"lon":7.1890488,"tags":{"local_ref":"1","name":"Breslauer Straße","public_transport":"stop_position","railway":"tram_stop","ref:IFOPT":"de:05911:5098:1:01","tram":"yes","wheelchair":"yes"}},{"type":"node","id":266594046,"lat":51.5023551,"lon":7.2122476,"tags":{"level":"-2","local_ref":"2","name":"Zeche Constantin","public_transport":"stop_position","railway":"stop","ref":"2","ref:IFOPT":"de:5911:5026","subway":"yes","tunnel":"yes","wheelchair":"yes"}},{"type":"node","id":266594050,"lat":51.5085972,"lon":7.2113442,"tags":{"local_ref":"2","name":"Riemke Markt","network":"VRR","network:wikidata":"Q448199","public_transport":"stop_position","railway":"stop","ref:IFOPT":"de:05911:5132:1:02","subway":"yes"}},{"type":"node","id":272768454,"lat":51.5339215,"lon":7.6243088,"tags":{"name":"Dortmund-Wickede S","public_transport":"stop_position","railway":"tram_stop","ref:IFOPT":"de:05913:507:21:21","tram":"yes","wheelchair":"yes"}},{"type":"node","id":273098666,"lat":51.5240574,"lon":7.5529302,"tags":{"name":"Brackel Verwaltungsstelle","network":"VRR","network:wikidata":"Q448199","public_transport":"stop_position","railway":"tram_stop","ref:IFOPT":"de:05913:88:21:21","tram":"yes","wheelchair":"no"}},{"type":"node","id":273098772,"lat":51.5236767,"lon":7.547109,"tags":{"bus":"yes","description":"Brackel Kirche, Gleis 1","highway":"bus_stop","local_ref":"1","name":"Brackel Kirche","network":"VRR","network:wikidata":"Q448199","network:wikipedia":"de:Verkehrsverbund Rhein-Ruhr","public_transport":"stop_position","railway":"stop","ref":"1","ref:IFOPT":"de:05913:86:22:22","tram":"yes","wheelchair":"no"}},{"type":"node","id":273098773,"lat":51.5236133,"lon":7.5466316,"tags":{"description":"Brackel Kirche, Gleis 2","local_ref":"2","name":"Brackel Kirche","public_transport":"stop_position","railway":"tram_stop","ref":"2","ref:IFOPT":"de:05913:86:21:21","tram":"yes","wheelchair":"yes"}},{"type":"node","id":273098852,"lat":51.5230419,"lon":7.5424673,"tags":{"name":"Oberdorfstraße","public_transport":"stop_position","railway":"tram_stop","ref:IFOPT":"de:05913:365:22:22","tram":"yes","wheelchair":"no"}},{"type":"node","id":273098853,"lat":51.5228812,"lon":7.5419168,"tags":{"name":"Oberdorfstraße","public_transport":"stop_position","railway":"tram_stop","ref:IFOPT":"de:05913:365:21:21","tram":"yes","wheelchair":"no"}},{"type":"node","id":273098854,"lat":51.5219794,"lon":7.528476,"tags":{"name":"Pothecke","public_transport":"stop_position","railway":"tram_stop","ref:IFOPT":"de:05913:489:22:22","tram":"yes","wheelchair":"no"}},{"type":"node","id":273099461,"lat":51.520805,"lon":7.5192476,"tags":{"description":"Rüschenbrinkstraße, Gleis 5","name":"Rüschebrinkstraße","public_transport":"stop_position","railway":"tram_stop","ref:IFOPT":"de:05913:412:21:21","tram":"yes","wheelchair":"yes"}},{"type":"node","id":273099465,"lat":51.519595,"lon":7.5139241,"tags":{"bus":"yes","name":"Juchostraße","network":"VRR","network:wikidata":"Q448199","public_transport":"stop_position","railway":"tram_stop","ref:IFOPT":"de:05913:262:22:22","tram":"yes","wheelchair":"no"}},{"type":"node","id":273099467,"lat":51.515683,"lon":7.5029287,"tags":{"name":"Berliner Straße","network":"VRR","network:wikidata":"Q448199","public_transport":"stop_position","railway":"tram_stop","ref:IFOPT":"de:05913:30:22:22","tram":"yes","wheelchair":"no"}},{"type":"node","id":273099468,"lat":51.5142236,"lon":7.4964601,"tags":{"name":"Von-der-Tann-Straße","public_transport":"stop_position","railway":"tram_stop","ref:IFOPT":"de:05913:482:22:22","tram":"yes","wheelchair":"no"}},{"type":"node","id":273099589,"lat":51.5137248,"lon":7.4887422,"tags":{"layer":"1","level":"1","name":"Funkenburg","public_transport":"stop_position","railway":"tram_stop","ref:IFOPT":"de:05913:138:21:21","tram":"yes","wheelchair":"yes"}},{"type":"node","id":273106351,"lat":51.4935919,"lon":7.5560797,"tags":{"description":"Aplerbeck, Gleis","level":"1","local_ref":"1","name":"Aplerbeck","public_transport":"stop_position","railway":"stop","ref:IFOPT":"de:05913:37:21:22","tram":"yes","wheelchair":"yes"}},{"type":"node","id":273106617,"lat":51.4977027,"lon":7.5540337,"tags":{"name":"Schürbankstraße","network":"VRR","network:wikidata":"Q448199","public_transport":"stop_position","railway":"tram_stop","ref:IFOPT":"de:05913:1031:22:22","tram":"yes","wheelchair":"yes"}},{"type":"node","id":273106882,"lat":51.5009489,"lon":7.5506659,"tags":{"name":"Westendorfstraße","network":"VRR","public_transport":"stop_position","railway":"tram_stop","ref:IFOPT":"de:05913:1032:21:21","shelter":"yes","tram":"yes","wheelchair":"yes"}},{"type":"node","id":273407488,"lat":51.5474963,"lon":7.3822726,"tags":{"description":"Westerfilde, Gleis 1","local_ref":"1","name":"Westerfilde","public_transport":"stop_position","railway":"stop","ref":"1","ref:IFOPT":"de:05913:497:21:21","subway":"yes","wheelchair":"limited"}},{"type":"node","id":273407500,"lat":51.5489605,"lon":7.3976652,"tags":{"name":"Obernette","network":"VRR","network:wikidata":"Q448199","operator":"DSW21","public_transport":"stop_position","railway":"tram_stop","ref:IFOPT":"de:05913:357:22:22","tram":"yes","wheelchair":"yes"}},{"type":"node","id":273422398,"lat":51.5038233,"lon":7.5143292,"tags":{"name":"Max-Eyth-Straße","network":"VRR","network:wikidata":"Q448199","public_transport":"stop_position","railway":"tram_stop","ref:IFOPT":"de:05913:342:21:21","tram":"yes","wheelchair":"no"}},{"type":"node","id":274950346,"lat":51.4817535,"lon":7.1704875,"tags":{"local_ref":"1","name":"Elbinger Straße","public_transport":"stop_position","railway":"tram_stop","ref:IFOPT":"de:05911:6019:1:01","tram":"yes"}},{"type":"node","id":274954393,"lat":51.4808737,"lon":7.1869386,"tags":{"local_ref":"1","name":"Goldhammer Straße","public_transport":"stop_position","railway":"tram_stop","ref:IFOPT":"de:05911:5919:1:01","tram":"yes","wheelchair":"no"}},{"type":"node","id":274954438,"lat":51.4775163,"lon":7.193606,"tags":{"local_ref":"1","name":"Wattenscheider Straße","public_transport":"stop_position","railway":"tram_stop","ref:IFOPT":"de:05911:5128:1:01","tram":"yes","wheelchair":"yes"}},{"type":"node","id":277074383,"lat":51.510398,"lon":7.2668562,"tags":{"local_ref":"2","name":"Handwerksweg","operator":"BOGESTRA","operator:wikidata":"Q889060","public_transport":"stop_position","railway":"tram_stop","ref:IFOPT":"de:05911:6633:2:02","toilets:wheelchair":"no","tram":"yes","wheelchair":"yes"}},{"type":"node","id":277074541,"lat":51.4978076,"lon":7.2572043,"tags":{"local_ref":"2","name":"Weserstraße","public_transport":"stop_position","railway":"tram_stop","ref:IFOPT":"de:05911:5897:2:02","toilets:wheelchair":"no","tram":"yes","wheelchair":"yes"}},{"type":"node","id":277076052,"lat":51.5156026,"lon":7.2713133,"tags":{"local_ref":"2","name":"Heinrichstraße","public_transport":"stop_position","railway":"tram_stop","ref:IFOPT":"de:05911:5271:2:02","tram":"yes","wheelchair":"yes"}},{"type":"node","id":286328427,"lat":51.5077029,"lon":7.4692872,"tags":{"local_ref":"2","name":"Dortmund-Stadthaus","public_transport":"stop_position","railway":"tram_stop","ref":"2","ref:IFOPT":"de:05913:132:21:21","subway":"yes","tram":"yes","wheelchair":"yes"}},{"type":"node","id":286334808,"lat":51.4985417,"lon":7.4910182,"tags":{"name":"Karl-Liebknecht-Straße","public_transport":"stop_position","railway":"tram_stop","ref":"1","ref:IFOPT":"de:05913:367:21:21","tram":"yes","wheelchair":"yes"}},{"type":"node","id":286585764,"lat":51.5025961,"lon":7.4729642,"tags":{"description":"Markgrafenstraße, Gleis 2","local_ref":"2","name":"Markgrafenstraße","public_transport":"stop_position","railway":"tram_stop","ref":"2","ref:IFOPT":"de:05913:416:21:21","tram":"yes","wheelchair":"yes"}},{"type":"node","id":287148182,"lat":51.4760661,"lon":7.2341133,"tags":{"description":"Lohring","local_ref":"1","name":"Lohring","public_transport":"stop_position","railway":"tram_stop","ref:IFOPT":"de:05911:5689:1:01","tram":"yes","wheelchair":"limited"}},{"type":"node","id":287148691,"lat":51.4829776,"lon":7.2156146,"tags":{"level":"-1","local_ref":"2","name":"Bochum Rathaus","public_transport":"stop_position","railway":"tram_stop","ref:IFOPT":"de:05911:5127:1:02","tram":"yes","wheelchair":"yes"}},{"type":"node","id":287164381,"lat":51.504879,"lon":7.1020529,"tags":{"description":"Gelsenkirchen Hauptbahnhof, Gleis 2","local_ref":"2","name":"Gelsenkirchen Hauptbahnhof","network":"VRR","public_transport":"stop_position","railway":"tram_stop","ref:IFOPT":"de:05513:5613:2:11","toilets:wheelchair":"yes","tram":"yes","wheelchair":"limited"}},{"type":"node","id":287242974,"lat":51.4682853,"lon":7.2699464,"tags":{"local_ref":"2","name":"Mark 51°7","old_name":"Opel Werk I","public_transport":"stop_position","railway":"tram_stop","ref:IFOPT":"de:05911:5385:2:02","tram":"yes"}},{"type":"node","id":287245252,"lat":51.4667094,"lon":7.2967984,"tags":{"name":"Unterstraße","public_transport":"stop_position","railway":"tram_stop","ref":"2","ref:IFOPT":"de:05911:6008:2:02","tram":"yes"}},{"type":"node","id":287246939,"lat":51.4381625,"lon":7.2973331,"tags":{"image":"File:Tram Heven3.jpg","local_ref":"3","name":"Heven Dorf","name:etymology:wikidata":"Q2586698","operator":"BOGESTRA","operator:type":"public","operator:wikidata":"Q889060","public_transport":"stop_position","ref":"3","ref:IFOPT":"de:5954:5076:1:03","tram":"yes","wheelchair":"no"}},{"type":"node","id":287480729,"lat":51.5131807,"lon":7.4481553,"tags":{"name":"Unionstraße","network":"VRR","network:wikidata":"Q448199","public_transport":"stop_position","railway":"tram_stop","ref:IFOPT":"de:05913:1287:21:22","tram":"yes","wheelchair":"yes"}},{"type":"node","id":298875778,"lat":51.5318482,"lon":7.1647916,"tags":{"bus":"yes","local_ref":"6","name":"Wanne-Eickel Hauptbahnhof","network":"VRR","network:wikidata":"Q448199","note:de":"Busbetrieb nur zur Cranger Kirmes","operator":"HCR","public_transport":"stop_position","railway":"tram_stop","ref":"Steig 6","ref:IFOPT":"de:05916:7590:2:6","tram":"yes"}},{"type":"node","id":301784119,"lat":51.4871158,"lon":7.4361976,"tags":{"name":"Am Beilstück","public_transport":"stop_position","railway":"tram_stop","ref:IFOPT":"de:05913:9:21:22","tram":"yes","wheelchair":"yes"}},{"type":"node","id":302997181,"lat":51.4964712,"lon":7.4687022,"tags":{"level":"-1","name":"Westfalenpark","public_transport":"stop_position","railway":"tram_stop","ref":"2","ref:IFOPT":"de:05913:501:22:22","tram":"yes","wheelchair":"yes"}},{"type":"node","id":313011090,"lat":51.5127423,"lon":7.4151942,"tags":{"name":"Poth","public_transport":"stop_position","railway":"tram_stop","ref:IFOPT":"de:05913:385:22:22","tram":"yes","wheelchair":"no"}},{"type":"node","id":320164143,"lat":51.5454561,"lon":7.4851057,"tags":{"local_ref":"1","name":"Bauernkamp","public_transport":"stop_position","railway":"tram_stop","ref":"1","ref:IFOPT":"de:05913:58:22:22","tram":"yes","wheelchair":"yes"}},{"type":"node","id":320164144,"lat":51.5436708,"lon":7.4797592,"tags":{"local_ref":"1","name":"An den Teichen","public_transport":"stop_position","railway":"tram_stop","ref":"1","ref:IFOPT":"de:05913:34:22:22","tram":"yes","wheelchair":"yes"}},{"type":"node","id":320165076,"lat":51.5089837,"lon":7.4578819,"tags":{"name":"Städtische Kliniken","network":"VRR","public_transport":"stop_position","railway":"subway_stop","ref:IFOPT":"de:05913:451:21:22","subway":"yes"}},{"type":"node","id":321322369,"lat":51.4945134,"lon":7.4623076,"tags":{"name":"Remydamm","public_transport":"stop_position","railway":"tram_stop","ref":"1","ref:IFOPT":"de:05913:532:21:21","tram":"yes"}},{"type":"node","id":328850657,"lat":51.4948364,"lon":7.4973285,"tags":{"name":"Willem-van-Vloten-Straße","public_transport":"stop_position","railway":"tram_stop","ref":"1","ref:IFOPT":"de:05913:512:21:21","tram":"yes"}},{"type":"node","id":328850689,"lat":51.4884773,"lon":7.500505,"tags":{"description":"Hörde Bahnhof, U41, Gleis 2","layer":"-2","level":"-2","local_ref":"2","name":"Hörde Bahnhof","network":"VRR","network:wikidata":"Q448199","operator":"DSW21","public_transport":"stop_position","railway":"tram_stop","ref":"2","ref:IFOPT":"de:05913:228:21:21","subway":"yes","tram":"yes"}},{"type":"node","id":332082976,"lat":51.5239667,"lon":7.4431921,"tags":{"local_ref":"2","name":"Dortmund Hafen","public_transport":"stop_position","railway":"tram_stop","ref":"2","ref:IFOPT":"de:05913:201:21:21","tram":"yes","wheelchair":"yes"}},{"type":"node","id":334655188,"lat":51.5406823,"lon":7.4762817,"tags":{"local_ref":"1","name":"Burgholz","public_transport":"stop_position","railway":"tram_stop","ref":"1","ref:IFOPT":"de:05913:106:22:22","tram":"yes"}},{"type":"node","id":338748898,"lat":51.5432044,"lon":7.4590317,"tags":{"name":"Güterstraße","public_transport":"stop_position","railway":"tram_stop","ref:IFOPT":"de:05913:198:21:22","tram":"yes","wheelchair":"yes"}},{"type":"node","id":340084582,"lat":51.524039,"lon":7.4818698,"tags":{"description":"Borsigplatz, Steig 22","local_ref":"22","name":"Borsigplatz","public_transport":"stop_position","railway":"stop","ref":"22","ref:IFOPT":"de:05913:82:22:22","tram":"yes","wheelchair":"no","wikidata":"Q17559018","wikipedia":"de:Borsigplatz"}},{"type":"node","id":340084586,"lat":51.5262766,"lon":7.4827167,"tags":{"name":"Vincenzheim","network":"VRR","network:wikidata":"Q448199","public_transport":"stop_position","railway":"tram_stop","ref:IFOPT":"de:05913:478:21:21","tram":"yes"}},{"type":"node","id":364123159,"lat":51.4421292,"lon":7.3205817,"tags":{"local_ref":"1","name":"Hardel","old_name":"Siedlung","public_transport":"stop_position","railway":"tram_stop","ref":"1","ref:IFOPT":"de:05954:5376:1:01","tactile_paving":"contrasted","tram":"yes"}},{"type":"node","id":418402513,"lat":51.4403136,"lon":7.3038777,"tags":{"local_ref":"1","name":"Am Steinberg","operator":"BOGESTRA","operator:type":"public","operator:wikidata":"Q889060","public_transport":"stop_position","ref":"1","ref:IFOPT":"de:5954:5676:0:01","tram":"yes","wheelchair":"limited"}},{"type":"node","id":439493095,"lat":51.5127729,"lon":7.415203,"tags":{"name":"Poth","operator":"DSW21","public_transport":"platform","ref:IFOPT":"de:05913:385:22:22","shelter":"yes","tram":"yes"}},{"type":"node","id":439493098,"lat":51.5126614,"lon":7.4153384,"tags":{"bench":"yes","bin":"yes","lit":"yes","name":"Poth","operator":"DSW21","public_transport":"platform","ref:IFOPT":"de:05913:385:21:21","shelter":"yes","tactile_paving":"no","tram":"yes"}},{"type":"node","id":439494790,"lat":51.5266385,"lon":7.4827296,"tags":{"bench":"yes","bin":"yes","lit":"yes","name":"Vincenzheim","network":"VRR","network:wikidata":"Q448199","network:wikipedia":"de:Verkehrsverbund Rhein-Ruhr","operator":"DSW21","public_transport":"platform","ref:IFOPT":"de:05913:478:21:22","shelter":"yes","tactile_paving":"no","tram":"yes","wheelchair":"no"}},{"type":"node","id":439494806,"lat":51.5262659,"lon":7.4828063,"tags":{"bench":"no","bin":"yes","lit":"no","name":"Vincenzheim","network":"VRR","network:wikidata":"Q448199","network:wikipedia":"de:Verkehrsverbund Rhein-Ruhr","operator":"DSW21","public_transport":"platform","ref:IFOPT":"de:05913:478:21:21","shelter":"no","tactile_paving":"no","tram":"yes","wheelchair":"no"}},{"type":"node","id":440148763,"lat":51.549523,"lon":7.4911036,"tags":{"local_ref":"2","name":"Schulte-Rödding","public_transport":"stop_position","railway":"tram_stop","ref":"2","ref:IFOPT":"de:05913:433:21:21","tram":"yes","wheelchair":"yes"}},{"type":"node","id":447035767,"lat":51.5289958,"lon":7.4836449,"tags":{"bus":"yes","highway":"bus_stop","name":"Westfalenhütte","network":"VRR","network:wikidata":"Q448199","network:wikipedia":"de:Verkehrsverbund Rhein-Ruhr","public_transport":"stop_position","railway":"tram_stop","ref:IFOPT":"de:05913:500:21:21","tram":"yes","wheelchair":"yes"}},{"type":"node","id":448901178,"lat":51.5299026,"lon":7.161098,"tags":{"bus":"yes","local_ref":"1","name":"Am Buschmannshof","network":"VRR","network:wikidata":"Q448199","operator":"BOGESTRA","public_transport":"stop_position","railway":"tram_stop","ref":"Bussteig 1","ref:IFOPT":"de:05916:7589:1:1","tram":"yes"}},{"type":"node","id":499008699,"lat":51.4956384,"lon":7.1894954,"tags":{"local_ref":"1","name":"Bodelschwinghplatz","public_transport":"stop_position","railway":"tram_stop","ref:IFOPT":"de:05911:5019:1:01","toilets:wheelchair":"no","tram":"yes","wheelchair":"yes"}},{"type":"node","id":509672288,"lat":51.5140302,"lon":7.2110965,"tags":{"local_ref":"4","name":"Rensingstraße","network":"VRR","network:wikidata":"Q448199","public_transport":"stop_position","railway":"stop","ref:IFOPT":"de:05911:6652:2:04","subway":"yes","wheelchair":"yes"}},{"type":"node","id":509686129,"lat":51.5302018,"lon":7.2212069,"tags":{"local_ref":"2","name":"Hölkeskampring","network":"VRR","network:wikidata":"Q448199","public_transport":"stop_position","railway":"stop","ref":"2","ref:IFOPT":"de:05916:7653:2:2","subway":"yes","wheelchair":"limited"}},{"type":"node","id":509690101,"lat":51.5240668,"lon":7.2156582,"tags":{"local_ref":"2","name":"Berninghausstraße","network":"VRR","network:wikidata":"Q448199","public_transport":"stop_position","railway":"stop","ref":"2","ref:IFOPT":"de:05916:5706:6:02","subway":"yes","wheelchair":"no"}},{"type":"node","id":513606632,"lat":51.535805,"lon":7.2261548,"tags":{"layer":"-2","level":"-2","local_ref":"7","name":"Archäologie-Museum/Kreuzkirche","network":"VRR","network:wikidata":"Q448199","operator":"BOGESTRA","public_transport":"stop_position","railway":"stop","ref":"2","ref:IFOPT":"de:05916:7504:2:7","subway":"yes","wheelchair":"yes"}},{"type":"node","id":513606638,"lat":51.5412757,"lon":7.221844,"tags":{"description":"Herne Mitten, Gleis","name":"Herne Mitte","network":"VRR","network:wikidata":"Q448199","public_transport":"stop_position","railway":"stop","ref:IFOPT":"de:05916:7502:2:4","subway":"yes","wheelchair":"yes"}},{"type":"node","id":513606643,"lat":51.5445088,"lon":7.2187328,"tags":{"local_ref":"1","name":"Herne Bahnhof","network":"VRR","network:wikidata":"Q448199","public_transport":"stop_position","railway":"stop","ref":"1","ref:IFOPT":"de:05916:7501:3:1","subway":"yes","wheelchair":"no"}},{"type":"node","id":552335772,"lat":51.5071089,"lon":7.4515766,"tags":{"description":"Dortmund Möllerbrücke, Gleis 2","local_ref":"2","name":"Dortmund Möllerbrücke","network":"VRR","public_transport":"stop_position","railway":"stop","ref":"2","ref:IFOPT":"de:05913:352:21:22","subway":"yes"}},{"type":"node","id":603745866,"lat":51.5324376,"lon":7.4562743,"tags":{"name":"Immermannstraße/Klinikzentrum Nord","public_transport":"stop_position","railway":"tram_stop","ref:IFOPT":"de:05913:250:22:22","tram":"yes","wheelchair":"yes"}},{"type":"node","id":613091185,"lat":51.5054872,"lon":7.2608384,"tags":{"local_ref":"2","name":"Nordbad","public_transport":"stop_position","railway":"tram_stop","ref:IFOPT":"de:05911:5401:3:02","toilets:wheelchair":"no","tram":"yes","wheelchair":"yes"}},{"type":"node","id":613093315,"lat":51.5242181,"lon":7.2839913,"tags":{"local_ref":"1","name":"Schürbankstraße","operator":"BOGESTRA","operator:wikidata":"Q889060","public_transport":"stop_position","railway":"tram_stop","ref:IFOPT":"de:05911:5134:1:01","toilets:wheelchair":"no","tram":"yes","wheelchair":"yes"}},{"type":"node","id":613093322,"lat":51.513909,"lon":7.2691384,"tags":{"local_ref":"2","name":"Punges Feld","operator":"BOGESTRA","operator:wikidata":"Q889060","public_transport":"stop_position","railway":"tram_stop","ref:IFOPT":"de:05911:6651:2:02","toilets:wheelchair":"no","tram":"yes","wheelchair":"yes"}},{"type":"node","id":613093330,"lat":51.5218677,"lon":7.2787622,"tags":{"local_ref":"2","name":"Holthauser Straße","public_transport":"stop_position","railway":"tram_stop","ref:IFOPT":"de:05911:5242:2:02","tram":"yes","wheelchair":"no"}},{"type":"node","id":614561194,"lat":51.4806956,"lon":7.1387335,"tags":{"local_ref":"3","name":"August-Bebel-Platz","public_transport":"stop_position","railway":"tram_stop","ref:IFOPT":"de:05911:5264:3:03","tram":"yes","wheelchair":"yes"}},{"type":"node","id":614561195,"lat":51.4799635,"lon":7.1422017,"tags":{"local_ref":"1","name":"Wattenscheid Post","public_transport":"stop_position","railway":"tram_stop","ref:IFOPT":"de:05911:5023:1:01","tram":"yes","wheelchair":"yes"}},{"type":"node","id":614561196,"lat":51.480003,"lon":7.1477017,"tags":{"local_ref":"1","name":"Querstraße","public_transport":"stop_position","railway":"tram_stop","ref:IFOPT":"de:05911:5292:1:01","tram":"yes","wheelchair":"yes"}},{"type":"node","id":616988121,"lat":51.4789973,"lon":7.2230816,"tags":{"description":"Bochum Hauptbahnhof, Gleis 1","local_ref":"21","name":"Bochum Hauptbahnhof","public_transport":"stop_position","railway":"tram_stop","ref":"1","ref:IFOPT":"de:05911:5194:1:21","tram":"yes","wheelchair":"no"}},{"type":"node","id":617001691,"lat":51.4653873,"lon":7.2927993,"tags":{"local_ref":"2","name":"Alte Ümminger Straße","public_transport":"stop_position","railway":"tram_stop","ref:IFOPT":"de:05911:5908:2:02","tram":"yes","wheelchair":"yes"}},{"type":"node","id":617510057,"lat":51.4259198,"lon":7.1607802,"tags":{"local_ref":"1","name":"Linden Mitte","network":"VRR","network:wikidata":"Q448199","operator":"BOGESTRA","public_transport":"stop_position","railway":"tram_stop","ref:IFOPT":"de:05911:5290:1:01","tram":"yes","wheelchair":"no"}},{"type":"node","id":617515194,"lat":51.4007299,"lon":7.1738124,"tags":{"departures_board":"realtime","name":"Bahnhofstraße","network":"VRR","network:wikidata":"Q448199","operator":"BOGESTRA","public_transport":"stop_position","railway":"tram_stop","tram":"yes","wheelchair":"yes"}},{"type":"node","id":673710689,"lat":51.5126133,"lon":7.4181565,"tags":{"name":"Dorstfeld Betriebshof","public_transport":"stop_position","railway":"tram_stop","ref:IFOPT":"de:05913:128:22:22","tram":"yes"}},{"type":"node","id":674203798,"lat":51.525906,"lon":7.5674732,"tags":{"name":"Döringhoff","network":"VRR","network:wikidata":"Q448199","public_transport":"stop_position","railway":"tram_stop","ref:IFOPT":"de:05913:122:21:21","tram":"yes","wheelchair":"yes"}},{"type":"node","id":675225702,"lat":51.5277501,"lon":7.5771559,"tags":{"name":"Businkstraße","network":"VRR","network:wikidata":"Q448199","public_transport":"stop_position","railway":"tram_stop","ref:IFOPT":"de:05913:110:21:21","source":"HiRes aerial imagery","tram":"yes","vrr:wabe":"0384","wheelchair":"yes"}},{"type":"node","id":675225710,"lat":51.5277779,"lon":7.5771454,"tags":{"name":"Businkstraße","network":"VRR","network:wikidata":"Q448199","public_transport":"stop_position","railway":"tram_stop","ref:IFOPT":"de:05913:110:22:22","source":"HiRes aerial imagery","tram":"yes","vrr:wabe":"0384","wheelchair":"yes"}},{"type":"node","id":676889005,"lat":51.4711911,"lon":7.435402,"tags":{"name":"Hombruch Hallenbad","public_transport":"stop_position","railway":"tram_stop","ref:IFOPT":"de:05913:429:21:21","tram":"yes","wheelchair":"limited"}},{"type":"node","id":676906689,"lat":51.4793142,"lon":7.4359562,"tags":{"name":"Eierkampstraße","public_transport":"stop_position","railway":"tram_stop","ref:IFOPT":"de:05913:147:21:21","tram":"yes","wheelchair":"yes"}},{"type":"node","id":676964910,"lat":51.4871444,"lon":7.4360845,"tags":{"name":"Am Beilstück","public_transport":"stop_position","railway":"tram_stop","ref:IFOPT":"de:05913:9:21:21","tram":"yes","wheelchair":"yes"}},{"type":"node","id":677074950,"lat":51.489847,"lon":7.4381498,"tags":{"description":"An der Palmweide, Steig 1","local_ref":"1","name":"An der Palmweide","network":"VRR","network:wikidata":"Q448199","public_transport":"stop_position","railway":"tram_stop","ref":"1","ref:IFOPT":"de:05913:36:21:21","tram":"yes","wheelchair":"yes"}},{"type":"node","id":677074954,"lat":51.4898227,"lon":7.4382548,"tags":{"description":"An der Palmweide, Steig 2","local_ref":"2","name":"An der Palmweide","network":"VRR","network:wikidata":"Q448199","public_transport":"stop_position","railway":"tram_stop","ref":"2","ref:IFOPT":"de:05913:36:21:22","tram":"yes","wheelchair":"yes"}},{"type":"node","id":677079306,"lat":51.4822573,"lon":7.4329231,"tags":{"description":"Barop Parkhaus, Gleis 1","local_ref":"1","name":"Barop Parkhaus","network":"VRR","network:wikidata":"Q448199","public_transport":"stop_position","railway":"tram_stop","ref":"1","ref:IFOPT":"de:05913:55:21:21","tram":"yes","wheelchair":"yes"}},{"type":"node","id":677083877,"lat":51.476061,"lon":7.4353529,"tags":{"name":"Harkortstraße","network":"VRR","network:wikidata":"Q448199","operator":"DSW21","public_transport":"stop_position","railway":"tram_stop","ref:IFOPT":"de:05913:207:21:21","tram":"yes","wheelchair":"yes"}},{"type":"node","id":677300600,"lat":51.4951757,"lon":7.4438203,"tags":{"description":"Theodor-Fliedner-Heim, Steig 1","local_ref":"1","name":"Theodor-Fliedner-Heim","network":"VRR","network:wikidata":"Q448199","public_transport":"stop_position","railway":"tram_stop","ref":"1","ref:IFOPT":"de:05913:465:21:21","tram":"yes","wheelchair":"yes"}},{"type":"node","id":679130750,"lat":51.5474212,"lon":7.3822271,"tags":{"description":"Westerfilde, Gleis 2","local_ref":"2","name":"Westerfilde","public_transport":"stop_position","railway":"stop","ref":"2","ref:IFOPT":"de:05913:497:21:22","subway":"yes","wheelchair":"limited"}},{"type":"node","id":679150206,"lat":51.5490305,"lon":7.3968806,"tags":{"name":"Obernette","network":"VRR","network:wikidata":"Q448199","operator":"DSW21","public_transport":"stop_position","railway":"tram_stop","ref:IFOPT":"de:05913:357:21:21","tram":"yes","wheelchair":"yes"}},{"type":"node","id":679156582,"lat":51.5403765,"lon":7.4073426,"tags":{"local_ref":"2","name":"Buschstraße","public_transport":"stop_position","railway":"tram_stop","ref":"2","ref:IFOPT":"de:05913:109:21:21","tram":"yes","wheelchair":"yes"}},{"type":"node","id":679367582,"lat":51.5364151,"lon":7.4120032,"tags":{"local_ref":"2","name":"Parsevalstraße","public_transport":"stop_position","railway":"tram_stop","ref":"2","ref:IFOPT":"de:05913:377:21:21","tram":"yes","wheelchair":"yes"}},{"type":"node","id":679386942,"lat":51.5348246,"lon":7.4148301,"tags":{"description":"Huckarde Bushof, Gleis 2","local_ref":"2","name":"Huckarde Bushof","public_transport":"stop_position","railway":"tram_stop","ref":"2","ref:IFOPT":"de:05913:244:21:21","tram":"yes","wheelchair":"yes"}},{"type":"node","id":679401958,"lat":51.5320237,"lon":7.4182227,"tags":{"name":"Huckarde Abzweig","public_transport":"stop_position","railway":"tram_stop","ref:IFOPT":"de:05913:243:21:21","tram":"yes","wheelchair":"no"}},{"type":"node","id":679414092,"lat":51.526044,"lon":7.4236979,"tags":{"name":"Insterburger Straße","public_transport":"stop_position","railway":"tram_stop","ref:IFOPT":"de:05913:257:21:21","tram":"yes","wheelchair":"yes"}},{"type":"node","id":679650423,"lat":51.4944871,"lon":7.462309,"tags":{"name":"Remydamm","public_transport":"stop_position","railway":"tram_stop","ref":"2","ref:IFOPT":"de:05913:532:22:22","tram":"yes","wheelchair":"yes"}},{"type":"node","id":679652729,"lat":51.4768809,"lon":7.4756905,"tags":{"name":"Hacheney U","network":"VRR","network:wikidata":"Q448199","public_transport":"stop_position","railway":"tram_stop","ref":"1","ref:IFOPT":"de:05913:200:21:21","ref:ibnr":"652098","tram":"yes","wheelchair":"yes"}},{"type":"node","id":679660338,"lat":51.4841577,"lon":7.4710174,"tags":{"name":"Rombergpark","public_transport":"stop_position","railway":"tram_stop","ref":"1","ref:IFOPT":"de:05913:407:21:21","tram":"yes","wheelchair":"limited"}},{"type":"node","id":679676139,"lat":51.4935766,"lon":7.5559821,"tags":{"description":"Aplerbeck, Gleis","level":"1","name":"Aplerbeck","public_transport":"stop_position","railway":"stop","ref:IFOPT":"de:05913:37:21:21","tram":"yes","wheelchair":"yes"}},{"type":"node","id":679678347,"lat":51.4976886,"lon":7.5540008,"tags":{"name":"Schürbankstraße","network":"VRR","network:wikidata":"Q448199","public_transport":"stop_position","railway":"tram_stop","ref:IFOPT":"de:05913:1031:21:21","tram":"yes","wheelchair":"yes"}},{"type":"node","id":679686308,"lat":51.5616617,"lon":7.5460545,"tags":{"name":"Grevel","public_transport":"stop_position","railway":"tram_stop","ref:IFOPT":"de:05913:188:21:21","tram":"yes","wheelchair":"yes"}},{"type":"node","id":679692517,"lat":51.5575925,"lon":7.5431666,"tags":{"name":"Droote","public_transport":"stop_position","railway":"tram_stop","ref:IFOPT":"de:05913:136:21:21","tram":"yes"}},{"type":"node","id":679720548,"lat":51.5523551,"lon":7.5427415,"tags":{"description":"Scharnhorst Zentrum, Gleis 2","layer":"2","level":"2","local_ref":"2","name":"Scharnhorst Zentrum","public_transport":"stop_position","railway":"stop","ref":"2","ref:IFOPT":"de:05913:424:21:21","tram":"yes"}},{"type":"node","id":679736264,"lat":51.5499519,"lon":7.5291373,"tags":{"name":"Gleiwitzstraße","public_transport":"stop_position","railway":"tram_stop","ref:IFOPT":"de:05913:182:21:21","tram":"yes"}},{"type":"node","id":679736399,"lat":51.5496465,"lon":7.5384044,"tags":{"name":"Flughafenstraße","public_transport":"stop_position","railway":"tram_stop","ref:IFOPT":"de:05913:163:21:21","tram":"yes"}},{"type":"node","id":679749694,"lat":51.5547759,"lon":7.5123911,"tags":{"level":"1","name":"Kirchderne","public_transport":"stop_position","railway":"tram_stop","ref":"2","ref:IFOPT":"de:05913:273:21:21","tram":"yes"}},{"type":"node","id":679751712,"lat":51.5538027,"lon":7.4991865,"tags":{"name":"Franz-Zimmer-Siedlung","public_transport":"stop_position","railway":"tram_stop","ref:IFOPT":"de:05913:165:21:21","tram":"yes"}},{"type":"node","id":679757991,"lat":51.5454874,"lon":7.4850835,"tags":{"local_ref":"2","name":"Bauernkamp","public_transport":"stop_position","railway":"tram_stop","ref":"2","ref:IFOPT":"de:05913:58:21:21","tram":"yes"}},{"type":"node","id":679767070,"lat":51.543701,"lon":7.4797313,"tags":{"local_ref":"2","name":"An den Teichen","public_transport":"stop_position","railway":"tram_stop","ref":"2","ref:IFOPT":"de:05913:34:21:21","tram":"yes"}},{"type":"node","id":679772470,"lat":51.5415665,"lon":7.4767645,"tags":{"local_ref":"2","name":"Burgholz","public_transport":"stop_position","railway":"tram_stop","ref":"2","ref:IFOPT":"de:05913:106:21:21","tram":"yes"}},{"type":"node","id":679780620,"lat":51.535805,"lon":7.4748012,"tags":{"local_ref":"2","name":"Eisenstraße","public_transport":"stop_position","railway":"tram_stop","ref":"2","ref:IFOPT":"de:05913:148:21:21","tram":"yes","wheelchair":"yes"}},{"type":"node","id":679787581,"lat":51.5307286,"lon":7.4728592,"tags":{"local_ref":"2","name":"Glückaufstraße","public_transport":"stop_position","railway":"stop","ref":"2","ref:IFOPT":"de:05913:183:21:21","tram":"yes","wheelchair":"yes"}},{"type":"node","id":681363246,"lat":51.5807045,"lon":7.4627839,"tags":{"name":"Brechten Zentrum","public_transport":"stop_position","railway":"tram_stop","ref:IFOPT":"de:05913:91:21:21","tram":"yes","wheelchair":"yes"}},{"type":"node","id":681390810,"lat":51.569951,"lon":7.4646168,"tags":{"name":"Maienweg","network":"VRR","network:wikidata":"Q448199","operator":"DSW21","public_transport":"stop_position","railway":"tram_stop","ref:IFOPT":"de:05913:1172:21:21","tram":"yes","wheelchair":"limited"}},{"type":"node","id":681390833,"lat":51.5745119,"lon":7.463469,"tags":{"name":"Wittichstraße","network":"VRR","network:wikidata":"Q448199","operator":"DSW21","public_transport":"stop_position","railway":"tram_stop","ref:IFOPT":"de:05913:515:21:22","tram":"yes","wheelchair":"yes"}},{"type":"node","id":681461828,"lat":51.5644228,"lon":7.4648092,"tags":{"name":"Waldesruh","network":"VRR","network:wikidata":"Q448199","operator":"DSW21","public_transport":"stop_position","railway":"tram_stop","ref:IFOPT":"de:05913:487:21:21","tram":"yes","wheelchair":"yes"}},{"type":"node","id":681477134,"lat":51.557857,"lon":7.4647485,"tags":{"name":"Grävingholz","public_transport":"stop_position","railway":"tram_stop","ref:IFOPT":"de:05913:186:21:21","tram":"yes","wheelchair":"yes"}},{"type":"node","id":681477181,"lat":51.5553199,"lon":7.4652929,"tags":{"name":"Externberg","public_transport":"stop_position","railway":"tram_stop","ref:IFOPT":"de:05913:156:21:21","tram":"yes","wheelchair":"yes"}},{"type":"node","id":681479331,"lat":51.55215,"lon":7.4642495,"tags":{"name":"Amtsstraße","public_transport":"stop_position","railway":"tram_stop","ref:IFOPT":"de:05913:33:21:21","tram":"yes","wheelchair":"yes"}},{"type":"node","id":681507171,"lat":51.5482045,"lon":7.4619597,"tags":{"name":"Zeche Minister Stein U","network":"VRR","network:wikidata":"Q448199","public_transport":"stop_position","railway":"tram_stop","ref:IFOPT":"de:05913:522:21:21","tram":"yes","wheelchair":"yes"}},{"type":"node","id":681507186,"lat":51.5432357,"lon":7.4589533,"tags":{"name":"Güterstraße","public_transport":"stop_position","railway":"tram_stop","ref:IFOPT":"de:05913:198:21:21","tram":"yes","wheelchair":"yes"}},{"type":"node","id":681562578,"lat":51.5364244,"lon":7.455638,"tags":{"local_ref":"3","name":"Fredenbaum","public_transport":"stop_position","railway":"stop","ref":"3","ref:IFOPT":"de:05913:166:24:24","subway":"yes","wheelchair":"yes"}},{"type":"node","id":681562612,"lat":51.5364189,"lon":7.4564588,"tags":{"local_ref":"1","name":"Fredenbaum","public_transport":"stop_position","railway":"tram_stop","ref":"1","ref:IFOPT":"de:05913:166:22:22","subway":"yes","tram":"yes","wheelchair":"yes"}},{"type":"node","id":681562629,"lat":51.5361717,"lon":7.4564243,"tags":{"local_ref":"2","name":"Fredenbaum","public_transport":"stop_position","railway":"tram_stop","ref":"2","ref:IFOPT":"de:05913:166:21:21","subway":"yes","tram":"yes","wheelchair":"yes"}},{"type":"node","id":681577879,"lat":51.5335908,"lon":7.4559518,"tags":{"name":"Immermannstraße/Klinikzentrum Nord","public_transport":"stop_position","railway":"tram_stop","ref:IFOPT":"de:05913:250:21:21","tram":"yes","wheelchair":"yes"}},{"type":"node","id":681592826,"lat":51.528817,"lon":7.4607725,"tags":{"name":"Lortzingstraße","public_transport":"stop_position","railway":"tram_stop","ref:IFOPT":"de:05913:322:21:21","tram":"yes","wheelchair":"yes"}},{"type":"node","id":681605480,"lat":51.5140052,"lon":7.4827173,"tags":{"name":"Lippestraße","public_transport":"stop_position","railway":"tram_stop","ref:IFOPT":"de:05913:318:22:22","tram":"yes","wheelchair":"yes"}},{"type":"node","id":681612187,"lat":51.5137573,"lon":7.4887325,"tags":{"layer":"1","level":"1","name":"Funkenburg","public_transport":"stop_position","railway":"tram_stop","ref:IFOPT":"de:05913:138:22:22","tram":"yes","wheelchair":"yes"}},{"type":"node","id":681624842,"lat":51.5828578,"lon":7.4554146,"tags":{"name":"Oetringhauser Straße","network":"VRR","network:wikidata":"Q448199","operator":"DSW21","public_transport":"stop_position","railway":"tram_stop","ref:IFOPT":"de:05913:370:21:21","tram":"yes"}},{"type":"node","id":692956005,"lat":51.5279715,"lon":7.5830768,"tags":{"name":"Asseln Aplerbecker Straße","network":"VRR","network:wikidata":"Q448199","public_transport":"stop_position","railway":"tram_stop","ref:IFOPT":"de:05913:46:21:21","tram":"yes","wheelchair":"yes"}},{"type":"node","id":694778713,"lat":51.5280748,"lon":7.5823018,"tags":{"name":"Asseln Aplerbecker Straße","network":"VRR","network:wikidata":"Q448199","public_transport":"stop_position","railway":"tram_stop","ref:IFOPT":"de:05913:46:22:22","tram":"yes","wheelchair":"yes"}},{"type":"node","id":694779025,"lat":51.5282509,"lon":7.5876776,"tags":{"name":"Am Hagedorn","network":"VRR","network:wikidata":"Q448199","public_transport":"stop_position","railway":"tram_stop","ref:IFOPT":"de:05913:16:22:22","tram":"yes","wheelchair":"yes"}},{"type":"node","id":694779035,"lat":51.5281865,"lon":7.5877621,"tags":{"name":"Am Hagedorn","network":"VRR","network:wikidata":"Q448199","public_transport":"stop_position","railway":"tram_stop","ref:IFOPT":"de:05913:16:21:21","tram":"yes","wheelchair":"yes"}},{"type":"node","id":694779442,"lat":51.5300931,"lon":7.6008064,"tags":{"name":"Zugstraße","public_transport":"stop_position","railway":"tram_stop","ref:IFOPT":"de:05913:524:21:22","tram":"yes","wheelchair":"yes"}},{"type":"node","id":697186625,"lat":51.5331558,"lon":7.6188908,"tags":{"name":"Dollersweg","public_transport":"stop_position","railway":"tram_stop","ref:IFOPT":"de:05913:124:21:21","tram":"yes"}},{"type":"node","id":697186630,"lat":51.532147,"lon":7.6097176,"tags":{"name":"Eichwaldstraße","public_transport":"stop_position","railway":"tram_stop","ref:IFOPT":"de:05913:146:21:21","tram":"yes","wheelchair":"limited"}},{"type":"node","id":697186649,"lat":51.5301271,"lon":7.6015672,"tags":{"name":"Zugstraße","public_transport":"stop_position","railway":"tram_stop","ref:IFOPT":"de:05913:524:21:21","tram":"yes","wheelchair":"yes"}},{"type":"node","id":697186673,"lat":51.5327253,"lon":7.6146461,"tags":{"name":"Bockumweg","public_transport":"stop_position","railway":"tram_stop","ref:IFOPT":"de:05913:72:21:21","tram":"yes","wheelchair":"limited"}},{"type":"node","id":723283434,"lat":51.5096768,"lon":7.3849546,"tags":{"name":"Walbertstraße/Schulmuseum","public_transport":"stop_position","railway":"stop","ref:IFOPT":"de:05913:486:2:02","tram":"yes","wheelchair":"yes"}},{"type":"node","id":723283448,"lat":51.5094638,"lon":7.3862538,"tags":{"name":"Walbertstraße/Schulmuseum","public_transport":"stop_position","railway":"tram_stop","ref:IFOPT":"de:05913:486:21:21","tram":"yes","wheelchair":"yes"}},{"type":"node","id":740375220,"lat":51.5295966,"lon":7.5963023,"tags":{"name":"Ruckebierstraße","public_transport":"stop_position","railway":"tram_stop","ref:IFOPT":"de:05913:410:21:21","tram":"yes","wheelchair":"yes"}},{"type":"node","id":769505626,"lat":51.5088599,"lon":7.3896111,"tags":{"description":"Dortmund Marten Süd, Steig 2","local_ref":"22","name":"Dortmund Marten Süd","public_transport":"stop_position","railway":"tram_stop","ref":"22","ref:IFOPT":"de:05913:341:22:22","tram":"yes","wheelchair":"yes"}},{"type":"node","id":882939088,"lat":51.444507,"lon":7.3365401,"tags":{"bus":"yes","name":"Marienhospital","name:etymology:wikidata":"Q1897720","network":"VRR","network:wikidata":"Q448199","operator":"BOGESTRA","operator:type":"public","operator:wikidata":"Q889060","public_transport":"stop_position","ref":"1","ref:IFOPT":"de:5954:5592:1","tram":"yes","wheelchair":"yes","wheelchair:description:de":"Die auf der Linie 310 eingesetzten Fahrzeuge sind nicht barrierefrei."}},{"type":"node","id":931930950,"lat":51.4788737,"lon":7.2227948,"tags":{"description":"Bochum Hauptbahnhof, Gleis 4","local_ref":"32","name":"Bochum Hauptbahnhof","public_transport":"stop_position","railway":"stop","ref":"4","ref:IFOPT":"de:05911:5194:3:32","subway":"yes","wheelchair":"yes"}},{"type":"node","id":932036554,"lat":51.4800054,"lon":7.1613231,"tags":{"local_ref":"1","name":"Centrumplatz","public_transport":"stop_position","railway":"tram_stop","ref:IFOPT":"de:05911:5323:1:01","tram":"yes","wheelchair":"no"}},{"type":"node","id":932158548,"lat":51.4883048,"lon":7.2138519,"tags":{"description":"Deutsches Bergbau-Museum","local_ref":"2","name":"Deutsches Bergbau-Museum","public_transport":"stop_position","railway":"stop","ref:IFOPT":"de:05911:5410:1:02","subway":"yes","wheelchair":"yes"}},{"type":"node","id":932158553,"lat":51.4940723,"lon":7.2127354,"tags":{"description":"Feldsieper Straße, Gleis 2","local_ref":"2","name":"Feldsieper Straße","public_transport":"stop_position","railway":"stop","ref":"2","ref:IFOPT":"de:05911:5463:2:02","subway":"yes","wheelchair":"yes"}},{"type":"node","id":937170677,"lat":51.4473334,"lon":7.2516135,"tags":{"local_ref":"3","name":"Gesundheitscampus","name:etymology:wikidata":"Q18624543","public_transport":"stop_position","railway":"stop","ref:IFOPT":"de:05911:5949:3:03","subway":"yes"}},{"type":"node","id":954814305,"lat":51.4698926,"lon":7.267544,"tags":{"local_ref":"2","name":"Laer Mitte","public_transport":"stop_position","railway":"tram_stop","ref:IFOPT":"de:05911:5280:1:02","tram":"yes","wheelchair":"no"}},{"type":"node","id":954820019,"lat":51.4697448,"lon":7.2676078,"tags":{"local_ref":"1","name":"Laer Mitte","public_transport":"stop_position","railway":"tram_stop","ref:IFOPT":"de:05911:5280:1:01","tram":"yes"}},{"type":"node","id":988613266,"lat":51.4810763,"lon":7.1663506,"tags":{"local_ref":"1","name":"Alte Heide","public_transport":"stop_position","railway":"tram_stop","ref:IFOPT":"de:05911:5423:1:01","tram":"yes"}},{"type":"node","id":1038257400,"lat":51.5127554,"lon":7.4184973,"tags":{"name":"Dorstfeld Betriebshof","public_transport":"stop_position","railway":"tram_stop","ref:IFOPT":"de:05913:128:21:21","tram":"yes","wheelchair":"no"}},{"type":"node","id":1042990509,"lat":51.4717291,"lon":7.1710244,"tags":{"local_ref":"2","name":"Leibnizstraße","public_transport":"stop_position","railway":"tram_stop","ref:IFOPT":"de:05911:5163:2:02","tram":"yes"}},{"type":"node","id":1042990740,"lat":51.4673267,"lon":7.1583454,"tags":{"local_ref":"2","name":"Brucknerstraße","public_transport":"stop_position","railway":"tram_stop","ref:IFOPT":"de:05911:5426:2:02","tram":"yes"}},{"type":"node","id":1042990788,"lat":51.4739582,"lon":7.1808189,"tags":{"local_ref":"2","name":"Engelsburger Straße","public_transport":"stop_position","railway":"tram_stop","ref:IFOPT":"de:05911:5105:2:02","tram":"yes"}},{"type":"node","id":1042990846,"lat":51.4644191,"lon":7.1516922,"tags":{"local_ref":"2","name":"Höntrop Kirche","public_transport":"stop_position","railway":"tram_stop","ref:IFOPT":"de:05911:5366:2:02","tram":"yes","wheelchair":"yes"}},{"type":"node","id":1042990888,"lat":51.4694856,"lon":7.1624499,"tags":{"local_ref":"2","name":"Röntgenstraße","public_transport":"stop_position","railway":"tram_stop","ref:IFOPT":"de:05911:5092:2:02","tram":"yes"}},{"type":"node","id":1043060660,"lat":51.4759628,"lon":7.1892987,"tags":{"local_ref":"2","name":"Erzstraße","public_transport":"stop_position","railway":"tram_stop","ref:IFOPT":"de:05911:5482:2:02","tram":"yes","wheelchair":"no"}},{"type":"node","id":1043060676,"lat":51.4768906,"lon":7.1933377,"tags":{"local_ref":"3","name":"Wattenscheider Straße","public_transport":"stop_position","railway":"tram_stop","ref:IFOPT":"de:05911:5128:3:03","tram":"yes","wheelchair":"yes"}},{"type":"node","id":1043060681,"lat":51.4768102,"lon":7.1928367,"tags":{"local_ref":"2","name":"Wattenscheider Straße","public_transport":"stop_position","railway":"tram_stop","ref:IFOPT":"de:05911:5128:2:02","tram":"yes","wheelchair":"yes"}},{"type":"node","id":1043060691,"lat":51.476149,"lon":7.1899794,"tags":{"local_ref":"1","name":"Erzstraße","public_transport":"stop_position","railway":"tram_stop","ref:IFOPT":"de:05911:5482:1:01","tram":"yes","wheelchair":"no"}},{"type":"node","id":1043114893,"lat":51.4783447,"lon":7.1994254,"tags":{"local_ref":"3","name":"Jacob-Mayer-Straße/Jahrhunderthalle","public_transport":"stop_position","railway":"tram_stop","ref:IFOPT":"de:05911:5543:3:03","tram":"yes","wheelchair":"yes"}},{"type":"node","id":1043114909,"lat":51.4784228,"lon":7.1998848,"tags":{"local_ref":"4","name":"Jacob-Mayer-Straße/Jahrhunderthalle","public_transport":"stop_position","railway":"tram_stop","ref:IFOPT":"de:05911:5543:4:04","tram":"yes","wheelchair":"yes"}},{"type":"node","id":1043153163,"lat":51.4794349,"lon":7.2045092,"tags":{"description":"Bochumer Verein/Jahrhunderthalle","local_ref":"2","name":"Bochumer Verein/Jahrhunderthalle","public_transport":"stop_position","railway":"tram_stop","ref:IFOPT":"de:05911:5692:1:02","tram":"yes"}},{"type":"node","id":1043153247,"lat":51.4818401,"lon":7.216254,"tags":{"layer":"-2","level":"-2","loc_name":"Bochum Rathaus (Süd)","local_ref":"2","name":"Bochum Rathaus","public_transport":"stop_position","railway":"tram_stop","ref":"2","ref:IFOPT":"de:05911:5127:5:02","tram":"yes","wheelchair":"yes"}},{"type":"node","id":1043194319,"lat":51.4759013,"lon":7.2342244,"tags":{"description":"Lohring","local_ref":"2","name":"Lohring","public_transport":"stop_position","railway":"tram_stop","ref:IFOPT":"de:05911:5689:1:02","tram":"yes","wheelchair":"limited"}},{"type":"node","id":1043194330,"lat":51.4788133,"lon":7.222628,"tags":{"description":"Bochum Hauptbahnhof, Gleis 2","local_ref":"22","name":"Bochum Hauptbahnhof","public_transport":"stop_position","railway":"tram_stop","ref":"2","ref:IFOPT":"de:05911:5194:3:22","tram":"yes","wheelchair":"yes"}},{"type":"node","id":1043297498,"lat":51.4733925,"lon":7.2410875,"tags":{"local_ref":"2","name":"Freigrafendamm","public_transport":"stop_position","railway":"tram_stop","ref:IFOPT":"de:05911:5305:1:02","tram":"yes","wheelchair":"limited"}},{"type":"node","id":1043297578,"lat":51.4734823,"lon":7.2409939,"tags":{"local_ref":"1","name":"Freigrafendamm","public_transport":"stop_position","railway":"tram_stop","ref:IFOPT":"de:05911:5305:1:01","tram":"yes","wheelchair":"limited"}},{"type":"node","id":1043297788,"lat":51.4720861,"lon":7.2487919,"tags":{"local_ref":"3","name":"Altenbochum Kirche","public_transport":"stop_position","railway":"tram_stop","ref:IFOPT":"de:05911:5384:2:03","tram":"yes","wheelchair":"yes","wheelchair:description:de":"Straßenbahn 302 und Busse sind barrierefrei. Straßenbahn 310 ist nur über 3 hohe Stufen erreichbar."}},{"type":"node","id":1043297832,"lat":51.4721202,"lon":7.249211,"tags":{"local_ref":"4","name":"Altenbochum Kirche","public_transport":"stop_position","railway":"tram_stop","ref:IFOPT":"de:05911:5384:1:04","tram":"yes","wheelchair":"yes","wheelchair:description:de":"Straßenbahn 302 und Busse sind barrierefrei. Straßenbahn 310 ist nur über 3 hohe Stufen erreichbar."}},{"type":"node","id":1043297838,"lat":51.4721816,"lon":7.2548404,"tags":{"local_ref":"6","name":"Mettestraße","public_transport":"stop_position","railway":"tram_stop","ref:IFOPT":"de:05911:5421:1:06","tram":"yes"}},{"type":"node","id":1043297869,"lat":51.4711238,"lon":7.2642132,"tags":{"local_ref":"1","name":"Dannenbaumstraße","name:etymology":"Dannenbaumstraße","public_transport":"stop_position","railway":"tram_stop","ref:IFOPT":"de:05911:5006:1:01","tram":"yes","wheelchair":"yes"}},{"type":"node","id":1043297888,"lat":51.4722255,"lon":7.2545878,"tags":{"local_ref":"5","name":"Mettestraße","public_transport":"stop_position","railway":"tram_stop","ref:IFOPT":"de:05911:5421:2:05","tram":"yes"}},{"type":"node","id":1043297962,"lat":51.4711671,"lon":7.2641727,"tags":{"local_ref":"2","name":"Dannenbaumstraße","name:etymology":"Dannenbaumstraße","public_transport":"stop_position","railway":"tram_stop","ref:IFOPT":"de:05911:5006:2:02","tram":"yes","wheelchair":"yes"}},{"type":"node","id":1043477457,"lat":51.4486823,"lon":7.3275088,"tags":{"local_ref":"2","name":"Betriebshof Witten","public_transport":"stop_position","railway":"tram_stop","ref":"2","ref:IFOPT":"de:5954:5359:1:02","tram":"yes"}},{"type":"node","id":1043515769,"lat":51.4443717,"lon":7.3364372,"tags":{"bus":"yes","name":"Marienhospital","name:etymology:wikidata":"Q1897720","public_transport":"stop_position","railway":"tram_stop","ref":"2","ref:IFOPT":"de:5954:5592:2","share_taxi":"yes","share_taxi:opening_hours":"Mo-Su 05:35-23:35","share_taxi:phone":"+49 2302 19410","tram":"yes","wheelchair":"yes","wheelchair:description:de":"Die auf der Linie 310 eingesetzten Fahrzeuge sind nicht barrierefrei."}},{"type":"node","id":1043515819,"lat":51.4381326,"lon":7.3325002,"tags":{"local_ref":"1","name":"Berliner Straße","name:etymology:wikidata":"Q64","note":"Sobald barrierefreie Fahrzeuge eingesetzt werden bitte wheelchair=yes setzen.","public_transport":"stop_position","railway":"tram_stop","ref":"1","ref:IFOPT":"de:5954:5269:0:01","tram":"yes","wheelchair":"no","wheelchair:description:de":"Bahnsteig erhöht aber eingesetzte Fahrzeuge sind nicht barrierefrei"}},{"type":"node","id":1043515834,"lat":51.4388706,"lon":7.3358375,"tags":{"alt_name":"Rathaus","description":"Witten Rathaus","local_ref":"3","name":"Witten Rathaus","name:etymology:wikidata":"Q2132635","note":"Sobald barrierefreie Fahrzeuge eingesetzt werden bitte wheelchair=yes setzen.","public_transport":"stop_position","railway":"tram_stop","ref":"3","ref:IFOPT":"de:5954:5643:3:03","tram":"yes","wheelchair":"no","wheelchair:description:de":"Bahnsteig erhöht aber eingesetzte Fahrzeuge sind nicht barrierefrei"}},{"type":"node","id":1043515881,"lat":51.4469768,"lon":7.3321824,"tags":{"bus":"yes","name":"Breite Straße","name:etymology:wikidata":"Q36253","public_transport":"stop_position","railway":"tram_stop","ref":"1;5","ref:IFOPT":"de:5954:5581","tram":"yes","wheelchair":"no","wheelchair:description:de":"Fahrzeuge auf Linie 310 sind nicht barrierefrei."}},{"type":"node","id":1043515955,"lat":51.4466496,"lon":7.3328715,"tags":{"bus":"yes","name":"Breite Straße","name:etymology:wikidata":"Q36253","public_transport":"stop_position","railway":"tram_stop","ref":"2;4","ref:IFOPT":"de:5954:5581","tram":"yes","wheelchair":"no","wheelchair:description:de":"Fahrzeuge auf Linie 310 sind nicht barrierefrei."}},{"type":"node","id":1043515981,"lat":51.4375477,"lon":7.3288166,"tags":{"local_ref":"6","name":"Bahnhofstraße","name:etymology:wikidata":"Q470060","note":"Sobald barrierefreie Fahrzeuge eingesetzt werden bitte wheelchair=yes setzen.","public_transport":"stop_position","railway":"tram_stop","ref":"6","ref:IFOPT":"de:5954:5369:0:06","tram":"yes","wheelchair":"no","wheelchair:description:de":"Bahnsteig erhöht aber eingesetzte Fahrzeuge sind nicht barrierefrei"}},{"type":"node","id":1043515994,"lat":51.4375272,"lon":7.3288879,"tags":{"local_ref":"5","name":"Bahnhofstraße","name:etymology:wikidata":"Q470060","note":"Sobald barrierefreie Fahrzeuge eingesetzt werden bitte wheelchair=yes setzen.","public_transport":"stop_position","railway":"tram_stop","ref":"5","ref:IFOPT":"de:5954:5369:0:05","tram":"yes","wheelchair":"no","wheelchair:description:de":"Bahnsteig erhöht aber eingesetzte Fahrzeuge sind nicht barrierefrei"}},{"type":"node","id":1043516122,"lat":51.4381401,"lon":7.3326736,"tags":{"local_ref":"2","name":"Berliner Straße","name:etymology:wikidata":"Q64","note":"Sobald barrierefreie Fahrzeuge eingesetzt werden bitte wheelchair=yes setzen.","public_transport":"stop_position","railway":"tram_stop","ref":"2","ref:IFOPT":"de:5954:5269:0:02","tram":"yes","wheelchair":"no","wheelchair:description:de":"Bahnsteig erhöht aber eingesetzte Fahrzeuge sind nicht barrierefrei"}},{"type":"node","id":1043516259,"lat":51.4415463,"lon":7.3092105,"tags":{"local_ref":"3","name":"Heven Hellweg","operator":"BOGESTRA","operator:type":"public","operator:wikidata":"Q889060","public_transport":"stop_position","ref":"3","ref:IFOPT":"de:5954:5576:0:03","tram":"yes","wheelchair":"yes"}},{"type":"node","id":1043522743,"lat":51.4654332,"lon":7.2930438,"tags":{"local_ref":"1","name":"Alte Ümminger Straße","public_transport":"stop_position","railway":"tram_stop","ref:IFOPT":"de:05911:5908:1:01","tram":"yes","wheelchair":"yes"}},{"type":"node","id":1043522753,"lat":51.4666814,"lon":7.2968241,"tags":{"name":"Unterstraße","public_transport":"stop_position","railway":"tram_stop","ref":"1","ref:IFOPT":"de:05911:6008:1:01","tram":"yes"}},{"type":"node","id":1043522760,"lat":51.4682664,"lon":7.2699145,"tags":{"local_ref":"1","name":"Mark 51°7","old_name":"Opel Werk I","public_transport":"stop_position","railway":"tram_stop","ref:IFOPT":"de:05911:5385:1:01","tram":"yes","wheelchair":"yes"}},{"type":"node","id":1043630000,"lat":51.4388474,"lon":7.3358502,"tags":{"alt_name":"Rathaus","description":"Witten Rathaus","local_ref":"4","name":"Witten Rathaus","name:etymology:wikidata":"Q2132635","note":"Sobald barrierefreie Fahrzeuge eingesetzt werden bitte wheelchair=yes setzen.","public_transport":"stop_position","railway":"tram_stop","ref":"4","ref:IFOPT":"de:5954:5643:3:04","tram":"yes","wheelchair":"no","wheelchair:description:de":"Bahnsteig erhöht aber eingesetzte Fahrzeuge sind nicht barrierefrei"}},{"type":"node","id":1043630004,"lat":51.4417172,"lon":7.3097911,"tags":{"local_ref":"4","name":"Heven Hellweg","operator":"BOGESTRA","operator:type":"public","operator:wikidata":"Q889060","public_transport":"stop_position","ref":"4","ref:IFOPT":"de:5954:5576:0:04","tram":"yes","wheelchair":"yes"}},{"type":"node","id":1043779699,"lat":51.4805386,"lon":7.1388077,"tags":{"local_ref":"4","name":"August-Bebel-Platz","public_transport":"stop_position","railway":"tram_stop","ref:IFOPT":"de:05911:5264:4:04","tram":"yes","wheelchair":"yes"}},{"type":"node","id":1043779720,"lat":51.4799645,"lon":7.1411324,"tags":{"local_ref":"2","name":"Wattenscheid Post","public_transport":"stop_position","railway":"tram_stop","ref:IFOPT":"de:05911:5023:2:02","tram":"yes","wheelchair":"yes"}},{"type":"node","id":1043779828,"lat":51.4817324,"lon":7.1707963,"tags":{"local_ref":"2","name":"Elbinger Straße","public_transport":"stop_position","railway":"tram_stop","ref:IFOPT":"de:05911:6019:2:02","tram":"yes"}},{"type":"node","id":1043779830,"lat":51.4808447,"lon":7.1871822,"tags":{"local_ref":"2","name":"Goldhammer Straße","public_transport":"stop_position","railway":"tram_stop","ref:IFOPT":"de:05911:5919:2:02","tram":"yes","wheelchair":"no"}},{"type":"node","id":1043779903,"lat":51.4852452,"lon":7.1293727,"tags":{"local_ref":"2","name":"Lohrheidestraße","public_transport":"stop_position","railway":"tram_stop","ref:IFOPT":"de:05911:5559:2:02","tram":"yes","wheelchair":"limited"}},{"type":"node","id":1043780016,"lat":51.4799489,"lon":7.1481096,"tags":{"local_ref":"2","name":"Querstraße","public_transport":"stop_position","railway":"tram_stop","ref:IFOPT":"de:05911:5292:2:02","tram":"yes","wheelchair":"yes"}},{"type":"node","id":1043780018,"lat":51.4798985,"lon":7.1610198,"tags":{"local_ref":"2","name":"Centrumplatz","public_transport":"stop_position","railway":"tram_stop","ref:IFOPT":"de:05911:5323:2:02","tram":"yes","wheelchair":"no"}},{"type":"node","id":1043780039,"lat":51.482559,"lon":7.134675,"tags":{"local_ref":"4","name":"Freiheitstraße","public_transport":"stop_position","railway":"tram_stop","ref:IFOPT":"de:05911:5168:4:04","tram":"yes","wheelchair":"yes"}},{"type":"node","id":1044709692,"lat":51.488472,"lon":7.1258695,"tags":{"local_ref":"1","name":"Watermanns Weg","public_transport":"stop_position","railway":"tram_stop","ref:IFOPT":"de:05911:5488:1:01","tram":"yes"}},{"type":"node","id":1044709713,"lat":51.4951533,"lon":7.1159465,"tags":{"name":"Gesamtschule Ückendorf","public_transport":"stop_position","railway":"tram_stop","tram":"yes"}},{"type":"node","id":1044709722,"lat":51.4980598,"lon":7.1128694,"tags":{"name":"Stephanstraße","public_transport":"stop_position","railway":"tram_stop","tram":"yes"}},{"type":"node","id":1044709896,"lat":51.5005476,"lon":7.1082501,"tags":{"name":"Wissenschaftspark","public_transport":"stop_position","railway":"tram_stop","tram":"yes"}},{"type":"node","id":1044709967,"lat":51.5100728,"lon":7.0943249,"tags":{"layer":"-2","level":"-2","name":"Heinrich-König-Platz","public_transport":"stop_position","railway":"tram_stop","ref:IFOPT":"de:05513:6686:1:01","tram":"yes","wheelchair":"yes"}},{"type":"node","id":1044709982,"lat":51.4979591,"lon":7.112892,"tags":{"name":"Stephanstraße","public_transport":"stop_position","railway":"tram_stop","tram":"yes"}},{"type":"node","id":1044709997,"lat":51.4950876,"lon":7.1159897,"tags":{"name":"Gesamtschule Ückendorf","public_transport":"stop_position","railway":"tram_stop","tram":"yes"}},{"type":"node","id":1044710107,"lat":51.488068,"lon":7.1260889,"tags":{"local_ref":"2","name":"Watermanns Weg","public_transport":"stop_position","railway":"tram_stop","ref:IFOPT":"de:05911:5488:2:02","tram":"yes"}},{"type":"node","id":1044710119,"lat":51.5049562,"lon":7.1022472,"tags":{"description":"Gelsenkirchen Hauptbahnhof, Gleis 1","local_ref":"1","name":"Gelsenkirchen Hauptbahnhof","network":"VRR","public_transport":"stop_position","railway":"tram_stop","ref:IFOPT":"de:05513:5613:2:10","tram":"yes","wheelchair":"yes"}},{"type":"node","id":1044710121,"lat":51.5003646,"lon":7.1088108,"tags":{"name":"Wissenschaftspark","public_transport":"stop_position","railway":"tram_stop","tram":"yes"}},{"type":"node","id":1044710141,"lat":51.5016979,"lon":7.1057438,"tags":{"name":"Rheinelbestraße","public_transport":"stop_position","railway":"tram_stop","tram":"yes","wheelchair":"yes"}},{"type":"node","id":1044710255,"lat":51.4932897,"lon":7.1226364,"tags":{"bus":"yes","name":"Ückendorfer Platz","public_transport":"stop_position","railway":"tram_stop","tram":"yes"}},{"type":"node","id":1044738053,"lat":51.5129544,"lon":7.0921022,"tags":{"local_ref":"2","name":"Musiktheater","network":"VRR","public_transport":"stop_position","railway":"tram_stop","ref:IFOPT":"de:05513:5144:2:02","tram":"yes","wheelchair":"limited","wikidata":"Q66362613"}},{"type":"node","id":1044771881,"lat":51.5475573,"lon":7.0663918,"tags":{"description":"Willy-Brandt-Allee, Steig 1","name":"Willy-Brandt-Allee / GELSENWASSER","public_transport":"stop_position","railway":"tram_stop","ref":"1","tram":"yes","wheelchair":"yes"}},{"type":"node","id":1044771912,"lat":51.5144709,"lon":7.0941162,"tags":{"name":"Kennedy-Platz","public_transport":"stop_position","railway":"tram_stop","tram":"yes","wheelchair":"yes"}},{"type":"node","id":1044772048,"lat":51.5314307,"lon":7.0804369,"tags":{"name":"Ernst-Kuzorra-Platz","public_transport":"stop_position","railway":"tram_stop","toilets:wheelchair":"no","tram":"yes","wheelchair":"yes"}},{"type":"node","id":1044772094,"lat":51.5409681,"lon":7.0690147,"tags":{"name":"Emscherstraße","public_transport":"stop_position","railway":"tram_stop","tram":"yes"}},{"type":"node","id":1044772128,"lat":51.5362558,"lon":7.0726374,"tags":{"name":"Stadthafen","public_transport":"stop_position","railway":"tram_stop","toilets:wheelchair":"no","tram":"yes","wheelchair":"yes"}},{"type":"node","id":1044772168,"lat":51.5173529,"lon":7.0923279,"tags":{"name":"Grenzstraße","public_transport":"stop_position","railway":"tram_stop","tram":"yes"}},{"type":"node","id":1044772214,"lat":51.5201487,"lon":7.090657,"tags":{"name":"Grillostraße","public_transport":"stop_position","railway":"tram_stop","tram":"yes"}},{"type":"node","id":1044772226,"lat":51.5286106,"lon":7.0839469,"tags":{"name":"Schalker Meile","public_transport":"stop_position","railway":"tram_stop","tram":"yes"}},{"type":"node","id":1044772286,"lat":51.5268949,"lon":7.0860698,"tags":{"name":"Berliner Brücke","public_transport":"stop_position","railway":"tram_stop","tram":"yes"}},{"type":"node","id":1044982234,"lat":51.570654,"lon":7.0563672,"tags":{"name":"Buer Bergmannsheil","public_transport":"stop_position","railway":"tram_stop","tram":"yes","wheelchair":"yes"}},{"type":"node","id":1044982483,"lat":51.5647519,"lon":7.0589265,"tags":{"name":"Berger See","public_transport":"stop_position","railway":"tram_stop","tram":"yes","wheelchair":"yes"}},{"type":"node","id":1044982540,"lat":51.5779812,"lon":7.0575628,"tags":{"name":"Buer Rathaus","network":"VRR","network:wikidata":"Q448199","public_transport":"stop_position","railway":"tram_stop","ref:IFOPT":"de:05513:4662:15:15","tram":"yes","wheelchair":"yes"}},{"type":"node","id":1045123635,"lat":51.4245936,"lon":7.1571055,"tags":{"local_ref":"2","name":"Zentrum Augusta Linden","network":"VRR","old_name":"Am Krüzweg","operator":"BOGESTRA","public_transport":"stop_position","railway":"tram_stop","ref:IFOPT":"de:05911:6517:2:02","tram":"yes","wheelchair":"yes"}},{"type":"node","id":1045123650,"lat":51.4520389,"lon":7.1926653,"tags":{"local_ref":"2","name":"Weitmar Mitte","public_transport":"stop_position","railway":"tram_stop","ref:IFOPT":"de:05911:5415:3:02","tram":"yes","wheelchair":"no"}},{"type":"node","id":1045123660,"lat":51.4689813,"lon":7.2089649,"tags":{"local_ref":"4","name":"Bergmannsheil","public_transport":"stop_position","railway":"tram_stop","ref:IFOPT":"de:05911:5874:4:04","tram":"yes","wheelchair":"yes"}},{"type":"node","id":1045123679,"lat":51.4261295,"lon":7.1610169,"tags":{"local_ref":"2","name":"Linden Mitte","network":"VRR","network:wikidata":"Q448199","operator":"BOGESTRA","public_transport":"stop_position","railway":"tram_stop","ref:IFOPT":"de:05911:5290:3:02","shelter":"yes","tram":"yes","wheelchair":"no"}},{"type":"node","id":1045123712,"lat":51.4652225,"lon":7.2061156,"tags":{"local_ref":"2","name":"Friederikastraße","public_transport":"stop_position","railway":"tram_stop","ref:IFOPT":"de:05911:5516:2:02","tram":"yes","wheelchair":"no"}},{"type":"node","id":1045123726,"lat":51.4341088,"lon":7.1762683,"tags":{"local_ref":"4","name":"Am Röderschacht","public_transport":"stop_position","railway":"tram_stop","ref:IFOPT":"de:05911:5164:4:04","tram":"yes","wheelchair":"no"}},{"type":"node","id":1045123960,"lat":51.4473832,"lon":7.1942646,"tags":{"local_ref":"4","name":"Schlosspark/Museum unter Tage","old_name":"Haus Weitmar","public_transport":"stop_position","railway":"tram_stop","ref:IFOPT":"de:05911:5815:4:04","tram":"yes","wheelchair":"no"}},{"type":"node","id":1045124018,"lat":51.4312695,"lon":7.1690838,"tags":{"local_ref":"2","name":"Am Feldbrand","public_transport":"stop_position","railway":"tram_stop","ref:IFOPT":"de:05911:5259:2:02","tram":"yes","wheelchair":"no"}},{"type":"node","id":1045124078,"lat":51.4617805,"lon":7.2018389,"tags":{"local_ref":"2","name":"Kohlenstraße","public_transport":"stop_position","railway":"tram_stop","ref:IFOPT":"de:05911:5334:2:02","tram":"yes","wheelchair":"no"}},{"type":"node","id":1045124122,"lat":51.4581344,"lon":7.1972807,"tags":{"local_ref":"2","name":"Knoopstraße","public_transport":"stop_position","railway":"tram_stop","ref:IFOPT":"de:05911:5315:2:02","tram":"yes","wheelchair":"no"}},{"type":"node","id":1045124368,"lat":51.4427802,"lon":7.1926378,"tags":{"local_ref":"3","name":"Blankensteiner Straße","public_transport":"stop_position","railway":"tram_stop","ref:IFOPT":"de:05911:5414:3:03","tram":"yes","wheelchair":"no"}},{"type":"node","id":1045124732,"lat":51.4357646,"lon":7.1801578,"tags":{"local_ref":"4","name":"Nevelstraße","public_transport":"stop_position","railway":"tram_stop","ref:IFOPT":"de:05911:5106:1:04","tram":"yes","wheelchair":"no"}},{"type":"node","id":1045124855,"lat":51.426728,"lon":7.1430224,"tags":{"alt_name":"Bochum Dahlhausen S","description":"Bochum-Dahlhausen Bahnhof, Steig 1","local_ref":"1","name":"BO-Dahlhausen","network":"VRR","operator":"BOGESTRA","public_transport":"stop_position","railway":"tram_stop","ref":"1","ref:IFOPT":"de:05911:5418:1:01","tram":"yes"}},{"type":"node","id":1045124908,"lat":51.4247144,"lon":7.1512206,"tags":{"bus":"yes","local_ref":"1","name":"Auf dem Holte","network":"VRR","operator":"BOGESTRA","public_transport":"stop_position","ref:IFOPT":"de:05911:5518:1:01","tram":"yes"}},{"type":"node","id":1045173580,"lat":51.4526883,"lon":7.1924053,"tags":{"local_ref":"1","name":"Weitmar Mitte","public_transport":"stop_position","railway":"tram_stop","ref:IFOPT":"de:05911:5415:1:01","tram":"yes","wheelchair":"limited"}},{"type":"node","id":1045173659,"lat":51.4361375,"lon":7.1808413,"tags":{"local_ref":"5","name":"Nevelstraße","public_transport":"stop_position","railway":"tram_stop","ref:IFOPT":"de:05911:5106:3:05","tram":"yes","wheelchair":"no"}},{"type":"node","id":1045173690,"lat":51.4657027,"lon":7.2062685,"tags":{"local_ref":"1","name":"Friederikastraße","public_transport":"stop_position","railway":"tram_stop","ref:IFOPT":"de:05911:5516:1:01","tram":"yes","wheelchair":"no"}},{"type":"node","id":1045173729,"lat":51.4621701,"lon":7.2022773,"tags":{"local_ref":"1","name":"Kohlenstraße","public_transport":"stop_position","railway":"tram_stop","ref:IFOPT":"de:05911:5334:1:01","tram":"yes","wheelchair":"no"}},{"type":"node","id":1045173801,"lat":51.434224,"lon":7.1766135,"tags":{"local_ref":"3","name":"Am Röderschacht","public_transport":"stop_position","railway":"tram_stop","ref:IFOPT":"de:05911:5164:3:03","tram":"yes","wheelchair":"no"}},{"type":"node","id":1045173878,"lat":51.4584861,"lon":7.1976748,"tags":{"local_ref":"1","name":"Knoopstraße","public_transport":"stop_position","railway":"tram_stop","ref:IFOPT":"de:05911:5315:1:01","tram":"yes","wheelchair":"no"}},{"type":"node","id":1045174000,"lat":51.4430844,"lon":7.1930933,"tags":{"local_ref":"1","name":"Blankensteiner Straße","public_transport":"stop_position","railway":"tram_stop","ref:IFOPT":"de:05911:5414:1:01","tram":"yes","wheelchair":"no"}},{"type":"node","id":1045174064,"lat":51.4472971,"lon":7.1942555,"tags":{"local_ref":"1","name":"Schlosspark/Museum unter Tage","old_name":"Haus Weitmar","public_transport":"stop_position","railway":"tram_stop","ref:IFOPT":"de:05911:5815:1:01","tram":"yes","wheelchair":"no"}},{"type":"node","id":1045174096,"lat":51.4313744,"lon":7.1692028,"tags":{"local_ref":"3","name":"Am Feldbrand","public_transport":"stop_position","railway":"tram_stop","ref:IFOPT":"de:05911:5259:3:03","tram":"yes","wheelchair":"no"}},{"type":"node","id":1045174101,"lat":51.4242044,"lon":7.1562858,"tags":{"local_ref":"1","name":"Zentrum Augusta Linden","network":"VRR","old_name":"Am Krüzweg","operator":"BOGESTRA","public_transport":"stop_position","railway":"tram_stop","ref:IFOPT":"de:05911:6517:1:01","tram":"yes","wheelchair":"yes"}},{"type":"node","id":1045288286,"lat":51.4287941,"lon":7.1649549,"tags":{"local_ref":"2","name":"Südbad","network":"VRR","operator":"BOGESTRA","public_transport":"stop_position","railway":"tram_stop","ref:IFOPT":"de:05911:5093:2:02","tram":"yes"}},{"type":"node","id":1045288307,"lat":51.4284687,"lon":7.1644727,"tags":{"local_ref":"1","name":"Südbad","network":"VRR","operator":"BOGESTRA","public_transport":"stop_position","railway":"tram_stop","ref:IFOPT":"de:05911:5093:1:01","tram":"yes","wheelchair":"no"}},{"type":"node","id":1045998203,"lat":51.4075667,"lon":7.1695826,"tags":{"name":"Ruhrbrücke","network":"VRR","network:wikidata":"Q448199","operator":"BOGESTRA","public_transport":"stop_position","railway":"tram_stop","ref:IFOPT":"de:05954:8438:1:1","tram":"yes","wheelchair":"yes"}},{"type":"node","id":1045998217,"lat":51.4238451,"lon":7.1622949,"tags":{"local_ref":"2","name":"Kesterkamp","network":"VRR","operator":"BOGESTRA","public_transport":"stop_position","railway":"tram_stop","ref:IFOPT":"de:05911:5336:2:02","tram":"yes","wheelchair":"yes"}},{"type":"node","id":1045998384,"lat":51.4076805,"lon":7.169785,"tags":{"bench":"yes","name":"Ruhrbrücke","network":"VRR","network:wikidata":"Q448199","operator":"BOGESTRA","public_transport":"stop_position","railway":"tram_stop","ref:IFOPT":"de:05954:8438:1:2","shelter":"yes","tram":"yes","wheelchair":"yes"}},{"type":"node","id":1045998396,"lat":51.4005364,"lon":7.1742143,"tags":{"bench":"yes","departures_board":"realtime","name":"Bahnhofstraße","network":"VRR","network:wikidata":"Q448199","operator":"BOGESTRA","public_transport":"stop_position","railway":"tram_stop","tram":"yes","wheelchair":"yes"}},{"type":"node","id":1045998481,"lat":51.4140261,"lon":7.1708376,"tags":{"name":"Oberwinzerfeld","network":"VRR","network:wikidata":"Q448199","operator":"BOGESTRA","public_transport":"stop_position","railway":"tram_stop","tram":"yes"}},{"type":"node","id":1045998564,"lat":51.4220283,"lon":7.163917,"tags":{"bus":"no","local_ref":"2","name":"Lewackerstraße","network":"VRR","network:wikidata":"Q448199","operator":"BOGESTRA","public_transport":"stop_position","railway":"tram_stop","ref:IFOPT":"de:05911:5317:2:02","tram":"yes"}},{"type":"node","id":1045998619,"lat":51.410612,"lon":7.1723715,"tags":{"bench":"yes","name":"Denkmalstraße","network":"VRR","network:wikidata":"Q448199","operator":"BOGESTRA","public_transport":"stop_position","railway":"tram_stop","shelter":"yes","tram":"yes","wheelchair":"no"}},{"type":"node","id":1045998737,"lat":51.4200437,"lon":7.1661305,"tags":{"local_ref":"2","name":"Surenfeldstraße","network":"VRR","network:wikidata":"Q448199","operator":"BOGESTRA","public_transport":"stop_position","railway":"tram_stop","ref:IFOPT":"de:05911:5417:2:02","tram":"yes","wheelchair":"yes"}},{"type":"node","id":1045998739,"lat":51.419656,"lon":7.1665835,"tags":{"local_ref":"1","name":"Surenfeldstraße","network":"VRR","network:wikidata":"Q448199","operator":"BOGESTRA","public_transport":"stop_position","railway":"tram_stop","ref:IFOPT":"de:05911:5417:1:01","tram":"yes","wheelchair":"yes"}},{"type":"node","id":1045998931,"lat":51.4137026,"lon":7.1715611,"tags":{"name":"Oberwinzerfeld","network":"VRR","network:wikidata":"Q448199","operator":"BOGESTRA","public_transport":"stop_position","railway":"tram_stop","tram":"yes"}},{"type":"node","id":1045998995,"lat":51.4172503,"lon":7.1677502,"tags":{"local_ref":"2","name":"Surenfeld","operator":"BOGESTRA","public_transport":"stop_position","railway":"tram_stop","ref:IFOPT":"de:05911:6786:2:02","tram":"yes","wheelchair":"no"}},{"type":"node","id":1045999078,"lat":51.3968846,"lon":7.1815399,"tags":{"departures_board":"realtime","name":"Hattingen Mitte","network":"VRR","network:wikidata":"Q448199","operator":"BOGESTRA","public_transport":"stop_position","railway":"tram_stop","ref":"7","ref:IFOPT":"de:5954:8437:3:7","tram":"yes","wheelchair":"yes"}},{"type":"node","id":1045999129,"lat":51.4216481,"lon":7.1644521,"tags":{"local_ref":"1","name":"Lewackerstraße","network":"VRR","network:wikidata":"Q448199","operator":"BOGESTRA","public_transport":"stop_position","railway":"tram_stop","ref:IFOPT":"de:05911:5317:1:01","tram":"yes"}},{"type":"node","id":1046072189,"lat":51.4172748,"lon":7.1678218,"tags":{"local_ref":"1","name":"Surenfeld","network":"VRR","network:wikidata":"Q448199","operator":"BOGESTRA","public_transport":"stop_position","railway":"tram_stop","ref:IFOPT":"de:05911:6786:1:01","tram":"yes"}},{"type":"node","id":1046072192,"lat":51.4111486,"lon":7.1724072,"tags":{"name":"Denkmalstraße","network":"VRR","network:wikidata":"Q448199","operator":"BOGESTRA","public_transport":"stop_position","railway":"tram_stop","tram":"yes"}},{"type":"node","id":1046072245,"lat":51.4234523,"lon":7.1625228,"tags":{"local_ref":"1","name":"Kesterkamp","network":"VRR","operator":"BOGESTRA","public_transport":"stop_position","railway":"tram_stop","ref:IFOPT":"de:05911:5336:1:01","tram":"yes","wheelchair":"yes"}},{"type":"node","id":1046313464,"lat":51.4766376,"lon":7.2166503,"tags":{"layer":"-2","level":"-2","local_ref":"1","name":"Bermuda3eck/Musikforum","public_transport":"stop_position","railway":"tram_stop","ref:IFOPT":"de:05911:5790:1:01","tram":"yes","wheelchair":"limited"}},{"type":"node","id":1046313579,"lat":51.4862366,"lon":7.2302779,"tags":{"level":"-2","local_ref":"3","name":"Planetarium","public_transport":"stop_position","railway":"tram_stop","ref:IFOPT":"de:05911:5611:2:03","tram":"yes","wikidata":"Q56037425","wikipedia":"de:U-Bahnhof Planetarium"}},{"type":"node","id":1046313594,"lat":51.4901402,"lon":7.2394518,"tags":{"local_ref":"1","name":"Vonovia Ruhrstadion","network":"VRR","note":"In der Online-Fahrplanauskunft taucht teilweise noch der alte Name auf.","old_name":"Ruhrstadion;rewirpowerSTADION","operator":"Bochum-Gelsenkirchener Straßenbahnen AG","public_transport":"stop_position","railway":"tram_stop","ref:IFOPT":"de:05911:5296:1:01","toilets:wheelchair":"no","tram":"yes","wheelchair":"yes"}},{"type":"node","id":1046313598,"lat":51.4792328,"lon":7.2224377,"tags":{"description":"Bochum Hauptbahnhof, Gleis 1","local_ref":"41","name":"Bochum Hauptbahnhof","public_transport":"stop_position","railway":"stop","ref":"1","ref:IFOPT":"de:05911:5194:4:41","tram":"yes","wheelchair":"yes"}},{"type":"node","id":1046313632,"lat":51.4722314,"lon":7.2146616,"tags":{"description":"Gleis 1","local_ref":"5","name":"Schauspielhaus","public_transport":"stop_position","railway":"tram_stop","ref":"1","ref:IFOPT":"de:05911:5475:3:05","tram":"yes","wheelchair":"yes","wikidata":"Q56037411","wikipedia":"de:U-Bahnhof Schauspielhaus"}},{"type":"node","id":1046313730,"lat":51.4827691,"lon":7.2156045,"tags":{"level":"-1","local_ref":"1","name":"Bochum Rathaus","public_transport":"stop_position","railway":"tram_stop","ref:IFOPT":"de:05911:5127:1:01","tram":"yes","wheelchair":"yes"}},{"type":"node","id":1046343005,"lat":51.4921052,"lon":7.2454564,"tags":{"local_ref":"2","name":"Stahlwerke Bochum","note":"ohne Fahrkartenautomat","operator":"Bochum-Gelsenkirchener Straßenbahnen AG","public_transport":"stop_position","railway":"tram_stop","ref:IFOPT":"de:05911:5396:2:02","tram":"yes","wheelchair":"no"}},{"type":"node","id":1046343022,"lat":51.4932192,"lon":7.2498061,"tags":{"local_ref":"2","name":"Rottmannstraße","public_transport":"stop_position","railway":"tram_stop","ref:IFOPT":"de:05911:5894:2:02","toilets:wheelchair":"no","tram":"yes","wheelchair":"no","wheelchair:description":"Man kommt zu der Haltestelle, aber nicht in die Straßenbahn."}},{"type":"node","id":1046343037,"lat":51.5074154,"lon":7.2632152,"tags":{"local_ref":"2","name":"Kolpingplatz","operator":"BOGESTRA","operator:wikidata":"Q889060","public_transport":"stop_position","railway":"tram_stop","ref:IFOPT":"de:05911:6644:2:02","toilets:wheelchair":"no","tram":"yes","wheelchair":"yes"}},{"type":"node","id":1046405558,"lat":51.4975994,"lon":7.2570269,"tags":{"local_ref":"1","name":"Weserstraße","public_transport":"stop_position","railway":"tram_stop","ref:IFOPT":"de:05911:5897:1:01","toilets:wheelchair":"no","tram":"yes","wheelchair":"yes"}},{"type":"node","id":1046405613,"lat":51.5055894,"lon":7.2610085,"tags":{"local_ref":"1","name":"Nordbad","public_transport":"stop_position","railway":"tram_stop","ref:IFOPT":"de:05911:5401:1:01","toilets:wheelchair":"no","tram":"yes","wheelchair":"yes"}},{"type":"node","id":1046405689,"lat":51.513606,"lon":7.2687518,"tags":{"local_ref":"1","name":"Punges Feld","operator":"BOGESTRA","operator:wikidata":"Q889060","public_transport":"stop_position","railway":"tram_stop","ref:IFOPT":"de:05911:6651:1:01","toilets:wheelchair":"no","tram":"yes","wheelchair":"yes"}},{"type":"node","id":1046405720,"lat":51.4919041,"lon":7.2445995,"tags":{"local_ref":"1","name":"Stahlwerke Bochum","note":"ohne Fahrkartenautomat","operator":"Bochum-Gelsenkirchener Straßenbahnen AG","public_transport":"stop_position","railway":"tram_stop","ref:IFOPT":"de:05911:5396:1:01","tram":"yes","wheelchair":"no"}},{"type":"node","id":1046405730,"lat":51.5071291,"lon":7.2628836,"tags":{"local_ref":"1","name":"Kolpingplatz","operator":"BOGESTRA","operator:wikidata":"Q889060","public_transport":"stop_position","railway":"tram_stop","ref:IFOPT":"de:05911:6644:1:01","toilets:wheelchair":"no","tram":"yes","wheelchair":"yes"}},{"type":"node","id":1046405752,"lat":51.4933007,"lon":7.2501685,"tags":{"local_ref":"1","name":"Rottmannstraße","public_transport":"stop_position","railway":"tram_stop","ref:IFOPT":"de:05911:5894:1:01","tram":"yes","wheelchair":"no"}},{"type":"node","id":1046405772,"lat":51.5104769,"lon":7.2669651,"tags":{"local_ref":"1","name":"Handwerksweg","operator":"BOGESTRA","operator:wikidata":"Q889060","public_transport":"stop_position","railway":"tram_stop","ref:IFOPT":"de:05911:6633:1:01","toilets:wheelchair":"no","tram":"yes","wheelchair":"yes"}},{"type":"node","id":1046405799,"lat":51.5159246,"lon":7.2717171,"tags":{"local_ref":"1","name":"Heinrichstraße","operator":"BOGESTRA","operator:wikidata":"Q889060","public_transport":"stop_position","railway":"tram_stop","ref:IFOPT":"de:05911:5271:1:01","toilets:wheelchair":"no","tram":"yes","wheelchair":"yes"}},{"type":"node","id":1046450530,"lat":51.5192787,"lon":7.2753689,"tags":{"local_ref":"2","name":"Gerthe Mitte","public_transport":"stop_position","railway":"tram_stop","ref:IFOPT":"de:05911:5082:2:02","toilets:wheelchair":"no","tram":"yes","wheelchair":"yes"}},{"type":"node","id":1046450582,"lat":51.5193518,"lon":7.2755017,"tags":{"local_ref":"3","name":"Gerthe Mitte","operator":"BOGESTRA","operator:wikidata":"Q889060","public_transport":"stop_position","railway":"tram_stop","ref:IFOPT":"de:05911:5082:2:03","tram":"yes","wheelchair":"yes"}},{"type":"node","id":1067930105,"lat":51.5244479,"lon":7.2158929,"tags":{"local_ref":"1","name":"Berninghausstraße","network":"VRR","network:wikidata":"Q448199","public_transport":"stop_position","railway":"stop","ref":"1","ref:IFOPT":"de:05916:5706:2:01","subway":"yes","wheelchair":"no"}},{"type":"node","id":1067930110,"lat":51.5412926,"lon":7.2218856,"tags":{"description":"Herne Mitten, Gleis","name":"Herne Mitte","network":"VRR","network:wikidata":"Q448199","public_transport":"stop_position","railway":"stop","ref:IFOPT":"de:05916:7502:3:3","subway":"yes","wheelchair":"yes"}},{"type":"node","id":1067930143,"lat":51.5086256,"lon":7.2115269,"tags":{"local_ref":"1","name":"Riemke Markt","public_transport":"stop_position","railway":"stop","ref:IFOPT":"de:05911:5132:1:01","subway":"yes"}},{"type":"node","id":1067930173,"lat":51.4736398,"lon":7.2262938,"tags":{"description":"Oskar-Hoffmann-Straße","layer":"-2","level":"-2","local_ref":"4","name":"Oskar-Hoffmann-Straße","public_transport":"stop_position","railway":"stop","ref:IFOPT":"de:05911:5696:2:04","subway":"yes","wheelchair":"yes"}},{"type":"node","id":1067930286,"lat":51.4571625,"lon":7.2385967,"tags":{"local_ref":"1","name":"Brenscheder Straße","public_transport":"stop_position","railway":"stop","ref:IFOPT":"de:05911:6111:1:01","subway":"yes","wheelchair":"yes"}},{"type":"node","id":1067930324,"lat":51.478927,"lon":7.2229167,"tags":{"description":"Bochum Hauptbahnhof, Gleis 3","local_ref":"31","name":"Bochum Hauptbahnhof","public_transport":"stop_position","railway":"stop","ref":"3","ref:IFOPT":"de:05911:5194:1:31","subway":"yes"}},{"type":"node","id":1067930422,"lat":51.4519394,"lon":7.272417,"tags":{"layer":"3","level":"1","local_ref":"4","name":"Hustadt (TQ)","public_transport":"stop_position","railway":"stop","ref:IFOPT":"de:05911:5254:2:04","subway":"yes","wheelchair":"yes"}},{"type":"node","id":1067930539,"lat":51.4524356,"lon":7.246666,"tags":{"local_ref":"1","name":"Markstraße","public_transport":"stop_position","railway":"stop","ref:IFOPT":"de:05911:5331:1:01","subway":"yes","wheelchair":"yes"}},{"type":"node","id":1067930649,"lat":51.4830171,"lon":7.2163446,"tags":{"loc_name":"Bochum Rathaus (Nord)","local_ref":"1","name":"Rathaus","public_transport":"stop_position","railway":"stop","ref":"1","ref:IFOPT":"de:05911:5127:4:01","subway":"yes"}},{"type":"node","id":1067930698,"lat":51.4474262,"lon":7.2517159,"tags":{"local_ref":"4","name":"Gesundheitscampus","name:etymology:wikidata":"Q18624543","public_transport":"stop_position","railway":"stop","ref:IFOPT":"de:05911:5949:4:04","subway":"yes"}},{"type":"node","id":1067930706,"lat":51.5023484,"lon":7.2124117,"tags":{"local_ref":"1","name":"Zeche Constantin","public_transport":"stop_position","railway":"stop","ref:IFOPT":"de:5911:5026","subway":"yes","tunnel":"yes","wheelchair":"no"}},{"type":"node","id":1067930738,"lat":51.5445605,"lon":7.2188941,"tags":{"local_ref":"2","name":"Herne Bahnhof","network":"VRR","network:wikidata":"Q448199","public_transport":"stop_position","railway":"stop","ref":"2","ref:IFOPT":"de:05916:7501:3:2","subway":"yes","wheelchair":"no"}},{"type":"node","id":1067930742,"lat":51.4689193,"lon":7.2271376,"tags":{"description":"Waldring","local_ref":"1","name":"Waldring","public_transport":"stop_position","railway":"stop","ref:IFOPT":"de:05911:6312:2:01","subway":"yes","wheelchair":"limited"}},{"type":"node","id":1067930763,"lat":51.4883194,"lon":7.2140449,"tags":{"description":"Deutsches Bergbau-Museum","local_ref":"1","name":"Deutsches Bergbau-Museum","public_transport":"stop_position","railway":"stop","ref:IFOPT":"de:05911:5410:1:01","subway":"yes","wheelchair":"no"}},