{"elements":[{"type":"node","id":1753785580,"lat":39.7594556,"lon":30.5031658,"tags":{"name":"Göztepe","public_transport":"stop_position","railway":"tram_stop","tram":"yes"}},{"type":"node","id":1753785665,"lat":39.7653706,"lon":30.5008365,"tags":{"name":"Atatürk Bulvarı","public_transport":"stop_position","railway":"tram_stop","tram":"yes"}},{"type":"node","id":1753785743,"lat":39.7555548,"lon":30.500878,"tags":{"name":"Büyükdere","public_transport":"stop_position","railway":"tram_stop","tram":"yes"}},{"type":"node","id":1753806288,"lat":39.7676343,"lon":30.534776,"tags":{"name":"Gökmeydan","public_transport":"stop_position","railway":"tram_stop","tram":"yes"}},{"type":"node","id":1753808321,"lat":39.7753806,"lon":30.5521743,"tags":{"name":"Otogar","public_transport":"stop_position","railway":"tram_stop","tram":"yes"}},{"type":"node","id":1753808330,"lat":39.7679736,"lon":30.5562625,"tags":{"name":"Borsa","public_transport":"stop_position","railway":"tram_stop","tram":"yes"}},{"type":"node","id":1753808331,"lat":39.7642573,"lon":30.5552162,"tags":{"name":"Yunuskent","public_transport":"stop_position","railway":"tram_stop","tram":"yes"}},{"type":"node","id":1753808332,"lat":39.7666935,"lon":30.5303347,"tags":{"name":"Alanönü","public_transport":"stop_position","railway":"tram_stop","tram":"yes"}},{"type":"node","id":1753808333,"lat":39.7671121,"lon":30.5246792,"tags":{"name":"Atatürk Lisesi","public_transport":"stop_position","railway":"tram_stop","tram":"yes","wheelchair":"limited"}},{"type":"node","id":2798106796,"lat":39.7531369,"lon":30.4953,"tags":{"name":"Osmangazi Üniversitesi","public_transport":"stop_position","railway":"tram_stop","tram":"yes"}},{"type":"node","id":3778225843,"lat":39.7644365,"lon":30.5009285,"tags":{"name":"Atatürk Bulvarı","public_transport":"stop_position","railway":"tram_stop","tram":"yes"}},{"type":"node","id":4558763903,"lat":39.7488802,"lon":30.5367999,"tags":{"name":"Plevne","public_transport":"stop_position","railway":"tram_stop","tram":"yes"}},{"type":"node","id":4558763904,"lat":39.7499453,"lon":30.5296674,"tags":{"name":"Kartopu","public_transport":"stop_position","railway":"tram_stop","tram":"yes"}},{"type":"node","id":4558765890,"lat":39.752545,"lon":30.5343033,"tags":{"name":"Çankaya","public_transport":"stop_position","railway":"tram_stop","tram":"yes"}},{"type":"node","id":4558770770,"lat":39.7515572,"lon":30.5290678,"tags":{"name":"Nasrettin Hoca","public_transport":"stop_position","railway":"tram_stop","tram":"yes"}},{"type":"node","id":4558789604,"lat":39.7458355,"lon":30.5223518,"tags":{"name":"Yenikent","public_transport":"stop_position","railway":"tram_stop","tram":"yes"}},{"type":"node","id":4558799694,"lat":39.7472583,"lon":30.5176726,"tags":{"name":"Piri Reis","public_transport":"stop_position","railway":"tram_stop","tram":"yes"}},{"type":"node","id":4558834665,"lat":39.7502267,"lon":30.5141215,"tags":{"name":"İtfaiye","public_transport":"stop_position","railway":"tram_stop","tram":"yes"}},{"type":"node","id":4558850799,"lat":39.7554391,"lon":30.515352,"tags":{"name":"Gültepe","public_transport":"stop_position","railway":"tram_stop","tram":"yes"}},{"type":"node","id":4558857823,"lat":39.7547336,"lon":30.5095153,"tags":{"name":"Halk","public_transport":"stop_position","railway":"tram_stop","tram":"yes"}},{"type":"node","id":4558889541,"lat":39.7521844,"lon":30.5040872,"tags":{"name":"Millet","public_transport":"stop_position","railway":"tram_stop","tram":"yes"}},{"type":"node","id":4558889767,"lat":39.751846,"lon":30.5045824,"tags":{"name":"Millet","public_transport":"stop_position","railway":"tram_stop","tram":"yes"}},{"type":"node","id":4558898347,"lat":39.7547198,"lon":30.509541,"tags":{"name":"Halk","public_transport":"stop_position","railway":"tram_stop","tram":"yes"}},{"type":"node","id":4558898348,"lat":39.755447,"lon":30.5153013,"tags":{"name":"Gültepe","public_transport":"stop_position","railway":"tram_stop","tram":"yes"}},{"type":"node","id":4558898349,"lat":39.7502355,"lon":30.5141649,"tags":{"name":"İtfaiye","public_transport":"stop_position","railway":"tram_stop","tram":"yes"}},{"type":"node","id":4558898350,"lat":39.7472259,"lon":30.5176593,"tags":{"name":"Piri Reis","public_transport":"stop_position","railway":"tram_stop","tram":"yes"}},{"type":"node","id":4558898351,"lat":39.7458048,"lon":30.5223524,"tags":{"name":"Yenikent","public_transport":"stop_position","railway":"tram_stop","tram":"yes"}},{"type":"node","id":4558903722,"lat":39.7542074,"lon":30.4982263,"tags":{"name":"Porsuk Spor Salonu","public_transport":"stop_position","railway":"tram_stop","tram":"yes"}},{"type":"node","id":4558903723,"lat":39.7542331,"lon":30.4982537,"tags":{"name":"Porsuk Spor Salonu","public_transport":"stop_position","railway":"tram_stop","tram":"yes"}},{"type":"node","id":4558926065,"lat":39.7547355,"lon":30.5008813,"tags":{"name":"Büyükdere","public_transport":"stop_position","railway":"tram_stop","tram":"yes"}},{"type":"node","id":4558926067,"lat":39.758921,"lon":30.5031841,"tags":{"name":"Göztepe","public_transport":"stop_position","railway":"tram_stop","tram":"yes"}},{"type":"node","id":4558941913,"lat":39.7675179,"lon":30.5052476,"tags":{"name":"Vişnelik","public_transport":"stop_position","railway":"tram_stop","tram":"yes"}},{"type":"node","id":4558954050,"lat":39.7711843,"lon":30.5188802,"tags":{"name":"Belediye","public_transport":"stop_position","railway":"tram_stop","tram":"yes"}},{"type":"node","id":4558954051,"lat":39.7711564,"lon":30.5188381,"tags":{"name":"Belediye","public_transport":"stop_position","railway":"tram_stop","tram":"yes"}},{"type":"node","id":4558954409,"lat":39.7694694,"lon":30.5131337,"tags":{"name":"Şehitlik","public_transport":"stop_position","railway":"tram_stop","tram":"yes"}},{"type":"node","id":4558954410,"lat":39.769501,"lon":30.5131155,"tags":{"name":"Şehitlik","public_transport":"stop_position","railway":"tram_stop","tram":"yes"}},{"type":"node","id":4558976198,"lat":39.7669118,"lon":30.5252719,"tags":{"name":"Atatürk Lisesi","public_transport":"stop_position","railway":"tram_stop","tram":"yes"}},{"type":"node","id":4558978202,"lat":39.76689,"lon":30.5312041,"tags":{"name":"Alanönü","public_transport":"stop_position","railway":"tram_stop","tram":"yes"}},{"type":"node","id":4558979056,"lat":39.7676007,"lon":30.5362072,"tags":{"name":"Gökmeydan","public_transport":"stop_position","railway":"tram_stop","tram":"yes"}},{"type":"node","id":4558982638,"lat":39.7672768,"lon":30.5434426,"tags":{"name":"Odunpazarı Belediyesi","public_transport":"stop_position","railway":"tram_stop","tram":"yes"}},{"type":"node","id":4558984103,"lat":39.7672632,"lon":30.5426154,"tags":{"name":"Odunpazarı Belediyesi","public_transport":"stop_position","railway":"tram_stop","tram":"yes"}},{"type":"node","id":4558991050,"lat":39.7642018,"lon":30.5531044,"tags":{"name":"Yunusemre","public_transport":"stop_position","railway":"tram_stop","tram":"yes"}},{"type":"node","id":4559014356,"lat":39.7753596,"lon":30.5521441,"tags":{"name":"Otogar","public_transport":"stop_position","railway":"tram_stop","tram":"yes"}},{"type":"node","id":4559896518,"lat":39.7641934,"lon":30.5531435,"tags":{"name":"Yunusemre","public_transport":"stop_position","railway":"tram_stop","tram":"yes"}},{"type":"node","id":4559915641,"lat":39.7603692,"lon":30.5544897,"tags":{"name":"Yenidoğan","public_transport":"stop_position","railway":"tram_stop","tram":"yes"}},{"type":"node","id":4559915642,"lat":39.7603867,"lon":30.5545196,"tags":{"name":"Yenidoğan","public_transport":"stop_position","railway":"tram_stop","tram":"yes"}},{"type":"node","id":4559933789,"lat":39.7570562,"lon":30.5589979,"tags":{"name":"Ertaş","public_transport":"stop_position","railway":"tram_stop","tram":"yes"}},{"type":"node","id":4559933801,"lat":39.7564425,"lon":30.5598936,"tags":{"name":"Ertaş","public_transport":"stop_position","railway":"tram_stop","tram":"yes"}},{"type":"node","id":4559947078,"lat":39.7525504,"lon":30.5663227,"tags":{"name":"Emek","public_transport":"stop_position","railway":"tram_stop","tram":"yes"}},{"type":"node","id":4559949716,"lat":39.7531211,"lon":30.5652855,"tags":{"name":"Emek","public_transport":"stop_position","railway":"tram_stop","tram":"yes"}},{"type":"node","id":4559961733,"lat":39.7490448,"lon":30.5727879,"tags":{"name":"Tarih Bulvarı","public_transport":"stop_position","railway":"tram_stop","tram":"yes"}},{"type":"node","id":4559961738,"lat":39.7485065,"lon":30.5736524,"tags":{"name":"Tarih Bulvarı","public_transport":"stop_position","railway":"tram_stop","tram":"yes"}},{"type":"node","id":4559969190,"lat":39.7448713,"lon":30.5792824,"tags":{"name":"71 Evler","public_transport":"stop_position","railway":"tram_stop","tram":"yes"}},{"type":"node","id":4559969194,"lat":39.7448597,"lon":30.5792529,"tags":{"name":"71 Evler","public_transport":"stop_position","railway":"tram_stop","tram":"yes"}},{"type":"node","id":4559993566,"lat":39.7407828,"lon":30.5843948,"tags":{"name":"Açelya","public_transport":"stop_position","railway":"tram_stop","tram":"yes"}},{"type":"node","id":4560043878,"lat":39.7749609,"lon":30.5178534,"tags":{"name":"ES-ES (Çarşı)","public_transport":"stop_position","railway":"tram_stop","tram":"yes"}},{"type":"node","id":4560043879,"lat":39.7749553,"lon":30.5178836,"tags":{"name":"ES-ES (Çarşı)","public_transport":"stop_position","railway":"tram_stop","tram":"yes","wheelchair":"yes"}},{"type":"node","id":4560052007,"lat":39.7756333,"lon":30.5216179,"tags":{"name":"Yıldız","public_transport":"stop_position","railway":"tram_stop","tram":"yes"}},{"type":"node","id":4560077322,"lat":39.7792932,"lon":30.5248743,"tags":{"name":"Mamure","public_transport":"stop_position","railway":"tram_stop","tram":"yes"}},{"type":"node","id":12609235118,"lat":39.7767565,"lon":30.5416494,"tags":{"name":"Şeker","public_transport":"stop_position","railway":"tram_stop","tram":"yes"}},{"type":"node","id":12609235119,"lat":39.7766214,"lon":30.5423653,"tags":{"name":"Şeker","public_transport":"stop_position","railway":"tram_stop","tram":"yes"}},{"type":"node","id":12621082484,"lat":39.7811128,"lon":30.5261883,"tags":{"name":"Opera","public_transport":"stop_position","railway":"tram_stop","tram":"yes"}},{"type":"node","id":12621082485,"lat":39.7810735,"lon":30.5247589,"tags":{"name":"Opera","public_transport":"stop_position","railway":"tram_stop","tram":"yes"}},{"type":"node","id":12801972147,"lat":39.7759887,"lon":30.5212795,"tags":{"name":"Yıldız","public_transport":"stop_position","railway":"tram_stop","tram":"yes"}},{"type":"node","id":1753798423,"lat":39.7675775,"lon":30.5063101,"tags":{"name":"Vişnelik","public_transport":"stop_position","railway":"tram_stop","tram":"yes"}},{"type":"node","id":1754034526,"lat":39.7872193,"lon":30.4881873,"tags":{"name":"SSK","public_transport":"stop_position","railway":"tram_stop","tram":"yes"}},{"type":"node","id":1754034540,"lat":39.7811232,"lon":30.5108602,"tags":{"name":"Ulus Anıtı (Gar)","public_transport":"stop_position","railway":"tram_stop","tram":"yes"}},{"type":"node","id":4559001341,"lat":39.7646424,"lon":30.5561314,"tags":{"name":"Yunuskent","public_transport":"stop_position","railway":"tram_stop","tram":"yes"}},{"type":"node","id":4559010943,"lat":39.7685462,"lon":30.5562449,"tags":{"name":"Borsa","public_transport":"stop_position","railway":"tram_stop","tram":"yes"}},{"type":"node","id":4579914458,"lat":39.778614,"lon":30.5149271,"tags":{"name":"İsmet İnönü","public_transport":"stop_position","railway":"tram_stop","tram":"yes"}},{"type":"node","id":4579914459,"lat":39.7786382,"lon":30.5149482,"tags":{"name":"İsmet İnönü","public_transport":"stop_position","railway":"tram_stop","tram":"yes","wheelchair":"yes"}},{"type":"node","id":4579981425,"lat":39.783723,"lon":30.5103809,"tags":{"name":"Bağlar","public_transport":"stop_position","railway":"tram_stop","tram":"yes","wheelchair":"yes"}},{"type":"node","id":4579981426,"lat":39.7846034,"lon":30.5103348,"tags":{"name":"Bağlar","public_transport":"stop_position","railway":"tram_stop","tram":"yes","wheelchair":"yes"}},{"type":"node","id":4579981458,"lat":39.7811556,"lon":30.5108747,"tags":{"name":"Ulus Anıtı (Gar)","public_transport":"stop_position","railway":"tram_stop","tram":"yes","wheelchair":"yes"}},{"type":"node","id":4579993174,"lat":39.7876368,"lon":30.5078709,"tags":{"name":"Anadolu Üniversitesi","public_transport":"stop_position","railway":"tram_stop","tram":"yes"}},{"type":"node","id":4579993175,"lat":39.7878644,"lon":30.5070405,"tags":{"name":"Anadolu Üniversitesi","public_transport":"stop_position","railway":"tram_stop","tram":"yes"}},{"type":"node","id":4580004947,"lat":39.7867664,"lon":30.5011314,"tags":{"name":"Hava Müzesi","public_transport":"stop_position","railway":"tram_stop","tram":"yes","wheelchair":"yes"}},{"type":"node","id":4580004948,"lat":39.7865928,"lon":30.5003598,"tags":{"name":"Hava Müzesi","public_transport":"stop_position","railway":"tram_stop","tram":"yes","wheelchair":"yes"}},{"type":"node","id":4580012284,"lat":39.7888058,"lon":30.4930465,"tags":{"name":"Eczacılık Fakültesi","public_transport":"stop_position","railway":"tram_stop","tram":"yes","wheelchair":"yes"}},{"type":"node","id":4580012285,"lat":39.7891647,"lon":30.4921341,"tags":{"name":"Eczacılık Fakültesi","public_transport":"stop_position","railway":"tram_stop","tram":"yes","wheelchair":"yes"}},{"type":"node","id":4580021082,"lat":39.7895544,"lon":30.4850915,"tags":{"name":"Uluönder","public_transport":"stop_position","railway":"tram_stop","tram":"yes"}},{"type":"node","id":4580067426,"lat":39.7865894,"lon":30.4799846,"tags":{"name":"Erzurum Kongresi","public_transport":"stop_position","railway":"tram_stop","tram":"yes"}},{"type":"node","id":4580067436,"lat":39.7875547,"lon":30.480611,"tags":{"name":"Erzurum Kongresi","public_transport":"stop_position","railway":"tram_stop","tram":"yes"}},{"type":"node","id":4580079330,"lat":39.7830749,"lon":30.4813258,"tags":{"name":"Ali Fuat Cebesoy","public_transport":"stop_position","railway":"tram_stop","tram":"yes"}},{"type":"node","id":4580079353,"lat":39.7837384,"lon":30.4815892,"tags":{"name":"Ali Fuat Cebesoy","public_transport":"stop_position","railway":"tram_stop","tram":"yes"}},{"type":"node","id":4580086738,"lat":39.7800827,"lon":30.4791354,"tags":{"name":"Vega Outlet","public_transport":"stop_position","railway":"tram_stop","tram":"yes"}},{"type":"node","id":4580086739,"lat":39.7801072,"lon":30.4791164,"tags":{"name":"Vega Outlet","public_transport":"stop_position","railway":"tram_stop","tram":"yes","wheelchair":"yes"}},{"type":"node","id":4580115559,"lat":39.7829596,"lon":30.4718053,"tags":{"name":"Baksan","public_transport":"stop_position","railway":"tram_stop","tram":"yes"}},{"type":"node","id":4580115566,"lat":39.7829892,"lon":30.4717813,"tags":{"name":"Baksan","public_transport":"stop_position","railway":"tram_stop","tram":"yes"}},{"type":"node","id":4580120503,"lat":39.7813489,"lon":30.4665071,"tags":{"name":"Ulusal Egemenlik","public_transport":"stop_position","railway":"tram_stop","tram":"yes"}},{"type":"node","id":4580136269,"lat":39.7749496,"lon":30.4613182,"tags":{"name":"Birlik","public_transport":"stop_position","railway":"tram_stop","tram":"yes"}},{"type":"node","id":4580136283,"lat":39.7757105,"lon":30.4659797,"tags":{"name":"Köprü","public_transport":"stop_position","railway":"tram_stop","tram":"yes"}},{"type":"node","id":4580140151,"lat":39.7760615,"lon":30.4574329,"tags":{"name":"Çamlıca","public_transport":"stop_position","railway":"tram_stop","tram":"yes"}},{"type":"node","id":4580150298,"lat":39.7808608,"lon":30.4588807,"tags":{"name":"Behçet Necatigil","public_transport":"stop_position","railway":"tram_stop","tram":"yes"}},{"type":"node","id":4580150313,"lat":39.7808974,"lon":30.4588805,"tags":{"name":"Behçet Necatigil","public_transport":"stop_position","railway":"tram_stop","tram":"yes"}},{"type":"node","id":4580161508,"lat":39.78138,"lon":30.4664653,"tags":{"name":"Ulusal Egemenlik","public_transport":"stop_position","railway":"tram_stop","tram":"yes"}},{"type":"node","id":4581090214,"lat":39.7797619,"lon":30.4525221,"tags":{"name":"Tombakzade","public_transport":"stop_position","railway":"tram_stop","tram":"yes"}},{"type":"node","id":4581090245,"lat":39.7806361,"lon":30.4518121,"tags":{"name":"Tombakzade","public_transport":"stop_position","railway":"tram_stop","tram":"yes"}},{"type":"node","id":4581103169,"lat":39.7918086,"lon":30.4431208,"tags":{"name":"Batıkent","public_transport":"stop_position","railway":"tram_stop","tram":"yes"}},{"type":"node","id":4581103569,"lat":39.7854919,"lon":30.4474152,"tags":{"name":"Cumhuriyet","public_transport":"stop_position","railway":"tram_stop","tram":"yes"}},{"type":"node","id":4581113576,"lat":39.7918796,"lon":30.4494593,"tags":{"name":"Arıcılar","public_transport":"stop_position","railway":"tram_stop","tram":"yes"}},{"type":"node","id":4581124216,"lat":39.7912147,"lon":30.4555692,"tags":{"name":"19 Mayıs","public_transport":"stop_position","railway":"tram_stop","tram":"yes"}},{"type":"node","id":4581129110,"lat":39.7866548,"lon":30.4604573,"tags":{"name":"Fatih","public_transport":"stop_position","railway":"tram_stop","tram":"yes"}},{"type":"node","id":4581132129,"lat":39.7857365,"lon":30.4543369,"tags":{"name":"Anıt","public_transport":"stop_position","railway":"tram_stop","tram":"yes"}},{"type":"node","id":4581132130,"lat":39.7843515,"lon":30.4489756,"tags":{"name":"Gündüz Ökçün","public_transport":"stop_position","railway":"tram_stop","tram":"yes"}},{"type":"node","id":6725958546,"lat":39.7408559,"lon":30.5952934,"tags":{"name":"Öykü","public_transport":"stop_position","railway":"tram_stop","tram":"yes"}},{"type":"node","id":7721021165,"lat":39.740434,"lon":30.5940297,"tags":{"name":"Öykü","public_transport":"stop_position","railway":"tram_stop","tram":"yes"}},{"type":"node","id":7721023724,"lat":39.7096741,"lon":30.6165436,"tags":{"name":"75.Yıl","public_transport":"stop_position","railway":"tram_stop","tram":"yes"}},{"type":"node","id":9608366190,"lat":39.7822362,"lon":30.5256016,"tags":{"name":"Opera","public_transport":"stop_position","railway":"tram_stop","tram":"yes"}},{"type":"node","id":11130573170,"lat":39.7822492,"lon":30.5255718,"tags":{"name":"Opera","public_transport":"stop_position","railway":"tram_stop","tram":"yes"}},{"type":"node","id":11251798802,"lat":39.7096684,"lon":30.6164751,"tags":{"name":"75.Yıl","public_transport":"stop_position","railway":"tram_stop","tram":"yes"}},{"type":"node","id":12520431272,"lat":39.7747016,"lon":30.5514431,"tags":{"name":"Kentpark","public_transport":"stop_position","railway":"tram_stop","tram":"yes"}},{"type":"node","id":12520431273,"lat":39.774785,"lon":30.5511559,"tags":{"name":"Kentpark","public_transport":"stop_position","railway":"tram_stop","tram":"yes"}},{"type":"node","id":12609235120,"lat":39.7801388,"lon":30.532675,"tags":{"name":"İsmail Gaspıralı","public_transport":"stop_position","railway":"tram_stop","tram":"yes"}},{"type":"node","id":12609235121,"lat":39.7803056,"lon":30.5313441,"tags":{"name":"İsmail Gaspıralı","public_transport":"stop_position","railway":"tram_stop","tram":"yes"}},{"type":"node","id":12621082478,"lat":39.7905559,"lon":30.5178125,"tags":{"name":"Sıhhiye","public_transport":"stop_position","railway":"tram_stop","tram":"yes"}},{"type":"node","id":12621082479,"lat":39.7892054,"lon":30.5180234,"tags":{"name":"Sıhhiye","public_transport":"stop_position","railway":"tram_stop","tram":"yes"}},{"type":"node","id":12621082480,"lat":39.7881676,"lon":30.5206942,"tags":{"name":"Gaffar Okkan","public_transport":"stop_position","railway":"tram_stop","tram":"yes"}},{"type":"node","id":12621082481,"lat":39.7881927,"lon":30.5215663,"tags":{"name":"Gaffar Okkan","public_transport":"stop_position","railway":"tram_stop","tram":"yes"}},{"type":"node","id":12621082482,"lat":39.7873838,"lon":30.5290411,"tags":{"name":"Büyük Park","public_transport":"stop_position","railway":"tram_stop","tram":"yes"}},{"type":"node","id":12621082483,"lat":39.7867185,"lon":30.5285997,"tags":{"name":"Büyük Park","public_transport":"stop_position","railway":"tram_stop","tram":"yes"}},{"type":"node","id":12692601738,"lat":39.7452032,"lon":30.5979167,"tags":{"name":"Şehir Hastanesi","public_transport":"stop_position","railway":"tram_stop","tram":"yes"}},{"type":"node","id":12692601739,"lat":39.7437368,"lon":30.6013434,"tags":{"name":"Park","public_transport":"stop_position","railway":"tram_stop","tram":"yes"}},{"type":"node","id":12692601740,"lat":39.7437547,"lon":30.6012923,"tags":{"name":"Park","public_transport":"stop_position","railway":"tram_stop","tram":"yes"}},{"type":"node","id":12692601741,"lat":39.7417637,"lon":30.6063221,"tags":{"name":"ESTİM","public_transport":"stop_position","railway":"tram_stop","tram":"yes"}},{"type":"node","id":12692601742,"lat":39.7417873,"lon":30.6063507,"tags":{"name":"ESTİM","public_transport":"stop_position","railway":"tram_stop","tram":"yes"}},{"type":"node","id":12692601743,"lat":39.7390406,"lon":30.6124347,"tags":{"name":"Oto Center","public_transport":"stop_position","railway":"tram_stop","tram":"yes"}},{"type":"node","id":12692601744,"lat":39.7390261,"lon":30.6124656,"tags":{"name":"Oto Center","public_transport":"stop_position","railway":"tram_stop","tram":"yes"}},{"type":"node","id":12692601745,"lat":39.7302201,"lon":30.6089285,"tags":{"name":"Sultandere","public_transport":"stop_position","railway":"tram_stop","tram":"yes"}},{"type":"node","id":12692601746,"lat":39.7302182,"lon":30.6089663,"tags":{"name":"Sultandere","public_transport":"stop_position","railway":"tram_stop","tram":"yes"}},{"type":"node","id":12692601747,"lat":39.7156987,"lon":30.6135411,"tags":{"name":"Taner Kışlalı","public_transport":"stop_position","railway":"tram_stop","tram":"yes"}},{"type":"node","id":12692601748,"lat":39.7156957,"lon":30.6135947,"tags":{"name":"Taner Kışlalı","public_transport":"stop_position","railway":"tram_stop","tram":"yes"}},{"type":"node","id":12692708140,"lat":39.7380015,"lon":30.5873061,"tags":{"name":"Yaşar Kemal","public_transport":"stop_position","railway":"tram_stop","tram":"yes"}},{"type":"node","id":12692708141,"lat":39.7379693,"lon":30.5873101,"tags":{"name":"Yaşar Kemal","public_transport":"stop_position","railway":"tram_stop","tram":"yes"}}]}