{"version":0.6,"generator":"Overpass API 0.7.62.11 87bfad18","osm3s":{"timestamp_osm_base":"2026-07-10T13:59:00Z","copyright":"The data included in this document is from www.openstreetmap.org. The data is made available under ODbL."},"elements":[{"type":"node","id":1889499180,"lat":35.1719549,"lon":137.0609483,"tags":{"KSJ2:LIN":"東部丘陵線","KSJ2:RAS":"eb03_240","KSJ2:STN":"芸大通","KSJ2:segment":"eb02_408","layer":"2","light_rail":"yes","name":"芸大通","name:en":"Geidai-dōri","name:es":"Geidai-dōri","name:ja":"芸大通","name:ko":"게이다이도리","note":"National-Land Numerical Information (Railway) 2007, MLIT Japan","note:ja":"国土数値情報（鉄道データ）平成19年　国土交通省","public_transport":"station","railway":"station","source":"KSJ2","source_ref":"http://nlftp.mlit.go.jp/ksj/jpgis/datalist/KsjTmplt-N02-v1_1.html","station":"light_rail","wikidata":"Q861781","wikipedia":"ja:芸大通駅"}},{"type":"node","id":4590077122,"lat":35.2235423,"lon":136.8768918,"tags":{"KSJ2:LIN":"犬山線;3号線鶴舞線","KSJ2:STN":"上小田井","name":"上小田井","name:en":"Kami-Otai","name:ja":"上小田井","name:ko":"가미오타이","note":"National-Land Numerical Information (Railway) 2007, MLIT Japan","note:ja":"国土数値情報（鉄道データ）平成19年 国土交通省","operator":"名古屋鉄道","operator:en":"Meitetsu","public_transport":"station","railway":"station","ref":"IY-03;T-01","source":"KSJ2","source_ref":"http://nlftp.mlit.go.jp/ksj/jpgis/datalist/KsjTmplt-N02-v1_1.html","station":"subway","subway":"yes","train":"yes","website":"https://www.kotsu.city.nagoya.jp","wikidata":"Q1652826","wikipedia":"ja:上小田井駅"}},{"type":"node","id":5214024834,"lat":35.143924,"lon":136.9019661,"tags":{"KSJ2:LIN":"4号線名城線","KSJ2:STN":"金山","name":"金山","name:en":"Kanayama","name:ja":"金山","note":"National-Land Numerical Information (Railway) 2007, MLIT Japan","note:ja":"国土数値情報（鉄道データ）平成19年　国土交通省","operator:website":"https://www.kotsu.city.nagoya.jp/","public_transport":"station","railway":"station","ref":"E01","source":"KSJ2","source_ref":"http://nlftp.mlit.go.jp/ksj/jpgis/datalist/KsjTmplt-N02-v1_1.html","station":"subway","subway":"yes","toilets:wheelchair":"yes","website":"https://www.kotsu.city.nagoya.jp/jp/pc/subway/station_top.html?name=%E9%87%91%E5%B1%B1","wheelchair":"yes"}},{"type":"node","id":5214024837,"lat":35.1958368,"lon":136.9300173,"tags":{"KSJ2:LIN":"2号線名城線","KSJ2:STN":"平安通","name":"平安通","name:en":"Heian-dōri","name:ja":"平安通","name:ko":"헤이안도리","note":"National-Land Numerical Information (Railway) 2007, MLIT Japan","note:ja":"国土数値情報（鉄道データ）平成19年　国土交通省","public_transport":"station","railway":"station","ref":"M11","source":"KSJ2","source_ref":"http://nlftp.mlit.go.jp/ksj/jpgis/datalist/KsjTmplt-N02-v1_1.html","station":"subway","subway":"yes","website":"http://www.kotsu.city.nagoya.jp/subway/station_info/ha_info/heian_dori.html","wikidata":"Q853241","wikipedia":"ja:平安通駅"}},{"type":"node","id":5214024838,"lat":35.1972257,"lon":136.9297555,"tags":{"KSJ2:LIN":"上飯田線","KSJ2:STN":"平安通","name":"平安通","name:en":"Heian-dōri","name:ja":"平安通","name:ja-Hira":"へいあんどおり","name:ko":"헤이안도리","note":"National-Land Numerical Information (Railway) 2007, MLIT Japan","note:ja":"国土数値情報（鉄道データ）平成19年 国土交通省","public_transport":"station","railway":"station","ref":"K02","source":"KSJ2","source_ref":"http://nlftp.mlit.go.jp/ksj/jpgis/datalist/KsjTmplt-N02-v1_1.html","station":"subway","subway":"yes","website":"http://www.kotsu.city.nagoya.jp/subway/station_info/ha_info/heian_dori.html","wikidata":"Q853241","wikipedia":"ja:平安通駅"}},{"type":"node","id":5388521881,"lat":35.1210641,"lon":137.0186404,"tags":{"name":"赤池","name:en":"Akaike","name:ja":"赤池","public_transport":"station","railway":"station","station":"subway","subway":"yes","website":"https://www.kotsu.city.nagoya.jp"}},{"type":"node","id":5408336353,"lat":35.1825127,"lon":137.0213902,"tags":{"name":"藤が丘","name:en":"Fujigaoka","name:ja":"藤が丘","name:ko":"후지가오카","public_transport":"station","railway":"station","station":"subway","subway":"yes","website":"https://www.kotsu.city.nagoya.jp","wikidata":"Q850679"}},{"type":"node","id":5408459628,"lat":35.1614015,"lon":136.8980633,"tags":{"name":"大須観音","name:en":"Ōsu Kannon","name:ja":"大須観音","name:ko":"오스칸논","public_transport":"station","railway":"station","station":"subway","subway":"yes","website":"https://www.kotsu.city.nagoya.jp","wikidata":"Q862936"}},{"type":"node","id":5408459629,"lat":35.157374,"lon":136.906699,"tags":{"name":"上前津","name:en":"Kamimaezu","name:ja":"上前津","name:ko":"가미마에즈","public_transport":"station","railway":"station","ref":"M03;T09","station":"subway","subway":"yes","website":"https://www.kotsu.city.nagoya.jp","wikidata":"Q862270"}},{"type":"node","id":5408489619,"lat":35.143822,"lon":136.9546068,"tags":{"name":"いりなか","name:en":"Irinaka","name:ja":"いりなか","name:ko":"이리나카","name:zh":"杁中","public_transport":"station","railway":"station","station":"subway","subway":"yes","website":"https://www.kotsu.city.nagoya.jp","wikidata":"Q864343"}},{"type":"node","id":5408489620,"lat":35.1370484,"lon":136.9638059,"tags":{"name":"八事","name:en":"Yagoto","name:ja":"八事","name:ko":"야고토","public_transport":"station","railway":"station","station":"subway","subway":"yes","wheelchair":"yes","wikidata":"Q855210","wikipedia":"ja:八事駅"}},{"type":"node","id":5408492354,"lat":35.149597,"lon":136.9253026,"tags":{"name":"荒畑","name:en":"Arahata","name:ja":"荒畑","name:ko":"아라하타","public_transport":"station","railway":"station","station":"subway","subway":"yes","wikidata":"Q862961"}},{"type":"node","id":5408492355,"lat":35.1495208,"lon":136.9338103,"tags":{"name":"御器所","name:en":"Gokiso","name:ja":"御器所","name:ko":"고키소","public_transport":"station","railway":"station","station":"subway","subway":"yes","website":"https://www.kotsu.city.nagoya.jp","wikidata":"Q854726"}},{"type":"node","id":5408492356,"lat":35.1487099,"lon":136.9482952,"tags":{"name":"川名","name:en":"Kawana","name:ja":"川名","name:ko":"가와나","public_transport":"station","railway":"station","station":"subway","subway":"yes","website":"https://www.kotsu.city.nagoya.jp","wikidata":"Q863622"}},{"type":"node","id":5408531521,"lat":35.1326304,"lon":136.9774322,"tags":{"name":"塩釜口","name:en":"Shiogama-guchi","name:ja":"塩釜口","name:ko":"시오가마구치","public_transport":"station","railway":"station","station":"subway","subway":"yes","website":"https://www.kotsu.city.nagoya.jp","wikidata":"Q903443"}},{"type":"node","id":5408531522,"lat":35.128377,"lon":136.9889252,"tags":{"name":"植田","name:en":"Ueda","name:ja":"植田","name:ko":"우에다","public_transport":"station","railway":"station","station":"subway","subway":"yes","wikidata":"Q864434"}},{"type":"node","id":5408531523,"lat":35.1259902,"lon":136.9971239,"tags":{"name":"原","name:en":"Hara","name:ja":"原","name:ko":"하라","public_transport":"station","railway":"station","station":"subway","subway":"yes","website":"https://www.kotsu.city.nagoya.jp","wikidata":"Q1652802"}},{"type":"node","id":5408548566,"lat":35.1226853,"lon":137.0072127,"tags":{"name":"平針","name:en":"Hibari","name:ja":"平針","public_transport":"station","railway":"station","station":"subway","subway":"yes","website":"https://www.kotsu.city.nagoya.jp"}},{"type":"node","id":5408576829,"lat":35.2149829,"lon":136.8866416,"tags":{"alt_name:ko":"쇼나이료쿠치코엔","name":"庄内緑地公園","name:en":"Shōnai Ryokuchi Kōen","name:ja":"庄内緑地公園","name:ko":"쇼나이녹지공원","public_transport":"station","railway":"station","station":"subway","subway":"yes","website":"https://www.kotsu.city.nagoya.jp","wikidata":"Q862911"}},{"type":"node","id":5408576830,"lat":35.2038304,"lon":136.8910087,"tags":{"name":"庄内通","name:en":"Shōnai-dōri","name:ja":"庄内通","name:ko":"쇼나이도리","public_transport":"station","railway":"station","station":"subway","subway":"yes","website":"https://www.kotsu.city.nagoya.jp","wikidata":"Q863241"}},{"type":"node","id":5408576831,"lat":35.1920999,"lon":136.8907964,"tags":{"name":"浄心","name:en":"Jōshin","name:ja":"浄心","name:ko":"조신","public_transport":"station","railway":"station","station":"subway","subway":"yes","website":"https://www.kotsu.city.nagoya.jp","wikidata":"Q862921"}},{"type":"node","id":5408576832,"lat":35.1832891,"lon":136.8902091,"tags":{"name":"浅間町","name:en":"Sengen-chō","name:ja":"浅間町","name:ko":"센겐초","public_transport":"station","railway":"station","station":"subway","subway":"yes","website":"https://www.kotsu.city.nagoya.jp","wikidata":"Q863210"}},{"type":"node","id":5408576833,"lat":35.1749739,"lon":136.8967278,"tags":{"name":"丸の内","name:en":"Marunouchi","name:ja":"丸の内","public_transport":"station","railway":"station","station":"subway","subway":"yes","website":"https://www.kotsu.city.nagoya.jp"}},{"type":"node","id":5408576834,"lat":35.1692315,"lon":136.8973502,"tags":{"name":"伏見","name:en":"Fushimi","name:ja":"伏見","name:ko":"후시미","operator":"名古屋市交通局","operator:website":"https://www.kotsu.city.nagoya.jp","public_transport":"station","railway":"station","ref":"H09","station":"subway","subway":"yes","website":"https://www.kotsu.city.nagoya.jp/jp/pc/subway/station_top.html?name=%E4%BC%8F%E8%A6%8B","wikidata":"Q862368"}},{"type":"node","id":5408576835,"lat":35.156192,"lon":136.915338,"tags":{"name":"鶴舞","name:en":"Tsurumai","name:ja":"鶴舞","network":"中央線","operator":"東海旅客鉄道","public_transport":"station","railway":"station","station":"subway","subway":"yes","website":"https://www.kotsu.city.nagoya.jp/jp/pc/subway/station_top.html?name=%E9%B6%B4%E8%88%9E"}},{"type":"node","id":5410198967,"lat":35.1498568,"lon":136.9045383,"tags":{"name":"東別院","name:en":"Higashi Betsuin","name:ja":"東別院","name:ko":"히가시베쓰인","public_transport":"station","railway":"station","ref":"M02","station":"subway","subway":"yes","website":"https://www.kotsu.city.nagoya.jp","wheelchair":"yes","wikidata":"Q863872"}},{"type":"node","id":5411692799,"lat":35.1630878,"lon":136.9086652,"tags":{"name":"矢場町","name:en":"Yabachō","name:ja":"矢場町","name:ko":"야바초","public_transport":"station","railway":"station","ref":"M04","station":"subway","subway":"yes","website":"https://www.kotsu.city.nagoya.jp","wheelchair":"no","wikidata":"Q863884"}},{"type":"node","id":5411694358,"lat":35.1693885,"lon":136.90861,"tags":{"level":"-5","name":"栄","name:en":"Sakae","name:ja":"栄","public_transport":"station","railway":"station","ref":"M05","station":"subway","subway":"yes","wikidata":"Q862325","wikipedia":"ja:栄駅 (愛知県)"}},{"type":"node","id":5411719477,"lat":35.1962884,"lon":136.9212393,"tags":{"name":"志賀本通","name:en":"Shiga-hondōri","name:ja":"志賀本通","name:ko":"시가혼도리","public_transport":"station","railway":"station","ref":"M10","station":"subway","subway":"yes","website":"https://www.kotsu.city.nagoya.jp","wikidata":"Q862276"}},{"type":"node","id":5413537900,"lat":35.1971483,"lon":136.910597,"tags":{"name":"黒川","name:en":"Kurokawa","name:ja":"黒川","name:ko":"구로카와","public_transport":"station","railway":"station","ref":"M09","station":"subway","subway":"yes","website":"https://www.kotsu.city.nagoya.jp","wikidata":"Q863877"}},{"type":"node","id":5413540802,"lat":35.1904632,"lon":136.9047922,"tags":{"name":"名城公園","name:en":"Meijō Kōen","name:ja":"名城公園","name:ko":"메이조코엔","public_transport":"station","railway":"station","ref":"M08","station":"subway","subway":"yes","website":"https://www.kotsu.city.nagoya.jp","wikidata":"Q863874"}},{"type":"node","id":5413541154,"lat":35.1816062,"lon":136.9055261,"tags":{"name":"名古屋城","name:en":"Nagoyajo","name:ja":"名古屋城","public_transport":"station","railway":"station","ref":"M07","station":"subway","subway":"yes","website":"https://www.kotsu.city.nagoya.jp/jp/pc/subway/station_top.html?name=%E5%90%8D%E5%8F%A4%E5%B1%8B%E5%9F%8E","wikidata":"Q842023"}},{"type":"node","id":6511706840,"lat":35.1776411,"lon":137.0352461,"tags":{"KSJ2:LIN":"東部丘陵線","KSJ2:RAS":"eb03_242","KSJ2:STN":"はなみずき通","KSJ2:segment":"eb02_410","light_rail":"yes","name":"はなみずき通","name:en":"Hanamizuki-dōri","name:es":"Hanamizuki-dōri","name:ja":"はなみずき通","name:ko":"하나미즈키도리","note":"National-Land Numerical Information (Railway) 2007, MLIT Japan","note:ja":"国土数値情報（鉄道データ）平成19年　国土交通省","public_transport":"station","railway":"station","source":"KSJ2","source_ref":"http://nlftp.mlit.go.jp/ksj/jpgis/datalist/KsjTmplt-N02-v1_1.html","station":"light_rail","wikidata":"Q861759","wikipedia":"ja:はなみずき通駅"}},{"type":"node","id":6511717966,"lat":35.1766628,"lon":137.1062992,"tags":{"KSJ2:LIN":"東部丘陵線","KSJ2:RAS":"eb03_243","KSJ2:segment":"eb02_415","light_rail":"yes","name":"八草","name:en":"Yakusa","name:ja":"八草","name:ja-Hira":"やくさ","name:ko":"야쿠사","note":"National-Land Numerical Information (Railway) 2007, MLIT Japan","note:ja":"国土数値情報（鉄道データ）平成19年　国土交通省","old_name":"万博八草","public_transport":"station","railway":"station","source":"KSJ2","source_ref":"http://nlftp.mlit.go.jp/ksj/jpgis/datalist/KsjTmplt-N02-v1_1.html","station":"light_rail","wikidata":"Q8047246","wikipedia":"ja:八草駅"}},{"type":"node","id":6511858185,"lat":35.1793044,"lon":137.0971586,"tags":{"KSJ2:LIN":"東部丘陵線","KSJ2:RAS":"eb03_237","KSJ2:STN":"陶磁資料館南","KSJ2:segment":"eb02_416","light_rail":"yes","name":"陶磁資料館南","name:en":"Tōji-shiryōkan-minami","name:es":"Tōji-shiryōkan-minami","name:ja":"陶磁資料館南","name:ko":"도지시료칸미나미","note":"National-Land Numerical Information (Railway) 2007, MLIT Japan","note:ja":"国土数値情報（鉄道データ）平成19年　国土交通省","public_transport":"station","railway":"station","source":"KSJ2","source_ref":"http://nlftp.mlit.go.jp/ksj/jpgis/datalist/KsjTmplt-N02-v1_1.html","station":"light_rail","wikidata":"Q861773","wikipedia":"ja:陶磁資料館南駅"}},{"type":"node","id":6511858194,"lat":35.1743805,"lon":137.0767312,"tags":{"KSJ2:LIN":"東部丘陵線","KSJ2:RAS":"eb03_238","KSJ2:STN":"公園西","KSJ2:segment":"eb02_414","alt_name:ko":"고엔니시","light_rail":"yes","name":"公園西","name:en":"Kōen-nishi","name:ja":"公園西","name:ko":"공원서","note":"National-Land Numerical Information (Railway) 2007, MLIT Japan","note:ja":"国土数値情報（鉄道データ）平成19年　国土交通省","public_transport":"station","railway":"station","source":"KSJ2","source_ref":"http://nlftp.mlit.go.jp/ksj/jpgis/datalist/KsjTmplt-N02-v1_1.html","station":"light_rail","wikidata":"Q861766","wikipedia":"ja:公園西駅"}},{"type":"node","id":6511864189,"lat":35.1719867,"lon":137.0609435,"tags":{"light_rail":"yes","name":"芸大通","name:en":"Geidai-dōri","name:es":"Geidai-dōri","name:ja":"芸大通","name:ko":"게이다이도리","public_transport":"stop_position","railway":"stop","station":"light_rail"}},{"type":"node","id":6511864190,"lat":35.1719078,"lon":137.0609484,"tags":{"light_rail":"yes","name":"芸大通","name:en":"Geidai-dōri","name:es":"Geidai-dōri","name:ja":"芸大通","name:ko":"게이다이도리","public_transport":"stop_position","railway":"stop","station":"light_rail"}},{"type":"node","id":6511864191,"lat":35.1715632,"lon":137.0497528,"tags":{"KSJ2:LIN":"東部丘陵線","KSJ2:RAS":"eb03_241","KSJ2:STN":"長久手古戦場","KSJ2:segment":"eb02_404","alt_name:ko":"나가쿠테코센조","light_rail":"yes","name":"長久手古戦場","name:en":"Nagakute Kosenjō","name:es":"Nagakute Kosenjō","name:ja":"長久手古戦場","name:ko":"나가쿠테고전장","note":"National-Land Numerical Information (Railway) 2007, MLIT Japan","note:ja":"国土数値情報（鉄道データ）平成19年　国土交通省","public_transport":"station","railway":"station","source":"KSJ2","source_ref":"http://nlftp.mlit.go.jp/ksj/jpgis/datalist/KsjTmplt-N02-v1_1.html","station":"light_rail","wikidata":"Q861753","wikipedia":"ja:長久手古戦場駅"}},{"type":"node","id":6511871063,"lat":35.1822042,"lon":137.0217196,"tags":{"KSJ2:LIN":"東部丘陵線","KSJ2:RAS":"eb03_244","KSJ2:STN":"藤が丘","KSJ2:segment":"eb02_410","light_rail":"yes","name":"藤が丘","name:en":"Fujigaoka","name:es":"Fujigaoka","name:ja":"藤が丘","name:ko":"후지가오카","note":"National-Land Numerical Information (Railway) 2007, MLIT Japan","note:ja":"国土数値情報（鉄道データ）平成19年　国土交通省","public_transport":"station","railway":"station","source":"KSJ2","source_ref":"http://nlftp.mlit.go.jp/ksj/jpgis/datalist/KsjTmplt-N02-v1_1.html","station":"light_rail","wikidata":"Q850679","wikipedia":"ja:藤が丘駅 (愛知県)"}},{"type":"node","id":6511881919,"lat":35.1718263,"lon":137.0379217,"tags":{"KSJ2:LIN":"東部丘陵線","KSJ2:RAS":"eb03_236","KSJ2:STN":"杁ヶ池公園","KSJ2:segment":"eb02_411","alt_name:ko":"이리가이케코엔","light_rail":"yes","name":"杁ヶ池公園","name:en":"Irigaike-kōen","name:es":"Irigaike-kōen","name:ja":"杁ヶ池公園","name:ko":"이리가이케공원","note":"National-Land Numerical Information (Railway) 2007, MLIT Japan","note:ja":"国土数値情報（鉄道データ）平成19年　国土交通省","public_transport":"station","railway":"station","source":"KSJ2","source_ref":"http://nlftp.mlit.go.jp/ksj/jpgis/datalist/KsjTmplt-N02-v1_1.html","station":"light_rail","wikidata":"Q861794","wikipedia":"ja:杁ヶ池公園駅"}},{"type":"node","id":6780097801,"lat":35.1752575,"lon":136.9667338,"tags":{"KSJ2:STN":"自由ヶ丘","name":"自由ヶ丘","name:en":"Jiyugaoka","name:ja":"自由ヶ丘","name:ko":"지유가오카","public_transport":"station","railway":"station","ref":"M16","station":"subway","subway":"yes","website":"https://www.kotsu.city.nagoya.jp","wikidata":"Q841857","wikipedia":"ja:自由ヶ丘駅"}},{"type":"node","id":7097097373,"lat":35.1737594,"lon":136.9081505,"tags":{"name":"久屋大通","name:en":"Hisaya-odori","name:ja":"久屋大通","name:ja-Latn":"Hisaya-ōdōri","operator":"名古屋市交通局","operator:en":"Nagoya City Transportation Bureau","public_transport":"station","railway":"station","ref":"M06;S05","station":"subway","subway":"yes","website":"https://www.kotsu.city.nagoya.jp","wikidata":"Q858944","wikipedia":"ja:久屋大通駅"}},{"type":"node","id":7267425761,"lat":35.1753761,"lon":137.0134764,"tags":{"name":"本郷","name:en":"Hongō","operator":"名古屋市交通局","operator:website":"https://www.kotsu.city.nagoya.jp","public_transport":"station","railway":"station","ref":"H21","station":"subway","subway":"yes","website":"https://www.kotsu.city.nagoya.jp/jp/pc/subway/station_top.html?name=%E6%9C%AC%E9%83%B7","wikidata":"Q862895","wikipedia":"ja:本郷駅 (愛知県)"}},{"type":"node","id":7306153254,"lat":35.1735138,"lon":137.0066824,"tags":{"KSJ2:STN":"上社","name":"上社","name:en":"Kamiyashiro","name:ja":"上社","name:ko":"가미야시로","operator":"名古屋市交通局","operator:website":"https://www.kotsu.city.nagoya.jp","public_transport":"station","railway":"station","ref":"H20","station":"subway","subway":"yes","website":"https://www.kotsu.city.nagoya.jp/jp/pc/subway/station_top.html?name=%E4%B8%8A%E7%A4%BE","wikidata":"Q863234","wikipedia":"ja:上社駅"}},{"type":"node","id":7744467054,"lat":35.1320285,"lon":136.9344414,"tags":{"KSJ2:STN":"瑞穂区役所","alt_name:ko":"미즈호쿠야쿠쇼","name":"瑞穂区役所","name:en":"Mizuho Kuyakusho","name:ja":"瑞穂区役所","name:ko":"미즈호구청","public_transport":"station","railway":"station","ref":"S12","station":"subway","subway":"yes","website":"https://www.kotsu.city.nagoya.jp","wikidata":"Q859156","wikipedia":"ja:瑞穂区役所駅"}},{"type":"node","id":7783663372,"lat":35.0947779,"lon":136.9977468,"tags":{"name":"徳重","name:en":"Tokushige","public_transport":"station","railway":"station","ref":"S21","station":"subway","subway":"yes","website":"https://www.kotsu.city.nagoya.jp","wikidata":"Q866130","wikipedia":"ja:徳重駅 (名古屋市)"}},{"type":"node","id":7783663373,"lat":35.0984223,"lon":136.9896293,"tags":{"name":"神沢","name:en":"Kamisawa","public_transport":"station","railway":"station","ref":"S20","station":"subway","subway":"yes","website":"https://www.kotsu.city.nagoya.jp","wikidata":"Q866647","wikipedia":"ja:神沢駅"}},{"type":"node","id":7783663374,"lat":35.1024738,"lon":136.9769382,"tags":{"name":"相生山","name:en":"Aioiyama","name:ja-Hira":"あいおいやま","name:ja-Latn":"Aioiyama","public_transport":"station","railway":"station","ref":"S19","station":"subway","subway":"yes","website":"https://www.kotsu.city.nagoya.jp","wikidata":"Q866681","wikipedia":"ja:相生山駅"}},{"type":"node","id":7783663375,"lat":35.1026099,"lon":136.9655013,"tags":{"name":"鳴子北","name:en":"Naruko Kita","public_transport":"station","railway":"station","ref":"S18","station":"subway","subway":"yes","website":"https://www.kotsu.city.nagoya.jp","wikidata":"Q866649","wikipedia":"ja:鳴子北駅"}},{"type":"node","id":7783663376,"lat":35.1026275,"lon":136.9549139,"tags":{"KSJ2:STN":"野並","name":"野並","name:en":"Nonami","name:ja":"野並","name:ko":"노나미","public_transport":"station","railway":"station","ref":"S17","station":"subway","subway":"yes","website":"https://www.kotsu.city.nagoya.jp","wikidata":"Q851084","wikipedia":"ja:野並駅"}},{"type":"node","id":7783663377,"lat":35.1055816,"lon":136.944389,"tags":{"KSJ2:STN":"鶴里","name":"鶴里","name:en":"Tsurusato","name:ja":"鶴里","name:ko":"쓰루사토","public_transport":"station","railway":"station","ref":"S16","station":"subway","subway":"yes","wikidata":"Q859214","wikipedia":"ja:鶴里駅"}},{"type":"node","id":7783663378,"lat":35.1092169,"lon":136.9368097,"tags":{"KSJ2:STN":"桜本町","name":"桜本町","name:en":"Sakura-hommachi","name:ja":"桜本町","name:ko":"사쿠라혼마치","public_transport":"station","railway":"station","ref":"S15","station":"subway","subway":"yes","website":"https://www.kotsu.city.nagoya.jp","wikidata":"Q858929","wikipedia":"ja:桜本町駅"}},{"type":"node","id":7783663380,"lat":35.124996,"lon":136.9354914,"tags":{"KSJ2:STN":"瑞穂運動場西","name":"瑞穂運動場西","name:en":"Mizuho Undōjō Nishi","name:ja":"瑞穂運動場西","name:ko":"미즈호운도조니시","public_transport":"station","railway":"station","ref":"S13","station":"subway","subway":"yes","website":"https://www.kotsu.city.nagoya.jp","wikidata":"Q858909","wikipedia":"ja:瑞穂運動場西駅"}},{"type":"node","id":7783663381,"lat":35.1402151,"lon":136.9332665,"tags":{"KSJ2:STN":"桜山","name":"桜山","name:en":"Sakurayama","name:ja":"桜山","name:ko":"사쿠라야마","public_transport":"station","railway":"station","ref":"S11","station":"subway","website":"https://www.kotsu.city.nagoya.jp","wikidata":"Q854684","wikipedia":"ja:桜山駅"}},{"type":"node","id":7783663382,"lat":35.1588462,"lon":136.9352231,"tags":{"KSJ2:STN":"吹上","name":"吹上","name:en":"Fukiage","name:ja":"吹上","name:ko":"후키아게","public_transport":"station","railway":"station","ref":"S09","station":"subway","subway":"yes","website":"https://www.kotsu.city.nagoya.jp","wikidata":"Q858820","wikipedia":"ja:吹上駅 (愛知県)"}},{"type":"node","id":7783663383,"lat":35.1686022,"lon":136.9369338,"tags":{"KSJ2:STN":"今池","name":"今池","name:en":"Imaike","name:ja":"今池","name:ko":"이마이케","public_transport":"station","railway":"station","ref":"S08","station":"subway","subway":"yes","website":"https://www.kotsu.city.nagoya.jp","wikidata":"Q852173","wikipedia":"ja:今池駅 (愛知県)"}},{"type":"node","id":7783663384,"lat":35.1734351,"lon":136.9294665,"tags":{"KSJ2:STN":"車道","name":"車道","name:en":"Kurumamichi","name:ja":"車道","name:ko":"구루마미치","public_transport":"station","railway":"station","ref":"S07","station":"subway","subway":"yes","website":"https://www.kotsu.city.nagoya.jp","wikidata":"Q858916","wikipedia":"ja:車道駅"}},{"type":"node","id":7783665985,"lat":35.1741558,"lon":136.9162633,"tags":{"KSJ2:STN":"高岳","name":"高岳","name:en":"Takaoka","name:ja":"高岳","name:ko":"다카오카","public_transport":"station","railway":"station","ref":"S06","station":"subway","subway":"yes","website":"https://www.kotsu.city.nagoya.jp","wikidata":"Q854707","wikipedia":"ja:高岳駅"}},{"type":"node","id":7783665986,"lat":35.1731652,"lon":136.8994325,"tags":{"KSJ2:STN":"丸の内","name":"丸の内","name:en":"Marunouchi","name:ja":"丸の内","name:ko":"마루노우치","public_transport":"station","railway":"station","ref":"S04","station":"subway","subway":"yes","website":"https://www.kotsu.city.nagoya.jp","wikidata":"Q854702","wikipedia":"ja:丸の内駅 (愛知県)"}},{"type":"node","id":7783665987,"lat":35.172142,"lon":136.8895686,"tags":{"KSJ2:STN":"国際センター","alt_name:ko":"고쿠사이센터","name":"国際センター","name:en":"Kokusai Center (International Center)","name:ja":"国際センター","name:ko":"국제센터","operator":"名古屋市交通局","operator:website":"https://www.kotsu.city.nagoya.jp","public_transport":"station","railway":"station","ref":"S03","station":"subway","subway":"yes","website":"https://www.kotsu.city.nagoya.jp/jp/pc/subway/station_top.html?name=%E5%9B%BD%E9%9A%9B%E3%82%BB%E3%83%B3%E3%82%BF%E3%83%BC","wikidata":"Q859016","wikipedia":"ja:国際センター駅 (愛知県)"}},{"type":"node","id":7783665989,"lat":35.1676209,"lon":136.8732428,"tags":{"name":"太閤通","name:en":"Taiko-dori","name:ja":"太閤通","operator":"名古屋市交通局","operator:website":"https://www.kotsu.city.nagoya.jp","public_transport":"station","railway":"station","ref":"S01","station":"subway","subway":"yes","website":"https://www.kotsu.city.nagoya.jp/jp/pc/subway/station_top.html?name=%E5%A4%AA%E9%96%A4%E9%80%9A","wikidata":"Q850809","wikipedia":"ja:太閤通駅"}},{"type":"node","id":7783766939,"lat":35.1346131,"lon":136.9019987,"tags":{"KSJ2:STN":"西高蔵","name":"西高蔵","name:en":"Nishi Takakura","name:ja":"西高蔵","name:ko":"니시타카쿠라","public_transport":"station","railway":"station","ref":"M28","station":"subway","subway":"yes","website":"http://www.kotsu.city.nagoya.jp/subway/station_info/na_info/nishi_takakura.htmll","wikidata":"Q903624","wikipedia":"ja:西高蔵駅"}},{"type":"node","id":7783766940,"lat":35.1278984,"lon":136.9067301,"tags":{"name":"熱田神宮西","name:en":"Atsuta Jingu Nishi","name:ja":"熱田神宮西","public_transport":"station","railway":"station","ref":"M27","station":"subway","subway":"yes","website":"https://www.kotsu.city.nagoya.jp/jp/pc/subway/station_top.html?name=%E7%86%B1%E7%94%B0%E7%A5%9E%E5%AE%AE%E8%A5%BF","wikidata":"Q903638","wikipedia":"ja:熱田神宮西"}},{"type":"node","id":7783766941,"lat":35.1207938,"lon":136.9104282,"tags":{"name":"熱田神宮伝馬町","name:en":"Atsuta Jingu Temma-cho","name:ja":"熱田神宮伝馬町","public_transport":"station","railway":"station","ref":"M26","station":"subway","subway":"yes","website":"https://www.kotsu.city.nagoya.jp/jp/pc/subway/station_top.html?name=%E7%86%B1%E7%94%B0%E7%A5%9E%E5%AE%AE%E4%BC%9D%E9%A6%AC%E7%94%BA","wikidata":"Q970033","wikipedia":"ja:熱田神宮伝馬町"}},{"type":"node","id":7783766942,"lat":35.1164915,"lon":136.9214843,"tags":{"KSJ2:STN":"堀田","name":"堀田","name:en":"Horita","name:ja":"堀田","name:ja-Hira":"ほりた","name:ja-Latn":"Horita","name:ko":"호리타","public_transport":"station","railway":"station","ref":"M25","station":"subway","subway":"yes","website":"https://www.kotsu.city.nagoya.jp","wheelchair":"yes","wikidata":"Q862374","wikipedia":"ja:堀田駅 (名古屋市営地下鉄)"}},{"type":"node","id":7783766943,"lat":35.1171232,"lon":136.9295781,"tags":{"KSJ2:STN":"妙音通","name":"妙音通","name:en":"Myōon-dōri","name:ja":"妙音通","name:ko":"묘온도리","public_transport":"station","railway":"station","ref":"M24","station":"subway","subway":"yes","website":"https://www.kotsu.city.nagoya.jp","wikidata":"Q861825","wikipedia":"ja:妙音通駅"}},{"type":"node","id":7783766945,"lat":35.1231314,"lon":136.9486712,"tags":{"KSJ2:STN":"瑞穂運動場東","name":"瑞穂運動場東","name:en":"Mizuho Undojo Higashi","name:ja":"瑞穂運動場東","name:ko":"미즈호운도조히가시","public_transport":"station","railway":"station","ref":"M22","station":"subway","subway":"yes","website":"https://www.kotsu.city.nagoya.jp","wikidata":"Q861828","wikipedia":"ja:瑞穂運動場東駅"}},{"type":"node","id":7783766946,"lat":35.1308253,"lon":136.9547698,"tags":{"KSJ2:STN":"総合リハビリセンター","name":"総合リハビリセンター","name:en":"Sogo Rihabiri Center","name:ja":"総合リハビリセンター","name:ko":"소고리하비리센터","public_transport":"station","railway":"station","ref":"M21","station":"subway","subway":"yes","website":"https://www.kotsu.city.nagoya.jp","wikidata":"Q841943","wikipedia":"ja:総合リハビリセンター駅"}},{"type":"node","id":7783766947,"lat":35.1367692,"lon":136.9642501,"tags":{"KSJ2:STN":"八事","name":"八事","name:en":"Yagoto","name:ja":"八事","name:ko":"야고토","public_transport":"station","railway":"station","ref":"M20","station":"subway","subway":"yes","website":"https://www.kotsu.city.nagoya.jp","wikidata":"Q855210","wikipedia":"ja:八事駅"}},{"type":"node","id":7783766948,"lat":35.144997,"lon":136.9647476,"tags":{"KSJ2:STN":"八事日赤","name":"八事日赤","name:en":"Yagoto Nisseki","name:ja":"八事日赤","name:ko":"야고토닛세키","public_transport":"station","railway":"station","ref":"M19","station":"subway","subway":"yes","website":"https://www.kotsu.city.nagoya.jp","wikidata":"Q903651","wikipedia":"ja:八事日赤駅"}},{"type":"node","id":7783766949,"lat":35.1546714,"lon":136.9666802,"tags":{"KSJ2:STN":"名古屋大学","addr:city":"名古屋市","addr:province":"愛知県","addr:quarter":"不老町","addr:suburb":"千種区","air_conditioning":"yes","internet_access":"wlan","name":"名古屋大学","name:en":"Nagoya Daigaku","name:ja":"名古屋大学","name:ko":"나고야다이가쿠","operator":"名古屋市交通局","public_transport":"station","railway":"station","ref":"M18","source":"local knowledge","station":"subway","subway":"yes","website":"https://www.kotsu.city.nagoya.jp","wheelchair":"yes","wikidata":"Q862340","wikipedia":"ja:名古屋大学駅"}},{"type":"node","id":7783766950,"lat":35.1633392,"lon":136.9637586,"tags":{"KSJ2:STN":"本山","name":"本山","name:en":"Motoyama","name:ja":"本山","name:ko":"모토야마","public_transport":"station","railway":"station","ref":"M17;H16","station":"subway","subway":"yes","wheelchair":"yes","wikidata":"Q855542","wikipedia":"ja:本山駅 (愛知県)"}},{"type":"node","id":7783766951,"lat":35.1844986,"lon":136.9623993,"tags":{"name":"茶屋ヶ坂","name:en":"Chayagasaka","name:ja":"茶屋ヶ坂","name:ko":"자야가사카","public_transport":"station","railway":"station","ref":"M15","station":"subway","subway":"yes","website":"https://www.kotsu.city.nagoya.jp","wikidata":"Q862346","wikipedia":"ja:茶屋ヶ坂駅"}},{"type":"node","id":7783766952,"lat":35.1887683,"lon":136.9544499,"tags":{"name":"砂田橋","name:en":"Sunadabashi","name:ja":"砂田橋","name:ko":"스나다바시","public_transport":"station","railway":"station","ref":"M14","station":"subway","subway":"yes","website":"https://www.kotsu.city.nagoya.jp","wikidata":"Q903675","wikipedia":"ja:砂田橋駅"}},{"type":"node","id":7783766953,"lat":35.1909445,"lon":136.9439779,"tags":{"name":"ナゴヤドーム前矢田","name:en":"Nagoya Dome-mae Yada","name:ja":"ナゴヤドーム前矢田","name:ko":"나고야돔마에야다","public_transport":"station","railway":"station","ref":"M13","station":"subway","subway":"yes","website":"https://www.kotsu.city.nagoya.jp","wheelchair":"yes","wikidata":"Q903437","wikipedia":"ja:ナゴヤドーム前矢田駅"}},{"type":"node","id":7783766954,"lat":35.1927451,"lon":136.9362271,"tags":{"name":"大曽根","name:en":"Ōzone","name:ja":"大曽根","name:ko":"오조네","public_transport":"station","railway":"station","ref":"M12","station":"subway","subway":"yes","website":"https://www.kotsu.city.nagoya.jp/jp/pc/subway/station_top.html?name=%E5%A4%A7%E6%9B%BD%E6%A0%B9","wikidata":"Q872075","wikipedia":"ja:大曽根駅"}},{"type":"node","id":7784256782,"lat":35.1682898,"lon":136.9959846,"tags":{"KSJ2:STN":"一社","name":"一社","name:en":"Issha","name:ja":"一社","name:ko":"잇샤","operator":"名古屋市交通局","operator:website":"https://www.kotsu.city.nagoya.jp","public_transport":"station","railway":"station","ref":"H19","station":"subway","subway":"yes","website":"https://www.kotsu.city.nagoya.jp/jp/pc/subway/station_top.html?name=%E4%B8%80%E7%A4%BE","wikidata":"Q863231","wikipedia":"ja:一社駅"}},{"type":"node","id":7784256783,"lat":35.1639027,"lon":136.9637478,"tags":{"KSJ2:STN":"本山","name":"本山","name:en":"Motoyama","name:ja":"本山","name:ko":"모토야마","operator":"名古屋市交通局","operator:website":"https://www.kotsu.city.nagoya.jp","public_transport":"station","railway":"station","ref":"H16","station":"subway","subway":"yes","website":"https://www.kotsu.city.nagoya.jp/jp/pc/subway/station_top.html?name=%E6%9C%AC%E5%B1%B1","wikidata":"Q855542","wikipedia":"ja:本山駅 (愛知県)"}},{"type":"node","id":7784256784,"lat":35.16662,"lon":136.9529217,"tags":{"KSJ2:STN":"覚王山","name":"覚王山","name:en":"Kakuōzan","name:ja":"覚王山","name:ko":"가쿠오잔","operator":"名古屋市交通局","operator:website":"https://www.kotsu.city.nagoya.jp","public_transport":"station","railway":"station","ref":"H15","station":"subway","subway":"yes","website":"https://www.kotsu.city.nagoya.jp/jp/pc/subway/station_top.html?name=%E8%A6%9A%E7%8E%8B%E5%B1%B1","wheelchair":"yes","wikidata":"Q863487","wikipedia":"ja:覚王山駅"}},{"type":"node","id":7784263285,"lat":35.1678199,"lon":136.9460264,"tags":{"KSJ2:STN":"池下","name":"池下","name:en":"Ikeshita","name:ja":"池下","name:ko":"이케시타","operator":"名古屋市交通局","operator:website":"https://www.kotsu.city.nagoya.jp","public_transport":"station","railway":"station","ref":"H14","station":"subway","subway":"yes","website":"https://www.kotsu.city.nagoya.jp/jp/pc/subway/station_top.html?name=%E6%B1%A0%E4%B8%8B","wheelchair":"yes","wikidata":"Q863214","wikipedia":"ja:池下駅"}},{"type":"node","id":7784263286,"lat":35.1698098,"lon":136.9382688,"tags":{"KSJ2:STN":"今池","name":"今池","name:en":"Imaike","name:ja":"今池","name:ko":"이마이케","operator":"名古屋市交通局","operator:website":"https://www.kotsu.city.nagoya.jp","public_transport":"station","railway":"station","ref":"H13","station":"subway","subway":"yes","website":"https://www.kotsu.city.nagoya.jp/jp/pc/subway/station_top.html?name=%E4%BB%8A%E6%B1%A0","wikidata":"Q852173","wikipedia":"ja:今池駅 (愛知県)"}},{"type":"node","id":7784263287,"lat":35.170752,"lon":136.9202202,"tags":{"KSJ2:STN":"新栄町","name":"新栄町","name:en":"Shinsakae-machi","name:ja":"新栄町","name:ko":"신사카에마치","network":"東山線","operator":"名古屋市交通局","operator:website":"https://www.kotsu.city.nagoya.jp","public_transport":"station","railway":"station","ref":"H11","station":"subway","subway":"yes","website":"https://www.kotsu.city.nagoya.jp/jp/pc/subway/station_top.html?name=%E6%96%B0%E6%A0%84%E7%94%BA","wikidata":"Q863475","wikipedia":"ja:新栄町駅 (愛知県)"}},{"type":"node","id":7784263288,"lat":35.1699643,"lon":136.9088206,"tags":{"KSJ2:STN":"栄","level":"-3","name":"栄","name:en":"Sakae","name:ja":"栄","name:ko":"사카에 역","operator":"名古屋市交通局","operator:website":"https://www.kotsu.city.nagoya.jp","public_transport":"station","railway":"station","ref":"H10","station":"subway","subway":"yes","wikidata":"Q862325","wikipedia":"ja:栄駅 (愛知県)"}},{"type":"node","id":7784263290,"lat":35.1775507,"lon":136.8775644,"tags":{"KSJ2:STN":"亀島","name":"亀島","name:en":"Kamejima","name:ja":"亀島","name:ja-Hira":"かめじま","name:ja_rm":"Kamejima","name:ko":"가메지마","operator":"名古屋市交通局","operator:website":"https://www.kotsu.city.nagoya.jp","public_transport":"station","railway":"station","ref":"H07","station":"subway","subway":"yes","website":"http://www.kotsu.city.nagoya.jp/subway/station_info/ka_info/kamejima.html","wikidata":"Q862331","wikipedia":"ja:亀島駅"}},{"type":"node","id":7784263291,"lat":35.1770004,"lon":136.8671453,"tags":{"KSJ2:STN":"本陣","name":"本陣","name:en":"Honjin","name:ja":"本陣","name:ko":"혼진","operator":"名古屋市交通局","operator:website":"https://www.kotsu.city.nagoya.jp","public_transport":"station","railway":"station","ref":"H06","station":"subway","website":"http://www.kotsu.city.nagoya.jp/subway/station_info/ha_info/honjin.html","wikidata":"Q862320","wikipedia":"ja:本陣駅"}},{"type":"node","id":7784263292,"lat":35.1727779,"lon":136.8622671,"tags":{"KSJ2:STN":"中村日赤","name":"中村日赤","name:en":"Nakamura Nisseki","name:ja":"中村日赤","name:ko":"나카무라닛세키","operator":"名古屋市交通局","operator:website":"https://www.kotsu.city.nagoya.jp","public_transport":"station","railway":"station","ref":"H05","station":"subway","subway":"yes","website":"http://www.kotsu.city.nagoya.jp/subway/station_info/na_info/nakamura_nisseki.html","wikidata":"Q855501","wikipedia":"ja:中村日赤駅"}},{"type":"node","id":7784263293,"lat":35.1677498,"lon":136.854877,"tags":{"KSJ2:STN":"中村公園","alt_name:ko":"나카무라코엔","name":"中村公園","name:en":"Nakamura Kōen","name:ja":"中村公園","name:ko":"나카무라공원","operator":"名古屋市交通局","operator:website":"https://www.kotsu.city.nagoya.jp","public_transport":"station","railway":"station","ref":"H04","station":"subway","subway":"yes","website":"http://www.kotsu.city.nagoya.jp/subway/station_info/na_info/nakamura_koen.html","wikidata":"Q862371","wikipedia":"ja:中村公園駅"}},{"type":"node","id":7784263294,"lat":35.1578413,"lon":136.8543767,"tags":{"KSJ2:STN":"岩塚","name":"岩塚","name:en":"Iwatsuka","name:ja":"岩塚","name:ko":"이와쓰카","operator":"名古屋市交通局","operator:website":"https://www.kotsu.city.nagoya.jp","public_transport":"station","railway":"station","ref":"H03","station":"subway","subway":"yes","website":"http://www.kotsu.city.nagoya.jp/subway/station_info/a_info/iwatsuka.html","wikidata":"Q863205","wikipedia":"ja:岩塚駅"}},{"type":"node","id":7784263295,"lat":35.1486152,"lon":136.8532274,"tags":{"KSJ2:STN":"八田","name":"八田","name:en":"Hatta","name:ja":"八田","name:ko":"핫타","operator":"名古屋市交通局","operator:website":"https://www.kotsu.city.nagoya.jp","public_transport":"station","railway":"station","ref":"H02","station":"subway","subway":"yes","website":"http://www.kotsu.city.nagoya.jp/subway/station_info/ha_info/hatta.html","wikidata":"Q863200","wikipedia":"ja:八田駅"}},{"type":"node","id":7784263296,"lat":35.1390555,"lon":136.8534142,"tags":{"KSJ2:STN":"高畑","name":"高畑","name:en":"Takabata","name:ja":"高畑","name:ko":"다카바타","operator":"名古屋市交通局","operator:website":"https://www.kotsu.city.nagoya.jp","public_transport":"station","railway":"station","ref":"H01","station":"subway","subway":"yes","website":"http://www.kotsu.city.nagoya.jp/subway/station_info/ta_info/takabata.html","wikidata":"Q851002","wikipedia":"ja:高畑駅"}},{"type":"node","id":7784263297,"lat":35.17065,"lon":136.929897,"tags":{"KSJ2:STN":"千草","name":"千種","name:en":"Chikusa","name:ja":"千種","name:ja-Hira":"ちくさ","name:ko":"지쿠사","operator":"名古屋市交通局","operator:website":"https://www.kotsu.city.nagoya.jp","platforms":"2","public_transport":"station","railway":"station","ref":"H12","station":"subway","subway":"yes","website":"https://www.kotsu.city.nagoya.jp/jp/pc/subway/station_top.html?name=%E5%8D%83%E7%A8%AE","wikidata":"Q863068","wikipedia":"ja:千種駅"}},{"type":"node","id":7784408484,"lat":35.0930989,"lon":136.8819049,"tags":{"KSJ2:STN":"名古屋港","name":"名古屋港","name:en":"Nagoyakō","name:ja":"名古屋港","name:ko":"나고야코","public_transport":"station","railway":"station","ref":"E07","station":"subway","subway":"yes","website":"http://www.kotsu.city.nagoya.jp/subway/station_info/na_info/nagoyako.html","wikidata":"Q858446","wikipedia":"ja:名古屋港駅 (名古屋市営地下鉄)"}},{"type":"node","id":7784456485,"lat":35.1000013,"lon":136.883164,"tags":{"KSJ2:STN":"築地口","name":"築地口","name:en":"Tsukiji-guchi","name:ja":"築地口","name:ko":"쓰키지구치","public_transport":"station","railway":"station","ref":"E06","station":"subway","subway":"yes","website":"http://www.kotsu.city.nagoya.jp/subway/station_info/ta_info/tsukijiguchi.html","wikidata":"Q7850067","wikipedia":"ja:築地口駅"}},{"type":"node","id":7784456486,"lat":35.1065186,"lon":136.8848023,"tags":{"KSJ2:STN":"港区役所","name":"港区役所","name:en":"Minato Kuyakusho","name:ja":"港区役所","name:ko":"미나토쿠야쿠쇼","public_transport":"station","railway":"station","ref":"E05","station":"subway","subway":"yes","website":"http://www.kotsu.city.nagoya.jp/subway/station_info/mayara_info/minato_kuyakusho.html","wikidata":"Q6863252","wikipedia":"ja:港区役所駅"}},{"type":"node","id":7784456487,"lat":35.113467,"lon":136.886004,"tags":{"KSJ2:STN":"東海通","name":"東海通","name:en":"Tōkai-dōri","name:ja":"東海通","name:ko":"도카이도리","public_transport":"station","railway":"station","ref":"E04","station":"subway","subway":"yes","website":"http://www.kotsu.city.nagoya.jp/subway/station_info/ta_info/tokai_dori.html","wikidata":"Q7862676","wikipedia":"ja:東海通駅"}},{"type":"node","id":7784456488,"lat":35.1240736,"lon":136.888359,"tags":{"KSJ2:STN":"六番町","name":"六番町","name:en":"Rokuban-chō","name:ja":"六番町","name:ko":"로쿠반초","public_transport":"station","railway":"station","ref":"E03","station":"subway","subway":"yes","website":"http://www.kotsu.city.nagoya.jp/subway/station_info/mayara_info/rokubancho.html","wikidata":"Q7360096","wikipedia":"ja:六番町駅"}},{"type":"node","id":7784456489,"lat":35.1324573,"lon":136.8928939,"tags":{"KSJ2:STN":"日比野","name":"日比野","name:en":"Hibino","name:ja":"日比野","name:ko":"히비노","public_transport":"station","railway":"station","ref":"E02","station":"subway","subway":"yes","website":"http://www.kotsu.city.nagoya.jp/subway/station_info/ha_info/hibino.html","wikidata":"Q5750779","wikipedia":"ja:日比野駅 (名古屋市)"}},{"type":"node","id":7981295815,"lat":35.1605259,"lon":136.9729324,"tags":{"KSJ2:STN":"東山公園","alt_name:ko":"히가시야마코엔","name":"東山公園","name:en":"Higashiyama Kōen (Higashiyama Park)","name:ja":"東山公園","name:ko":"히가시야마공원","operator":"名古屋市交通局","operator:website":"https://www.kotsu.city.nagoya.jp","public_transport":"station","railway":"station","ref":"H17","station":"subway","subway":"yes","website":"https://www.kotsu.city.nagoya.jp/jp/pc/subway/station_top.html?name=%E6%9D%B1%E5%B1%B1%E5%85%AC%E5%9C%92","wikidata":"Q853221","wikipedia":"ja:東山公園駅 (愛知県)"}},{"type":"node","id":7981295816,"lat":35.1626309,"lon":136.9855535,"tags":{"KSJ2:STN":"星ヶ丘","addr:full":"愛知県名古屋市千種区井上町49-1","name":"星ヶ丘","name:en":"Hoshigaoka","name:ja":"星ヶ丘","name:ko":"호시가오카","operator":"名古屋市交通局","operator:website":"https://www.kotsu.city.nagoya.jp","public_transport":"station","railway":"station","ref":"H18","station":"subway","subway":"yes","website":"https://www.kotsu.city.nagoya.jp/jp/pc/subway/station_top.html?name=%E6%98%9F%E3%83%B6%E4%B8%98","wikidata":"Q863225","wikipedia":"ja:星ヶ丘駅 (愛知県)"}},{"type":"node","id":9139714678,"lat":35.1177432,"lon":136.9366018,"tags":{"name":"新瑞橋","name:en":"Aratama-bashi","name:ja":"新瑞橋","name:ko":"아라타마바시","public_transport":"station","railway":"station","ref":"M23, S14","station":"subway","subway":"yes","website":"https://www.kotsu.city.nagoya.jp","wikidata":"Q854687","wikipedia":"ja:新瑞橋駅"}},{"type":"way","id":962753466,"center":{"lat":35.1181743,"lon":136.9370141},"nodes":[8905684617,7785976007,8905684618,8905684622,8905684623,8905684624,361019020,8224066616,8905684625,8905684626,8905684619,361011333,7785976002,8905684620,8906399391,8906399392,8906399393,8906399397,8906399399,361018886,8906399396,8906399398,8906399395,8906399394,8905684617],"tags":{"KSJ2:STN":"新瑞橋駅","building":"train_station","layer":"-1","location":"underground","name":"新瑞橋駅","name:en":"Aratama-bashi","name:ja":"新瑞橋駅","name:ko":"아라타마바시","public_transport":"station","ref":"M23, S14","station":"subway","subway":"yes"}}]}