{"elements":[{"type":"node","id":2075964063,"lat":37.0708667,"lon":37.3799847,"tags":{"name":"Gar","public_transport":"stop_position","railway":"tram_stop","source":"http://www.urbanrail.net/as/tr/gaziantep/gaziantep.htm","tram":"yes","wikidata":"Q125340620","wikimedia_commons":"Category:Gar (Gaziantep Tram)","wikipedia":"tr:Gar (Gaziantep Tramvayı)"}},{"type":"node","id":2075964079,"lat":37.0648346,"lon":37.3549769,"tags":{"name":"Masal Parkı","public_transport":"stop_position","railway":"tram_stop","train":"yes","tram":"yes","wikidata":"Q125340730","wikimedia_commons":"Category:Masal Parkı (Gaziantep Tram)","wikipedia":"tr:Masal Parkı (Gaziantep Tramvayı)"}},{"type":"node","id":2075964101,"lat":37.064464,"lon":37.3453613,"tags":{"name":"Harikalar Diyarı","public_transport":"stop_position","railway":"tram_stop","tram":"yes","wikidata":"Q125340624","wikimedia_commons":"Category:Harikalar Diyarı (Gaziantep Tram)","wikipedia":"tr:Harikalar Diyarı (Gaziantep Tramvayı)"}},{"type":"node","id":2076008838,"lat":37.0407929,"lon":37.3219552,"tags":{"name":"Tıp Fakültesi","public_transport":"stop_position","railway":"tram_stop","tram":"yes","wikidata":"Q125340494","wikimedia_commons":"Category:Tıp Fakültesi (Gaziantep Tram)","wikipedia":"tr:Tıp Fakültesi (Gaziantep Tramvayı)"}},{"type":"node","id":2076008903,"lat":37.06178,"lon":37.3346047,"tags":{"name":"Kadı Değirmeni","public_transport":"stop_position","railway":"tram_stop","train":"yes","tram":"yes","wikidata":"Q125340553","wikimedia_commons":"Category:Kadı Değirmeni (Gaziantep Tram)","wikipedia":"tr:Kadı Değirmeni (Gaziantep Tramvayı)"}},{"type":"node","id":2076008906,"lat":37.0562463,"lon":37.3306422,"tags":{"name":"Rasaf Yolu","name:ar":"محطة ترام رصاف يوليو 🚃","public_transport":"stop_position","railway":"tram_stop","train":"yes","tram":"yes","wikidata":"Q125340605","wikimedia_commons":"Category:Rasaf Yolu (Gaziantep Tram)","wikipedia":"tr:Rasaf Yolu (Gaziantep Tramvayı)"}},{"type":"node","id":2076008941,"lat":37.048145,"lon":37.3259152,"tags":{"name":"Binevler","name:ar":"محطة ترام بين ايڤلر 🚃","railway":"tram_stop","train":"yes","tram":"yes","wikidata":"Q125340486","wikimedia_commons":"Category:Binevler (Gaziantep Tram)","wikipedia":"tr:Binevler (Gaziantep Tramvayı)"}},{"type":"node","id":2076008951,"lat":37.0273617,"lon":37.3115979,"tags":{"name":"Burç Kavşağı","network":"Gaziantep tramvayı","operator":"Gaziulaş","public_transport":"stop_position","railway":"tram_stop","train":"yes","tram":"yes","wikidata":"Q125340633","wikimedia_commons":"Category:Burç Kavşağı (Gaziantep Tram)","wikipedia":"tr:Burç Kavşağı (Gaziantep Tramvayı)"}},{"type":"node","id":2076028952,"lat":37.0661293,"lon":37.3769643,"tags":{"name":"15 Temmuz Demokrasi Meydanı","public_transport":"stop_position","railway":"tram_stop","source":"http://www.urbanrail.net/as/tr/gaziantep/gaziantep.htm","train":"yes","tram":"yes","wikidata":"Q125340444","wikimedia_commons":"Category:15 Temmuz Demokrasi Meydanı (Gaziantep Tram)","wikipedia":"tr:15 Temmuz Demokrasi Meydanı (Gaziantep Tramvayı)"}},{"type":"node","id":3471273399,"lat":37.0151916,"lon":37.3575052,"tags":{"area":"yes","name":"Akkent Parkı","public_transport":"stop_position","railway":"tram_stop","tram":"yes","wheelchair":"yes","wikidata":"Q125340474","wikimedia_commons":"Category:Akkent Parkı (Gaziantep Tram)","wikipedia":"tr:Akkent Parkı (Gaziantep Tramvayı)"}},{"type":"node","id":3471273402,"lat":37.0152113,"lon":37.3503827,"tags":{"area":"yes","name":"Karataş 1. Bölge","public_transport":"stop_position","railway":"tram_stop","tram":"yes","wheelchair":"yes","wikidata":"Q125340560","wikimedia_commons":"Category:Karataş 1. Bölge (Gaziantep Tram)","wikipedia":"tr:Karataş 1. Bölge (Gaziantep Tramvayı)"}},{"type":"node","id":3471273428,"lat":37.0255284,"lon":37.3343111,"tags":{"name":"Şahinbey Parkı","public_transport":"stop_position","railway":"tram_stop","train":"yes","tram":"yes","wheelchair":"yes","wikidata":"Q125340613","wikimedia_commons":"Category:Şahinbey Parkı (Gaziantep Tram)","wikipedia":"tr:Şahinbey Parkı (Gaziantep Tramvayı)"}},{"type":"node","id":3471312226,"lat":37.0354884,"lon":37.3185215,"tags":{"name":"Gaziantep Üniversitesi","public_transport":"stop_position","railway":"tram_stop","tram":"yes","wikidata":"Q125340506","wikimedia_commons":"Category:Gaziantep Üniversitesi (Gaziantep Tram)","wikipedia":"tr:Gaziantep Üniversitesi (Gaziantep Tramvayı)"}},{"type":"node","id":3471372971,"lat":37.0154018,"lon":37.3840159,"tags":{"name":"İbn-i Sina","network":"T1 (Gaziantep Tramvayı)","operator":"Gaziantep Büyükşehir Belediyesi","public_transport":"stop_position","railway":"tram_stop","tram":"yes","wheelchair":"yes","wikidata":"Q125340548","wikimedia_commons":"Category:İbn-i Sina (Gaziantep Tram)","wikipedia":"tr:İbn-i Sina (Gaziantep Tramvayı)"}},{"type":"node","id":3474969894,"lat":37.0200237,"lon":37.3408221,"tags":{"area":"yes","name":"Karataş Merkez","public_transport":"stop_position","railway":"tram_stop","tram":"yes","wheelchair":"yes","wikidata":"Q125340597","wikimedia_commons":"Category:Karataş Merkez (Gaziantep Tram)","wikipedia":"tr:Karataş Merkez (Gaziantep Tramvayı)"}},{"type":"node","id":3474969896,"lat":37.0297807,"lon":37.3266686,"tags":{"name":"Güneykent","public_transport":"stop_position","railway":"tram_stop","train":"yes","tram":"yes","wikidata":"Q125340517","wikimedia_commons":"Category:Güneykent (Gaziantep Tram)","wikipedia":"tr:Güneykent (Gaziantep Tramvayı)"}},{"type":"node","id":3476282925,"lat":37.0668692,"lon":37.3399585,"tags":{"name":"Sanko Okulları","public_transport":"stop_position","railway":"tram_stop","train":"yes","tram":"yes","wikidata":"Q125340640","wikimedia_commons":"Category:Sanko Okulları (Gaziantep Tram)","wikipedia":"tr:Sanko Okulları (Gaziantep Tramvayı)"}},{"type":"node","id":3476299206,"lat":37.0694551,"lon":37.3331311,"tags":{"name":"Olimpik Havuz","public_transport":"stop_position","railway":"tram_stop","tram":"yes","wikidata":"Q125340645","wikimedia_commons":"Category:Olimpik Havuz (Gaziantep Tram)","wikipedia":"tr:Olimpik Havuz (Gaziantep Tramvayı)"}},{"type":"node","id":3476299232,"lat":37.0853144,"lon":37.3354919,"tags":{"name":"Duisburg","public_transport":"stop_position","railway":"tram_stop","train":"yes","tram":"yes","wikidata":"Q125340660","wikimedia_commons":"Category:Duisburg (Gaziantep Tram)","wikipedia":"tr:Duisburg (Gaziantep Tramvayı)"}},{"type":"node","id":3476299238,"lat":37.0900211,"lon":37.3380233,"tags":{"name":"Güvenevler","public_transport":"stop_position","railway":"tram_stop","tram":"yes","wikidata":"Q125340657","wikimedia_commons":"Category:Güvenevler (Gaziantep Tram)","wikipedia":"tr:Güvenevler (Gaziantep Tramvayı)"}},{"type":"node","id":3476299247,"lat":37.0894028,"lon":37.3447775,"tags":{"name":"Kolej Vakfı","public_transport":"stop_position","railway":"tram_stop","tram":"yes","wikidata":"Q125340671","wikimedia_commons":"Category:Kolej Vakfı (Gaziantep Tram)","wikipedia":"tr:Kolej Vakfı (Gaziantep Tramvayı)"}},{"type":"node","id":3476299259,"lat":37.0854823,"lon":37.3506704,"tags":{"name":"Adliye","public_transport":"stop_position","railway":"tram_stop","tram":"yes","wikidata":"Q125340667","wikimedia_commons":"Category:Adliye (Gaziantep Tram)","wikipedia":"tr:Adliye (Gaziantep Tramvayı)"}},{"type":"node","id":3529906549,"lat":37.066492,"lon":37.3606645,"tags":{"name":"25 Aralık Devlet Hastanesi","public_transport":"stop_position","railway":"tram_stop","train":"yes","tram":"yes","wikidata":"Q125340450","wikimedia_commons":"Category:25 Aralık Devlet Hastanesi (Gaziantep Tram)","wikipedia":"tr:25 Aralık Devlet Hastanesi (Gaziantep Tramvayı)"}},{"type":"node","id":3529906550,"lat":37.0687687,"lon":37.3714335,"tags":{"name":"Gazimuhtarpaşa","public_transport":"stop_position","railway":"tram_stop","train":"yes","tram":"yes","wikidata":"Q125340500","wikimedia_commons":"Category:Gazi Muhtar Paşa (Gaziantep Tram)","wikipedia":"tr:Gazi Muhtar Paşa (Gaziantep Tramvayı)"}},{"type":"node","id":3595975784,"lat":37.0795206,"lon":37.332345,"tags":{"name":"İbrahimli Merkez","public_transport":"stop_position","railway":"tram_stop","train":"yes","tram":"yes","wikidata":"Q125340653","wikimedia_commons":"Category:İbrahimli Merkez (Gaziantep Tram)","wikipedia":"tr:İbrahimli Merkez (Gaziantep Tramvayı)"}},{"type":"node","id":4844402926,"lat":37.0152487,"lon":37.3669791,"tags":{"name":"Akkent Meydanı","operator":"Gaziantep Büyükşehir Belediyesi","public_transport":"stop_position","railway":"tram_stop","ref":"T1 (Gaziantep Tramvayı)","tram":"yes","wheelchair":"yes","wikidata":"Q125340478","wikimedia_commons":"Category:Akkent Meydanı (Gaziantep Tram)","wikipedia":"tr:Akkent Meydanı (Gaziantep Tramvayı)"}},{"type":"node","id":4844402927,"lat":37.0152138,"lon":37.3669794,"tags":{"name":"Akkent Meydanı","operator":"Gaziantep Büyükşehir Belediyesi","public_transport":"stop_position","railway":"tram_stop","ref":"T1 (Gaziantep Tramvayı)","tram":"yes","wheelchair":"yes","wikidata":"Q125340478","wikimedia_commons":"Category:Akkent Meydanı (Gaziantep Tram)","wikipedia":"tr:Akkent Meydanı (Gaziantep Tramvayı)"}},{"type":"node","id":4844402936,"lat":37.0152892,"lon":37.3737851,"tags":{"name":"Akkent","network":"T1 (Gaziantep Tramvayı","operator":"Gaziantep Büyükşehir Belediyesi","public_transport":"stop_position","railway":"tram_stop","tram":"yes","wheelchair":"yes","wikidata":"Q125340464","wikimedia_commons":"Category:Akkent (Gaziantep Tram)","wikipedia":"tr:Akkent (Gaziantep Tramvayı)"}},{"type":"node","id":4844402937,"lat":37.0153485,"lon":37.3737795,"tags":{"name":"Akkent","network":"T1 (Gaziantep Tramvayı","operator":"Gaziantep Büyükşehir Belediyesi","public_transport":"stop_position","railway":"tram_stop","tram":"yes","wheelchair":"yes","wikidata":"Q125340464","wikimedia_commons":"Category:Akkent (Gaziantep Tram)","wikipedia":"tr:Akkent (Gaziantep Tramvayı)"}},{"type":"node","id":4844411121,"lat":37.0154763,"lon":37.3839822,"tags":{"name":"İbn-i Sina","network":"T1 (Gaziantep Tramvayı)","operator":"Gaziantep Büyükşehir Belediyesi","public_transport":"stop_position","railway":"tram_stop","tram":"yes","wheelchair":"yes","wikidata":"Q125340548","wikimedia_commons":"Category:İbn-i Sina (Gaziantep Tram)","wikipedia":"tr:İbn-i Sina (Gaziantep Tramvayı)"}},{"type":"node","id":4844422574,"lat":37.015229,"lon":37.3575046,"tags":{"area":"yes","name":"Akkent Parkı","public_transport":"stop_position","railway":"tram_stop","tram":"yes","wheelchair":"yes","wikidata":"Q125340474","wikimedia_commons":"Category:Akkent Parkı (Gaziantep Tram)","wikipedia":"tr:Akkent Parkı (Gaziantep Tramvayı)"}},{"type":"node","id":4844433464,"lat":37.0152423,"lon":37.3503799,"tags":{"area":"yes","name":"Karataş 1. Bölge","public_transport":"stop_position","railway":"tram_stop","tram":"yes","wheelchair":"yes","wikidata":"Q125340560","wikimedia_commons":"Category:Karataş 1. Bölge (Gaziantep Tram)","wikipedia":"tr:Karataş 1. Bölge (Gaziantep Tramvayı)"}},{"type":"node","id":4844451795,"lat":37.0190196,"lon":37.3414179,"tags":{"area":"yes","name":"Karataş Merkez","public_transport":"stop_position","railway":"tram_stop","tram":"yes","wheelchair":"yes","wikidata":"Q125340597","wikimedia_commons":"Category:Karataş Merkez (Gaziantep Tram)","wikipedia":"tr:Karataş Merkez (Gaziantep Tramvayı)"}},{"type":"node","id":4844467564,"lat":37.0255058,"lon":37.334287,"tags":{"name":"Şahinbey Parkı","public_transport":"stop_position","railway":"tram_stop","train":"yes","tram":"yes","wheelchair":"yes","wikidata":"Q125340613","wikimedia_commons":"Category:Şahinbey Parkı (Gaziantep Tram)","wikipedia":"tr:Şahinbey Parkı (Gaziantep Tramvayı)"}},{"type":"node","id":5588091001,"lat":37.0723748,"lon":37.3283279,"tags":{"name":"Ali İhsan Göğüş","public_transport":"stop_position","railway":"stop","train":"yes","tram":"yes","wikidata":"Q125340676","wikimedia_commons":"Category:Ali İhsan Göğüş (Gaziantep Tram)","wikipedia":"tr:Ali İhsan Göğüş (Gaziantep Tramvayı)"}},{"type":"node","id":5588091002,"lat":37.0782494,"lon":37.3316273,"tags":{"name":"İbrahimli Merkez","public_transport":"stop_position","railway":"tram_stop","train":"yes","tram":"yes","wikidata":"Q125340653","wikimedia_commons":"Category:İbrahimli Merkez (Gaziantep Tram)","wikipedia":"tr:İbrahimli Merkez (Gaziantep Tramvayı)"}},{"type":"node","id":8998564989,"lat":37.0341768,"lon":37.3188478,"tags":{"name":"Gaziantep Üniversitesi","public_transport":"stop_position","railway":"tram_stop","tram":"yes","wikidata":"Q125340506","wikimedia_commons":"Category:Gaziantep Üniversitesi (Gaziantep Tram)","wikipedia":"tr:Gaziantep Üniversitesi (Gaziantep Tramvayı)"}},{"type":"node","id":8998564990,"lat":37.0341546,"lon":37.3172044,"tags":{"name":"Gaziantep Üniversitesi","public_transport":"stop_position","railway":"tram_stop","tram":"yes","wikidata":"Q125340506","wikimedia_commons":"Category:Gaziantep Üniversitesi (Gaziantep Tram)","wikipedia":"tr:Gaziantep Üniversitesi (Gaziantep Tramvayı)"}},{"type":"node","id":10648329972,"lat":37.0736643,"lon":37.3290518,"tags":{"name":"Ali İhsan Göğüş","public_transport":"stop_position","railway":"stop","train":"yes","tram":"yes","wikidata":"Q125340676","wikimedia_commons":"Category:Ali İhsan Göğüş (Gaziantep Tram)","wikipedia":"tr:Ali İhsan Göğüş (Gaziantep Tramvayı)"}},{"type":"node","id":10648329991,"lat":37.0697899,"lon":37.3307608,"tags":{"name":"Olimpik Havuz","public_transport":"stop_position","railway":"tram_stop","tram":"yes","wikidata":"Q125340645","wikimedia_commons":"Category:Olimpik Havuz (Gaziantep Tram)","wikipedia":"tr:Olimpik Havuz (Gaziantep Tramvayı)"}},{"type":"node","id":10648331010,"lat":37.0668843,"lon":37.3400354,"tags":{"name":"Sanko Okulları","public_transport":"stop_position","railway":"tram_stop","train":"yes","tram":"yes","wikidata":"Q125340640","wikimedia_commons":"Category:Sanko Okulları (Gaziantep Tram)","wikipedia":"tr:Sanko Okulları (Gaziantep Tramvayı)"}},{"type":"node","id":10649856792,"lat":37.0273322,"lon":37.3116769,"tags":{"name":"Burç Kavşağı","network":"Gaziantep tramvayı","operator":"Gaziulaş","public_transport":"stop_position","railway":"tram_stop","train":"yes","tram":"yes","wikidata":"Q125340633","wikimedia_commons":"Category:Burç Kavşağı (Gaziantep Tram)","wikipedia":"tr:Burç Kavşağı (Gaziantep Tramvayı)"}},{"type":"node","id":10650261746,"lat":37.0854465,"lon":37.3506662,"tags":{"name":"Adliye","public_transport":"stop_position","railway":"tram_stop","tram":"yes","wikidata":"Q125340667","wikimedia_commons":"Category:Adliye (Gaziantep Tram)","wikipedia":"tr:Adliye (Gaziantep Tramvayı)"}},{"type":"node","id":10650261770,"lat":37.0893505,"lon":37.3447394,"tags":{"name":"Kolej Vakfı","public_transport":"stop_position","railway":"tram_stop","tram":"yes","wikidata":"Q125340671","wikimedia_commons":"Category:Kolej Vakfı (Gaziantep Tram)","wikipedia":"tr:Kolej Vakfı (Gaziantep Tramvayı)"}},{"type":"node","id":10650261781,"lat":37.0906475,"lon":37.3387561,"tags":{"name":"Güvenevler","public_transport":"stop_position","railway":"tram_stop","tram":"yes","wikidata":"Q125340657","wikimedia_commons":"Category:Güvenevler (Gaziantep Tram)","wikipedia":"tr:Güvenevler (Gaziantep Tramvayı)"}},{"type":"node","id":10650261787,"lat":37.0866094,"lon":37.3362405,"tags":{"name":"Duisburg","public_transport":"stop_position","railway":"tram_stop","train":"yes","tram":"yes","wikidata":"Q125340660","wikimedia_commons":"Category:Duisburg (Gaziantep Tram)","wikipedia":"tr:Duisburg (Gaziantep Tramvayı)"}},{"type":"node","id":10653139731,"lat":37.061745,"lon":37.334615,"tags":{"name":"Kadı Değirmeni","public_transport":"stop_position","railway":"tram_stop","train":"yes","tram":"yes","wikidata":"Q125340553","wikimedia_commons":"Category:Kadı Değirmeni (Gaziantep Tram)","wikipedia":"tr:Kadı Değirmeni (Gaziantep Tramvayı)"}},{"type":"node","id":10653139753,"lat":37.0411804,"lon":37.322225,"tags":{"name":"Tıp Fakültesi","public_transport":"stop_position","railway":"tram_stop","tram":"yes","wikidata":"Q125340494","wikimedia_commons":"Category:Tıp Fakültesi (Gaziantep Tram)","wikipedia":"tr:Tıp Fakültesi (Gaziantep Tramvayı)"}},{"type":"node","id":10653139767,"lat":37.0481302,"lon":37.3259562,"tags":{"name":"Binevler","name:ar":"محطة ترام بين ايڤلر 🚃","railway":"tram_stop","train":"yes","tram":"yes","wikidata":"Q125340486","wikimedia_commons":"Category:Binevler (Gaziantep Tram)","wikipedia":"tr:Binevler (Gaziantep Tramvayı)"}},{"type":"node","id":10653139776,"lat":37.0562274,"lon":37.330672,"tags":{"name":"Rasaf Yolu","name:ar":"محطة ترام رصاف يوليو 🚃","public_transport":"stop_position","railway":"tram_stop","train":"yes","tram":"yes","wikidata":"Q125340605","wikimedia_commons":"Category:Rasaf Yolu (Gaziantep Tram)","wikipedia":"tr:Rasaf Yolu (Gaziantep Tramvayı)"}},{"type":"node","id":10654458828,"lat":37.0289053,"lon":37.328125,"tags":{"name":"Güneykent","public_transport":"stop_position","railway":"tram_stop","train":"yes","tram":"yes","wikidata":"Q125340517","wikimedia_commons":"Category:Güneykent (Gaziantep Tram)","wikipedia":"tr:Güneykent (Gaziantep Tramvayı)"}},{"type":"node","id":10654458884,"lat":37.0646414,"lon":37.347088,"tags":{"name":"Harikalar Diyarı","public_transport":"stop_position","railway":"tram_stop","tram":"yes","wikidata":"Q125340624","wikimedia_commons":"Category:Harikalar Diyarı (Gaziantep Tram)","wikipedia":"tr:Harikalar Diyarı (Gaziantep Tramvayı)"}},{"type":"node","id":10654458903,"lat":37.0648699,"lon":37.3549685,"tags":{"name":"Masal Parkı","public_transport":"stop_position","railway":"tram_stop","train":"yes","tram":"yes","wikidata":"Q125340730","wikimedia_commons":"Category:Masal Parkı (Gaziantep Tram)","wikipedia":"tr:Masal Parkı (Gaziantep Tramvayı)"}},{"type":"node","id":10654458918,"lat":37.0668895,"lon":37.3623194,"tags":{"name":"25 Aralık Devlet Hastanesi","public_transport":"stop_position","railway":"tram_stop","train":"yes","tram":"yes","wikidata":"Q125340450","wikimedia_commons":"Category:25 Aralık Devlet Hastanesi (Gaziantep Tram)","wikipedia":"tr:25 Aralık Devlet Hastanesi (Gaziantep Tramvayı)"}},{"type":"node","id":10654458938,"lat":37.0688044,"lon":37.3714387,"tags":{"name":"Gazimuhtarpaşa","public_transport":"stop_position","railway":"tram_stop","train":"yes","tram":"yes","wikidata":"Q125340500","wikimedia_commons":"Category:Gazi Muhtar Paşa (Gaziantep Tram)","wikipedia":"tr:Gazi Muhtar Paşa (Gaziantep Tramvayı)"}},{"type":"node","id":10654458953,"lat":37.0661638,"lon":37.3769767,"tags":{"name":"15 Temmuz Demokrasi Meydanı","public_transport":"stop_position","railway":"tram_stop","source":"http://www.urbanrail.net/as/tr/gaziantep/gaziantep.htm","train":"yes","tram":"yes","wikidata":"Q125340444","wikimedia_commons":"Category:15 Temmuz Demokrasi Meydanı (Gaziantep Tram)","wikipedia":"tr:15 Temmuz Demokrasi Meydanı (Gaziantep Tramvayı)"}},{"type":"node","id":10654458964,"lat":37.0708768,"lon":37.3799511,"tags":{"name":"Gar","public_transport":"stop_position","railway":"tram_stop","source":"http://www.urbanrail.net/as/tr/gaziantep/gaziantep.htm","tram":"yes","wikidata":"Q125340620","wikimedia_commons":"Category:Gar (Gaziantep Tram)","wikipedia":"tr:Gar (Gaziantep Tramvayı)"}}]}