{"version":0.6,"generator":"Overpass API 0.7.62.11 87bfad18","osm3s":{"timestamp_osm_base":"2026-07-10T13:33:30Z","copyright":"The data included in this document is from www.openstreetmap.org. The data is made available under ODbL."},"elements":[{"type":"node","id":2099899884,"lat":31.3101778,"lon":120.6265128,"tags":{"name":"临顿路","name:en":"Lindun Lu","name:zh":"临顿路","name:zh-Hans":"临顿路","name:zh-Hant":"臨頓路","operator":"SRT","public_transport":"station","railway":"station","station":"subway","subway":"yes","wheelchair":"yes","wikidata":"Q6552957","wikipedia":"zh:临顿路站"}},{"type":"node","id":2099903865,"lat":31.3118517,"lon":120.6343061,"tags":{"name":"相门","name:en":"Xiangmen","name:zh":"相门","name:zh-Hans":"相门","name:zh-Hant":"相門","name:zh-Latn-pinyin":"xiàng mén","operator":"SRT","public_transport":"station","railway":"station","station":"subway","subway":"yes","wikidata":"Q8044170","wikipedia":"zh:相门站"}},{"type":"node","id":2099906480,"lat":31.3143248,"lon":120.6455534,"tags":{"name":"东环路","name:en":"Donghuan Lu","name:zh":"东环路","name:zh-Hans":"东环路","name:zh-Hant":"東環路","operator":"SRT","public_transport":"station","railway":"station","station":"subway","subway":"yes","wheelchair":"yes","wikidata":"Q5295930","wikipedia":"zh:东环路站 (苏州)"}},{"type":"node","id":2099907821,"lat":31.3159267,"lon":120.6561576,"tags":{"name":"中央公园","name:en":"Central Park","name:zh":"中央公园","name:zh-Hans":"中央公园","name:zh-Hant":"中央公園","operator":"SRT","public_transport":"station","railway":"station","station":"subway","subway":"yes","wheelchair":"yes","wikidata":"Q5061624","wikipedia":"zh:中央公园站 (苏州)"}},{"type":"node","id":2099910928,"lat":31.3176004,"lon":120.6666052,"tags":{"name":"星海广场","name:en":"Xinghai Square","operator":"SRT","public_transport":"station","railway":"station","station":"subway","subway":"yes","wikidata":"Q8044546"}},{"type":"node","id":2101696074,"lat":31.3072479,"lon":120.6095653,"tags":{"name":"养育巷","name:en":"Yangyu Xiang","name:zh":"养育巷","name:zh-Hans":"养育巷","name:zh-Hant":"養育巷","operator":"SRT","public_transport":"station","railway":"station","station":"subway","subway":"yes","wheelchair":"yes","wikidata":"Q10894637","wikipedia":"zh:养育巷"}},{"type":"node","id":2101698937,"lat":31.3060496,"lon":120.5966304,"tags":{"name":"广济南路","name:en":"Guangjinan Lu","name:zh-Hant":"廣濟南路","operator":"SRT","public_transport":"station","railway":"station","station":"subway","subway":"yes"}},{"type":"node","id":2101699721,"lat":31.3036404,"lon":120.5730742,"tags":{"name":"西环路","name:en":"Xihuan Lu","operator":"SRT","public_transport":"station","railway":"station","station":"subway","subway":"yes","wikidata":"Q14480943"}},{"type":"node","id":2101701467,"lat":31.3052344,"lon":120.5871302,"tags":{"name":"桐泾北路","name:en":"Tongjingbei Lu","operator":"SRT","public_transport":"station","railway":"station","station":"subway","subway":"yes","wikidata":"Q7057017"}},{"type":"node","id":2101701718,"lat":31.3029369,"lon":120.5619323,"tags":{"name":"滨河路","name:en":"Binhe Lu","operator":"SRT","public_transport":"station","railway":"station","station":"subway","subway":"yes","wikidata":"Q4914356"}},{"type":"node","id":2101701998,"lat":31.3021599,"lon":120.5524828,"tags":{"name":"塔园路","name:en":"Tayuan Road","operator":"SRT","public_transport":"station","railway":"station","station":"subway","subway":"yes","wikidata":"Q7690348"}},{"type":"node","id":2101703872,"lat":31.2856471,"lon":120.5455059,"tags":{"name":"玉山路","name:en":"Yushan Road","operator":"SRT","public_transport":"station","railway":"station","station":"subway","subway":"yes","wikidata":"Q8061875"}},{"type":"node","id":2716409578,"lat":31.2802063,"lon":120.5375161,"tags":{"name":"汾湖路","name:en":"Fenhu Road","public_transport":"station","railway":"station","station":"subway","subway":"yes","wikidata":"Q5443459"}},{"type":"node","id":2716410103,"lat":31.2785543,"lon":120.5259273,"tags":{"name":"金枫路","name:en":"Jinfeng Lu","public_transport":"station","railway":"station","station":"subway","subway":"yes","wikidata":"Q6202190"}},{"type":"node","id":2716410104,"lat":31.2770762,"lon":120.5139357,"tags":{"name":"木渎","name:en":"Mudu","public_transport":"station","railway":"station","station":"subway","subway":"yes","wikidata":"Q6931889"}},{"type":"node","id":2716415626,"lat":31.2874754,"lon":120.5943373,"tags":{"name":"胥江路","name:en":"Xujiang Lu","public_transport":"station","railway":"station","station":"subway","subway":"yes","wikidata":"Q8045245"}},{"type":"node","id":2716415639,"lat":31.2809613,"lon":120.5956899,"tags":{"name":"桐泾公园","name:en":"Tongjing Park","public_transport":"station","railway":"station","station":"subway","subway":"yes","wikidata":"Q7821099"}},{"type":"node","id":2716417212,"lat":31.4236323,"lon":120.6406212,"tags":{"name":"高铁苏州北站","name:en":"Suzhou North Railway Station","public_transport":"station","railway":"station","station":"subway","subway":"yes"}},{"type":"node","id":2969847008,"lat":31.2998645,"lon":120.5937612,"tags":{"name":"三香广场","name:en":"Sanxiang Square","public_transport":"station","railway":"station","station":"subway","subway":"yes","wikidata":"Q7420777"}},{"type":"node","id":2969859602,"lat":31.2737386,"lon":120.6046776,"tags":{"name":"友联","name:en":"Youlian","public_transport":"station","railway":"station","station":"subway","subway":"yes","wikidata":"Q5072145"}},{"type":"node","id":2969873063,"lat":31.4185302,"lon":120.6288948,"tags":{"name":"大湾","name:en":"Dawan","public_transport":"station","railway":"station","station":"subway","subway":"yes","wikidata":"Q8044152"}},{"type":"node","id":2969873065,"lat":31.3776597,"lon":120.6214529,"tags":{"name":"徐图港","name:en":"Xutu Gang","public_transport":"station","railway":"station","station":"subway","subway":"yes","wikidata":"Q6841260"}},{"type":"node","id":2969873067,"lat":31.3901694,"lon":120.6194823,"tags":{"name":"蠡口","name:en":"Likou","public_transport":"station","railway":"station","station":"subway","subway":"yes","wikidata":"Q4778371"}},{"type":"node","id":4570243005,"lat":31.2786414,"lon":120.6229849,"tags":{"name":"团结桥","name:en":"Tuanjie Qiao","public_transport":"station","railway":"station","station":"subway","subway":"yes"}},{"type":"node","id":4570243008,"lat":31.2999995,"lon":120.6195083,"tags":{"name":"三元坊","name:en":"Sanyuanfang","public_transport":"station","railway":"station","station":"subway","subway":"yes"}},{"type":"node","id":4570243009,"lat":31.3130855,"lon":120.6171887,"tags":{"name":"察院场","name:en":"Chayuanchang","public_transport":"station","railway":"station","station":"subway","subway":"yes","wikidata":"Q29652849"}},{"type":"node","id":4570243010,"lat":31.3231202,"lon":120.6154597,"tags":{"name":"北寺塔","name:en":"Beisita","name:zh":"北寺塔","name:zh-Hans":"北寺塔","name:zh-Hant":"北寺塔","public_transport":"station","railway":"station","station":"subway","subway":"yes","wikidata":"Q30075115","wikipedia":"zh:北寺塔站"}},{"type":"node","id":4570243012,"lat":31.3466475,"lon":120.5985577,"tags":{"name":"平泷路西","name:en":"Pinglonglu West","public_transport":"station","railway":"station","station":"subway","subway":"yes","wikidata":"Q60675434"}},{"type":"node","id":4570243013,"lat":31.3639781,"lon":120.5986359,"tags":{"name":"孙武纪念园","name:en":"Sunwu Jinianyuan","public_transport":"station","railway":"station","station":"subway","subway":"yes"}},{"type":"node","id":4570243014,"lat":31.3766779,"lon":120.5960179,"tags":{"name":"活力岛","name:en":"Huolidao","public_transport":"station","railway":"station","station":"subway","subway":"yes","wikidata":"Q18652815"}},{"type":"node","id":4570243015,"lat":31.3924676,"lon":120.5940619,"tags":{"name":"姚祥","name:en":"Yaoxiang","public_transport":"station","railway":"station","station":"subway","subway":"yes","wikidata":"Q60675416"}},{"type":"node","id":4570243016,"lat":31.3995477,"lon":120.5935421,"tags":{"name":"张庄","name:en":"Zhangzhuang","public_transport":"station","railway":"station","station":"subway","subway":"yes","wikidata":"Q60675384"}},{"type":"node","id":4570243017,"lat":31.4052884,"lon":120.6006387,"tags":{"name":"龙道浜","name:en":"Longdaobang","public_transport":"station","railway":"station","station":"subway","subway":"yes","wikidata":"Q15926340"}},{"type":"node","id":4596174525,"lat":31.3632658,"lon":120.5250084,"tags":{"name":"惠昌路","name:en":"Huichanglu","public_transport":"station","railway":"station","station":"subway","subway":"yes"}},{"type":"node","id":4596174526,"lat":31.3576466,"lon":120.5201684,"tags":{"name":"文昌路","name:en":"Wenchanglu","public_transport":"station","railway":"station","station":"subway","subway":"yes"}},{"type":"node","id":4596174528,"lat":31.3301973,"lon":120.5271435,"tags":{"name":"铜墩","name:en":"Tongdun","name:zh-Hant":"銅墩","public_transport":"station","railway":"station","station":"subway","subway":"yes"}},{"type":"node","id":4596174529,"lat":31.3198914,"lon":120.5346698,"tags":{"name":"马运路","name:en":"Mayunlu","name:zh-Hant":"馬運路","public_transport":"station","railway":"station","station":"subway","subway":"yes"}},{"type":"node","id":4596174531,"lat":31.3082356,"lon":120.5425053,"tags":{"name":"何山","name:en":"Heshan","public_transport":"station","railway":"station","station":"subway","subway":"yes"}},{"type":"node","id":4596174532,"lat":31.2954913,"lon":120.553645,"tags":{"name":"狮山路","name:en":"Shishanlu","name:zh-Hant":"獅山路","public_transport":"station","railway":"station","station":"subway","subway":"yes"}},{"type":"node","id":4596174533,"lat":31.2927275,"lon":120.5652428,"tags":{"name":"沙金桥","name:en":"Shajinqiao","name:zh-Hant":"沙金橋","public_transport":"station","railway":"station","station":"subway","subway":"yes"}},{"type":"node","id":4596174535,"lat":31.2795221,"lon":120.5710307,"tags":{"name":"横山","name:en":"Hengshan","name:zh-Hant":"橫山","public_transport":"station","railway":"station","station":"subway","subway":"yes"}},{"type":"node","id":4596174538,"lat":31.2649791,"lon":120.592643,"tags":{"name":"新郭","name:en":"Xinguo","public_transport":"station","railway":"station","station":"subway","subway":"yes"}},{"type":"node","id":4596174547,"lat":31.3252346,"lon":120.6738925,"tags":{"name":"烟雨桥","name:en":"Yanyuqiao","name:zh-Hant":"煙雨橋","public_transport":"station","railway":"station","station":"subway","subway":"yes"}},{"type":"node","id":4596174548,"lat":31.3354117,"lon":120.6691235,"tags":{"name":"倪浜","name:en":"Nibang","public_transport":"station","railway":"station","station":"subway","subway":"yes"}},{"type":"node","id":4596174549,"lat":31.342573,"lon":120.6799006,"tags":{"name":"唐庄","name:en":"Tangzhuang","name:zh-Hant":"唐莊","public_transport":"station","railway":"station","station":"subway","subway":"yes","wikidata":"Q86648199","wikipedia":"en:Tangzhuang station"}},{"type":"node","id":4596174550,"lat":31.3446599,"lon":120.6897575,"tags":{"name":"跨塘","name:en":"Kuatang","public_transport":"station","railway":"station","station":"subway","subway":"yes"}},{"type":"node","id":4625473970,"lat":31.2257471,"lon":120.4611942,"tags":{"name":"花墩","public_transport":"station","railway":"station","station":"subway","subway":"yes"}},{"type":"node","id":4625473979,"lat":31.2834209,"lon":120.5556663,"tags":{"name":"落星桥","name:en":"Luoxingqiao","public_transport":"station","railway":"station","station":"subway","subway":"yes"}},{"type":"node","id":4625473980,"lat":31.2879848,"lon":120.5849167,"tags":{"name":"双桥","name:en":"Shuangqiao","public_transport":"station","railway":"station","station":"subway","subway":"yes"}},{"type":"node","id":4625473981,"lat":31.2923073,"lon":120.6068058,"tags":{"name":"新市桥","name:en":"Xinshiqiao","public_transport":"station","railway":"station","station":"subway","subway":"yes"}},{"type":"node","id":4625473982,"lat":31.2943094,"lon":120.620355,"tags":{"name":"南门","name:en":"Nanmen","public_transport":"station","railway":"station","station":"subway","subway":"yes"}},{"type":"node","id":4625473983,"lat":31.2954926,"lon":120.6307548,"tags":{"name":"南园北路","name:en":"Nanyuanbeilu","public_transport":"station","railway":"station","station":"subway","subway":"yes"}},{"type":"node","id":4625473984,"lat":31.2963457,"lon":120.642763,"tags":{"name":"竹辉桥","name:en":"Zhuhuiqiao","public_transport":"station","railway":"station","station":"subway","subway":"yes"}},{"type":"node","id":4757288848,"lat":31.4393434,"lon":120.6508406,"tags":{"name":"骑河","name:en":"Qihe","public_transport":"station","railway":"station","station":"subway","subway":"yes","wikidata":"Q27429873"}},{"type":"node","id":4757288849,"lat":31.4318487,"lon":120.6468525,"tags":{"name":"富翔路","name:en":"Fuxiang Lu","public_transport":"station","railway":"station","station":"subway","subway":"yes","wikidata":"Q28046900"}},{"type":"node","id":5018128410,"lat":31.2876567,"lon":120.621362,"tags":{"name":"人民桥南","name:en":"Renminqiao South","public_transport":"station","railway":"station","station":"subway","subway":"yes"}},{"type":"node","id":5121205250,"lat":31.3085745,"lon":120.6181659,"tags":{"name":"乐桥","name:en":"Leqiao","name:zh":"乐桥","name:zh-Hans":"乐桥","name:zh-Hant":"樂橋","operator":"SRT","public_transport":"station","railway":"station","station":"subway","subway":"yes","wheelchair":"yes","wikidata":"Q4391757","wikipedia":"zh:乐桥站"}},{"type":"node","id":5218876253,"lat":31.3329103,"lon":120.6064286,"tags":{"name":"苏州火车站","name:cs":"Nádraží Su-čou","name:en":"Suzhou Railway Station","name:zh":"苏州火车站","name:zh-Hans":"苏州火车站","name:zh-Hant":"蘇州火車站","public_transport":"station","railway":"station","station":"subway","subway":"yes","wheelchair":"yes","wikidata":"Q7651055","wikipedia":"zh:苏州火车站 (地铁)"}},{"type":"node","id":5353379412,"lat":31.841003,"lon":119.9758282,"tags":{"name":"环球港","name:en":"Global Harbor","operator":"常州地铁","public_transport":"station","railway":"station","station":"subway","subway":"yes"}},{"type":"node","id":5353379414,"lat":31.8217496,"lon":119.9805442,"tags":{"name":"河海","name:en":"Hehai","public_transport":"station","railway":"station","station":"subway","subway":"yes"}},{"type":"node","id":5353379415,"lat":31.8132458,"lon":119.9770502,"tags":{"name":"奥体中心","name:en":"Olympic Sports Center","public_transport":"station","railway":"station","station":"subway","subway":"yes"}},{"type":"node","id":5353379416,"lat":31.8048622,"lon":119.9702818,"tags":{"name":"市民广场","name:en":"Civic Center","public_transport":"stop_position","railway":"stop","station":"subway","subway":"yes"}},{"type":"node","id":5353379417,"lat":31.7951017,"lon":119.9716387,"tags":{"name":"翠竹","name:en":"Cuizhu","public_transport":"station","railway":"station","station":"subway","subway":"yes"}},{"type":"node","id":5353379419,"lat":31.7847273,"lon":119.9639616,"tags":{"name":"博爱路","name:en":"Boai Road","public_transport":"station","railway":"station","station":"subway","subway":"yes"}},{"type":"node","id":5353416722,"lat":31.7630483,"lon":119.9555651,"tags":{"name":"清凉寺","name:en":"Qingliang Temple","public_transport":"station","railway":"station","station":"subway","subway":"yes"}},{"type":"node","id":5353416723,"lat":31.7518551,"lon":119.9524162,"tags":{"name":"茶山","name:en":"Cha Shan","public_transport":"station","railway":"station","station":"subway","subway":"yes"}},{"type":"node","id":5353416724,"lat":31.736712,"lon":119.9443794,"tags":{"name":"聚湖路","name:en":"Juhu Road","operator":"常州地铁","public_transport":"station","railway":"station","station":"subway","subway":"yes"}},{"type":"node","id":5353416726,"lat":31.7243378,"lon":119.9443067,"tags":{"name":"湖塘","name:en":"Hutang","public_transport":"station","railway":"station","station":"subway","subway":"yes"}},{"type":"node","id":5353416727,"lat":31.7147065,"lon":119.9440636,"tags":{"name":"新天地公园","name:en":"Xintiandi Park","public_transport":"station","railway":"station","station":"subway","subway":"yes"}},{"type":"node","id":5353416728,"lat":31.6990233,"lon":119.9435377,"tags":{"name":"延政大道","name:en":"Yanzheng Avenue","public_transport":"station","railway":"station","station":"subway","subway":"yes"}},{"type":"node","id":5353416729,"lat":31.6907468,"lon":119.9429689,"tags":{"name":"科教城北","name:en":"North SEC","public_transport":"station","railway":"station","station":"subway","subway":"yes"}},{"type":"node","id":5353416730,"lat":31.6765758,"lon":119.9428591,"tags":{"name":"科教城南","name:en":"South SEC","public_transport":"station","railway":"station","station":"subway","subway":"yes"}},{"type":"node","id":5353416731,"lat":31.6620141,"lon":119.9438693,"tags":{"name":"武进沿江城际站","name:en":"Wujin Yanjiang Intercity Station","operator":"常州地铁Wujin Yanjiang Intercity Station","public_transport":"stop_position","railway":"stop","station":"subway","subway":"yes"}},{"type":"node","id":5353416736,"lat":31.6341681,"lon":119.9474077,"tags":{"name":"南夏墅","name:en":"Nan Xia Shu","public_transport":"station","railway":"station","station":"subway","subway":"yes"}},{"type":"node","id":5369293347,"lat":31.8046345,"lon":119.8943021,"tags":{"name":"青枫公园","name:en":"Qingfeng Park","public_transport":"station","railway":"station","station":"subway","subway":"yes"}},{"type":"node","id":5369293348,"lat":31.800469,"lon":119.9035505,"tags":{"name":"海棠路","name:en":"Haitang Road","operator":"常州地铁","public_transport":"station","railway":"station","station":"subway","subway":"yes"}},{"type":"node","id":5369293349,"lat":31.7882804,"lon":119.9242275,"tags":{"name":"勤业","name:en":"Qinye","public_transport":"station","railway":"station","station":"subway","subway":"yes"}},{"type":"node","id":5369293350,"lat":31.7947739,"lon":119.9133757,"tags":{"name":"五星","name:en":"Wuxing","operator":"常州地铁","public_transport":"station","railway":"station","station":"subway","subway":"yes"}},{"type":"node","id":5369293351,"lat":31.7822959,"lon":119.9373933,"tags":{"name":"怀德","name:en":"Huaide","public_transport":"station","railway":"station","station":"subway","subway":"yes"}},{"type":"node","id":5369293352,"lat":31.7818988,"lon":119.9485773,"tags":{"name":"南大街","name:en":"Nandajie","public_transport":"station","railway":"station","station":"subway","subway":"yes"}},{"type":"node","id":5369293353,"lat":31.7722637,"lon":119.968529,"tags":{"name":"红梅公园","name:en":"Hongmei Park","operator":"常州地铁","public_transport":"station","railway":"station","station":"subway","subway":"yes"}},{"type":"node","id":5369293354,"lat":31.7717216,"lon":119.9808421,"tags":{"name":"五角场","name:en":"Wujiaochang","public_transport":"station","railway":"station","station":"subway","subway":"yes"}},{"type":"node","id":5369293355,"lat":31.7794264,"lon":119.9877143,"tags":{"name":"三角场","name:en":"Sanjiaochang","public_transport":"station","railway":"station","station":"subway","subway":"yes"}},{"type":"node","id":5369293357,"lat":31.761672,"lon":120.0124079,"tags":{"name":"青洋路","name:en":"Qingyang Road","public_transport":"station","railway":"station","station":"subway","subway":"yes"}},{"type":"node","id":5369293358,"lat":31.7552821,"lon":120.0227736,"tags":{"name":"丁堰","name:en":"Dinyan","public_transport":"station","railway":"station","station":"subway","subway":"yes"}},{"type":"node","id":5369293359,"lat":31.757394,"lon":120.045094,"tags":{"name":"潞城","name:en":"Lucheng","public_transport":"station","railway":"station","station":"subway","subway":"yes","wikidata":"Q109981102"}},{"type":"node","id":5369293360,"lat":31.7598772,"lon":120.0593639,"tags":{"name":"五一路","name:en":"Wuyi Rd.","public_transport":"station","railway":"station","station":"subway","subway":"yes"}},{"type":"node","id":5394584129,"lat":31.7081424,"lon":119.9438315,"tags":{"name":"长虹路","name:en":"Changhong Road","public_transport":"station","railway":"station","station":"subway","subway":"yes"}},{"type":"node","id":5469475424,"lat":31.2610853,"lon":120.583062,"tags":{"name":"石湖北","name:en":"Shihu North","public_transport":"station","railway":"station","station":"subway","subway":"yes","wheelchair":"yes"}},{"type":"node","id":5469475462,"lat":31.2682611,"lon":120.5729529,"tags":{"name":"横塘","name:en":"Hengtang","name:zh-Hant":"橫塘","public_transport":"station","railway":"station","station":"subway","subway":"yes","wikidata":"Q18652745","wikipedia":"en:Hengtang station"}},{"type":"node","id":5469475588,"lat":31.3152154,"lon":120.5421081,"tags":{"name":"西津桥","name:en":"Xijinqiao","name:zh-Hant":"西津橋","public_transport":"station","railway":"station","station":"subway","subway":"yes"}},{"type":"node","id":5469475641,"lat":31.3433546,"lon":120.5254738,"tags":{"name":"长亭","name:en":"Changting","name:zh-Hant":"長亭","public_transport":"station","railway":"station","station":"subway","subway":"yes"}},{"type":"node","id":5469475757,"lat":31.2687733,"lon":120.609439,"tags":{"name":"盘蠡路","name:en":"Panlilu","name:zh-Hant":"盤蠡路","public_transport":"station","railway":"station","station":"subway","subway":"yes","wikidata":"Q7984390"}},{"type":"node","id":5469475809,"lat":31.2754956,"lon":120.5487331,"tags":{"name":"石城","name:en":"Shicheng","public_transport":"station","railway":"station","station":"subway","subway":"yes"}},{"type":"node","id":5469475810,"lat":31.2648597,"lon":120.5427433,"tags":{"name":"西跨塘","name:en":"Xikuatang","public_transport":"station","railway":"station","station":"subway","subway":"yes"}},{"type":"node","id":5469475811,"lat":31.2644845,"lon":120.5303109,"tags":{"name":"大治桥","name:en":"Dazhiqiao","public_transport":"station","railway":"station","station":"subway","subway":"yes"}},{"type":"node","id":5469475812,"lat":31.2634885,"lon":120.5145908,"tags":{"name":"渎川桥","name:en":"Duchuanqiao","public_transport":"station","railway":"station","station":"subway","subway":"yes"}},{"type":"node","id":5469475814,"lat":31.2515293,"lon":120.4930955,"tags":{"name":"许家桥","name:en":"Xujiaqiao","public_transport":"station","railway":"station","station":"subway","subway":"yes"}},{"type":"node","id":5469475815,"lat":31.2461543,"lon":120.4879778,"tags":{"name":"茅蓬路东","name:en":"Maopenglu East","public_transport":"station","railway":"station","station":"subway","subway":"yes"}},{"type":"node","id":5469475816,"lat":31.2382776,"lon":120.4775355,"tags":{"name":"胥口","name:en":"Xukou","public_transport":"station","railway":"station","station":"subway","subway":"yes"}},{"type":"node","id":5469475817,"lat":31.2311675,"lon":120.4682345,"tags":{"name":"津桥","name:en":"Jinqiao","public_transport":"station","railway":"station","station":"subway","subway":"yes"}},{"type":"node","id":6172569922,"lat":31.3587254,"lon":120.5400007,"tags":{"name":"富强","old_name":"金筑街","public_transport":"station","railway":"station","station":"subway","subway":"yes"}},{"type":"node","id":6172569924,"lat":31.3421099,"lon":120.5565993,"tags":{"name":"白洋湾公园","name:en":"Baiyangwangongyuan","old_name":"金业街","public_transport":"station","railway":"station","station":"subway","subway":"yes","wikidata":"Q125826143","wikipedia":"zh:白洋湾公园站"}},{"type":"node","id":6172569926,"lat":31.332118,"lon":120.5751805,"tags":{"name":"虎丘","name:en":"Huqiu","public_transport":"station","railway":"station","station":"subway","subway":"yes"}},{"type":"node","id":6172569927,"lat":31.3344475,"lon":120.5832068,"tags":{"name":"青山桥浜","old_name":"清塘路","public_transport":"station","railway":"station","station":"subway","subway":"yes","wikidata":"Q127171835","wikipedia":"zh:青山桥浜站"}},{"type":"node","id":6172569928,"lat":31.3379111,"lon":120.5921485,"tags":{"name":"江星桥南","name:en":"Jiangxingqiao South","old_name":"江星路","public_transport":"station","railway":"station","station":"subway","subway":"yes"}},{"type":"node","id":6172569930,"lat":31.3246209,"lon":120.6229829,"tags":{"name":"拙政园苏博","old_name":"拙政园","public_transport":"station","railway":"station","station":"subway","subway":"yes","wikidata":"Q127043412","wikipedia":"zh:拙政园苏博站"}},{"type":"node","id":6172569931,"lat":31.3164418,"lon":120.6249365,"tags":{"name":"悬桥巷","public_transport":"station","railway":"station","station":"subway","subway":"yes"}},{"type":"node","id":6172569933,"lat":31.307953,"lon":120.6474648,"tags":{"name":"徐家浜","name:en":"Xujiabang","public_transport":"station","railway":"station","station":"subway","subway":"yes","wikidata":"Q127256560","wikipedia":"zh:徐家浜站"}},{"type":"node","id":6172569934,"lat":31.3082373,"lon":120.6584866,"tags":{"name":"惹云桥","public_transport":"station","railway":"station","station":"subway","subway":"yes"}},{"type":"node","id":6253614266,"lat":31.7769635,"lon":119.9594784,"tags":{"name":"文化宫","name:en":"Palace of Culture","network":"常州地铁","network:en":"Changzhou Metro","network:wikidata":"Q4507108","network:zh":"常州地铁","operator":"常州地铁","public_transport":"station","railway":"station","station":"subway","subway":"yes"}},{"type":"node","id":6285548383,"lat":31.6990298,"lon":119.9436292,"tags":{"name":"延政大道","name:en":"Yanzheng Avenue","public_transport":"stop_position","railway":"stop","station":"subway","subway":"yes"}},{"type":"node","id":6285548491,"lat":31.7366902,"lon":119.9444397,"tags":{"name":"聚湖路","name:en":"Juhu Road","operator":"常州地铁","public_transport":"stop_position","railway":"stop","station":"subway","subway":"yes"}},{"type":"node","id":6285548513,"lat":31.7703306,"lon":119.9570466,"tags":{"name":"同济桥","name:en":"Tongji Bridge","operator":"常州地铁","public_transport":"stop_position","railway":"stop","ref":"L01-18","station":"subway","subway":"yes"}},{"type":"node","id":6348907382,"lat":31.7770666,"lon":119.9594271,"tags":{"name":"文化宫","name:en":"Palace of Culture","public_transport":"stop_position","railway":"stop","station":"subway","subway":"yes"}},{"type":"node","id":6407079719,"lat":31.7703394,"lon":119.9569439,"tags":{"name":"同济桥","name:en":"Tongji Bridge","operator":"常州地铁","public_transport":"stop_position","railway":"stop","ref":"L01-18","station":"subway","subway":"yes"}},{"type":"node","id":6424746184,"lat":31.4856764,"lon":120.2740727,"tags":{"name":"江南大学站","name:en":"Jiangnan University","name:zh-Latn-pinyin":"Jiāngnán Dàxué Zhàn","public_transport":"station","railway":"station","station":"subway","subway":"yes","wikidata":"Q18654152"}},{"type":"node","id":6424747585,"lat":31.4759178,"lon":120.2726838,"tags":{"name":"长广溪","name:en":"Changguangxi","name:zh-Latn-pinyin":"Zhǎngguǎngxī Zhàn","public_transport":"station","railway":"station","station":"subway","subway":"yes","wikidata":"Q18668914"}},{"type":"node","id":6424773001,"lat":31.4951924,"lon":120.3152594,"tags":{"name":"金匮公园站","name:en":"Jinkui Park","name:zh-Latn-pinyin":"Jīnkuì Gōngyuán Zhàn","public_transport":"station","railway":"station","station":"subway","subway":"yes","wikidata":"Q18663417"}},{"type":"node","id":6424773003,"lat":31.4933893,"lon":120.3020585,"tags":{"name":"市民中心","name:en":"Civic Center","name:zh-Latn-pinyin":"Shìmín guǎngchǎng Zhàn","public_transport":"station","railway":"station","station":"subway","subway":"yes","wikidata":"Q18653079"}},{"type":"node","id":6424773007,"lat":31.4918586,"lon":120.2864484,"tags":{"name":"文化宫站","name:en":"Cultural Palace","name:zh-Latn-pinyin":"Wénhuàgōng Zhàn","public_transport":"station","railway":"station","station":"subway","subway":"yes","wikidata":"Q18653512"}},{"type":"node","id":6424787055,"lat":31.5117222,"lon":120.3194781,"tags":{"name":"南湖家园站","name:en":"Nanhujiayuan","name:zh-Latn-pinyin":"Nánhú Jiāyuán Zhàn","public_transport":"station","railway":"station","station":"subway","subway":"yes","wikidata":"Q18651934"}},{"type":"node","id":6424787059,"lat":31.5024916,"lon":120.3212243,"tags":{"name":"塘铁桥站","name:en":"Tangtieqiao","name:zh-Latn-pinyin":"Tángtiěqiáo Zhàn","public_transport":"station","railway":"station","station":"subway","subway":"yes","wikidata":"Q18652300"}},{"type":"node","id":6424807771,"lat":31.5353265,"lon":120.3236714,"tags":{"name":"华清大桥站","name:en":"Huaqingdaqiao","name:zh-Latn-pinyin":"Huáqīng Dàqiáo Zhàn","public_transport":"station","railway":"station","station":"subway","subway":"yes","wikidata":"Q18651908"}},{"type":"node","id":6424808186,"lat":31.5228611,"lon":120.3195707,"tags":{"name":"扬名站","name:en":"Yangming","name:zh-Latn-pinyin":"Yángmíng Zhàn","public_transport":"station","railway":"station","station":"subway","subway":"yes","wikidata":"Q18653446"}},{"type":"node","id":6427199220,"lat":31.5437261,"lon":120.3144785,"tags":{"name":"人民医院站","name:en":"People's Hospital","name:zh-Latn-pinyin":"Rénmín Yīyuàn Zhàn","public_transport":"station","railway":"station","station":"subway","subway":"yes","wikidata":"Q18110578"}},{"type":"node","id":6427221227,"lat":31.5567931,"lon":120.3005813,"tags":{"name":"太湖广场站","name:en":"Taihu Square","name:zh-Latn-pinyin":"Tàihú Guǎngchǎng Zhàn","public_transport":"station","railway":"station","station":"subway","subway":"yes","wikidata":"Q18652412"}},{"type":"node","id":6427221234,"lat":31.551031,"lon":120.3068067,"tags":{"name":"清名桥站","name:en":"Qingmingqiao","name:zh-Latn-pinyin":"Qīngmíngqiáo Zhàn","public_transport":"station","railway":"station","station":"subway","subway":"yes","wikidata":"Q18118755"}},{"type":"node","id":6427246796,"lat":31.5639123,"lon":120.3005102,"tags":{"name":"谈渡桥站","name:en":"Tanduqiao","name:zh-Latn-pinyin":"Tándùqiáo Zhàn","public_transport":"station","railway":"station","station":"subway","subway":"yes","wikidata":"Q18659381"}},{"type":"node","id":6427271124,"lat":31.5688247,"lon":120.3019707,"tags":{"name":"南禅寺站","name:en":"Nanchan Temple","name:zh-Latn-pinyin":"Nánchán Sì Zhàn","public_transport":"station","railway":"station","station":"subway","subway":"yes","wikidata":"Q18110962"}},{"type":"node","id":6427300394,"lat":31.5776809,"lon":120.2951478,"tags":{"name":"三阳广场站","name:en":"Sanyang Plaza","name:zh-Latn-pinyin":"Sānyáng Guǎngchǎng Zhàn","public_transport":"station","railway":"station","station":"subway","subway":"yes"}},{"type":"node","id":6427381099,"lat":31.5907224,"lon":120.302131,"tags":{"name":"无锡火车站","name:en":"Wuxi Railway Station","name:zh":"无锡火车站","name:zh-Latn-pinyin":"Wúxī Huǒchē Zhàn","public_transport":"station","railway":"station","station":"subway","subway":"yes"}},{"type":"node","id":6427381100,"lat":31.5839931,"lon":120.2949212,"tags":{"name":"胜利门站","name:en":"Shenglimen","name:zh-Latn-pinyin":"Shènglìmén Zhàn","public_transport":"station","railway":"station","station":"subway","subway":"yes","wikidata":"Q18119020"}},{"type":"node","id":6427399745,"lat":31.6034424,"lon":120.2991161,"tags":{"name":"民丰站","name:en":"Minfeng","name:zh-Latn-pinyin":"Mínfēng Zhàn","public_transport":"station","railway":"station","station":"subway","subway":"yes","wikidata":"Q18654117"}},{"type":"node","id":6427411698,"lat":31.6120098,"lon":120.3003278,"tags":{"name":"庄前站","name:en":"Zhuangqian","name:zh-Latn-pinyin":"Zhuāngqián Zhàn","public_transport":"station","railway":"station","station":"subway","subway":"yes","wikidata":"Q18653133"}},{"type":"node","id":6427430577,"lat":31.628558,"lon":120.2997927,"tags":{"name":"刘潭站","name:en":"Liutan","name:zh-Latn-pinyin":"Liútán Zhàn","public_transport":"station","railway":"station","station":"subway","subway":"yes","wikidata":"Q18937860"}},{"type":"node","id":6427466219,"lat":31.6397057,"lon":120.2997713,"tags":{"name":"天一站","name:en":"Tianyi","name:zh-Latn-pinyin":"Tiānyí Zhàn","public_transport":"station","railway":"station","station":"subway","subway":"yes","wikidata":"Q16858530"}},{"type":"node","id":6427480368,"lat":31.647712,"lon":120.2990637,"tags":{"name":"西漳站","name:en":"Xizhang","name:zh-Latn-pinyin":"Xīzhāng Zhàn","public_transport":"station","railway":"station","station":"subway","subway":"yes","wikidata":"Q16858551"}},{"type":"node","id":6427490830,"lat":31.6641663,"lon":120.3102816,"tags":{"name":"锡北运河站","name:en":"Xibei Canal","name:zh-Latn-pinyin":"Xīběi Yùnhé Zhàn","public_transport":"station","railway":"station","station":"subway","subway":"yes","wikidata":"Q16858538"}},{"type":"node","id":6427495819,"lat":31.6775031,"lon":120.3103351,"tags":{"layer":"2","name":"堰桥","name:en":"Yanqiao","name:zh-Latn-pinyin":"Yànqiáo Zhàn","public_transport":"station","railway":"station","station":"subway","subway":"yes","wikidata":"Q16858529"}},{"type":"node","id":6427541669,"lat":31.5642469,"lon":120.2579767,"tags":{"name":"河埒口站","name:en":"Helikou","name:zh-Latn-pinyin":"Hélièkǒu Zhàn","public_transport":"station","railway":"station","station":"subway","subway":"yes","wikidata":"Q18973370"}},{"type":"node","id":6427541674,"lat":31.5611522,"lon":120.2452336,"tags":{"name":"小桃源站","name:en":"Xiaotaoyuan","name:zh-Latn-pinyin":"Xiǎotáoyuán Zhàn","public_transport":"station","railway":"station","station":"subway","subway":"yes","wikidata":"Q18973179"}},{"type":"node","id":6427541677,"lat":31.5585936,"lon":120.2320247,"tags":{"name":"荣巷站","name:en":"Rongxiang","name:zh-Latn-pinyin":"Róngxiàng Zhàn","public_transport":"station","railway":"station","station":"subway","subway":"yes","wikidata":"Q18973010"}},{"type":"node","id":6427541680,"lat":31.5528921,"lon":120.2147395,"tags":{"name":"梅园开原寺","name:en":"Meiyuan Kaiyuan Temple","name:zh-Latn-pinyin":"Méiyuán Kāiyuán Sì Zhàn","public_transport":"station","railway":"station","station":"subway","subway":"yes","wikidata":"Q18962143"}},{"type":"node","id":6429573291,"lat":31.5667758,"lon":120.271183,"tags":{"name":"大王基站","name:en":"Dawangji","name:zh-Latn-pinyin":"Dàwáng Jī Zhàn","public_transport":"station","railway":"station","station":"subway","subway":"yes","wikidata":"Q18973503"}},{"type":"node","id":6429578382,"lat":31.5691817,"lon":120.2816537,"tags":{"name":"梁溪大桥站","name:en":"Liangxi Bridge","name:zh-Latn-pinyin":"Liángxī Dàqiáo Zhàn","public_transport":"station","railway":"station","station":"subway","subway":"yes","wikidata":"Q18973692"}},{"type":"node","id":6429590430,"lat":31.5803467,"lon":120.303691,"tags":{"name":"东林广场","name:en":"Donglin Plaza","name:zh-Latn-pinyin":"Dōnglín Guǎngchǎng Zhàn","public_transport":"station","railway":"station","station":"subway","subway":"yes","wikidata":"Q18973963"}},{"type":"node","id":6429590435,"lat":31.5757031,"lon":120.2861485,"tags":{"name":"五爱广场站","name:en":"Wu'ai Plaza","name:zh-Latn-pinyin":"Wǔài Guǎngchǎng Zhàn","public_transport":"station","railway":"station","station":"subway","subway":"yes","wikidata":"Q18973818"}},{"type":"node","id":6429601336,"lat":31.5842234,"lon":120.3159959,"tags":{"name":"上马墩站","name:en":"Shangmadun","name:zh-Latn-pinyin":"Shàngmǎdūn Zhàn","public_transport":"station","railway":"station","station":"subway","subway":"yes","wikidata":"Q18986753"}},{"type":"node","id":6429614702,"lat":31.58501,"lon":120.3255009,"tags":{"name":"靖海","name:en":"Jinghai","official_name":"靖海站","public_transport":"station","railway":"station","station":"subway","subway":"yes","wikidata":"Q18986807"}},{"type":"node","id":6429647548,"lat":31.5883446,"lon":120.3372549,"tags":{"name":"广益站","name:en":"Guangyi","name:zh-Latn-pinyin":"Guǎngyì Zhàn","public_transport":"station","railway":"station","station":"subway","subway":"yes","wikidata":"Q18986821"}},{"type":"node","id":6429663971,"lat":31.58779,"lon":120.3462531,"tags":{"name":"柏庄站","name:en":"Baizhuang","name:zh-Latn-pinyin":"Bǎizhuāng Zhàn","public_transport":"station","railway":"station","station":"subway","subway":"yes","wikidata":"Q18986846"}},{"type":"node","id":6429675873,"lat":31.5839082,"lon":120.3589238,"tags":{"name":"东亭站","name:en":"Dongting","name:zh-Latn-pinyin":"Dōngtíng Zhàn","public_transport":"station","railway":"station","station":"subway","subway":"yes"}},{"type":"node","id":6429681982,"lat":31.5799413,"lon":120.3742546,"tags":{"name":"庄桥站","name:en":"Zhuangqiao","name:zh-Latn-pinyin":"Zhuāng Qiáo Zhàn","public_transport":"station","railway":"station","station":"subway","subway":"yes","wikidata":"Q18987057"}},{"type":"node","id":6433776528,"lat":31.5828911,"lon":120.4266553,"tags":{"name":"查桥站","name:en":"Zhaqiao","name:zh-Latn-pinyin":"Cháqiáo Zhàn","public_transport":"station","railway":"station","station":"subway","subway":"yes","wikidata":"Q18987126"}},{"type":"node","id":6433776529,"lat":31.5822097,"lon":120.4040237,"tags":{"name":"九里河公园站","name:en":"Jiulihe Park","name:zh-Latn-pinyin":"Jiǔlǐhé Gōngyuán Zhàn","public_transport":"station","railway":"station","station":"subway","subway":"yes","wikidata":"Q18987078"}},{"type":"node","id":6433776530,"lat":31.5813803,"lon":120.390346,"tags":{"name":"云林站","name:en":"Yunlin","name:zh-Latn-pinyin":"Yúnlín Zhàn","public_transport":"station","railway":"station","station":"subway","subway":"yes","wikidata":"Q18651472"}},{"type":"node","id":6434120710,"lat":31.5981732,"lon":120.4548423,"tags":{"name":"无锡东","name:en":"Wuxidong","name:zh":"无锡东站","name:zh-Latn-pinyin":"Wúxī Dōng Zhàn","public_transport":"station","railway":"station","station":"subway","subway":"yes"}},{"type":"node","id":6434120711,"lat":31.5937263,"lon":120.4500963,"tags":{"name":"迎宾广场","name:en":"Yingbin Square","name:zh-Latn-pinyin":"Yíngbīn Guǎngchǎng","public_transport":"station","railway":"station","station":"subway","subway":"yes","wikidata":"Q19853801"}},{"type":"node","id":6434120712,"lat":31.5886144,"lon":120.4445854,"tags":{"name":"映月湖公园","name:en":"Yingyuehu Park","name:zh-Latn-pinyin":"Yìngyuè Hú Gōngyuán","public_transport":"station","railway":"station","station":"subway","subway":"yes","wikidata":"Q19852728"}},{"type":"node","id":6463518761,"lat":31.8048514,"lon":119.9704494,"tags":{"name":"市民广场","name:en":"Civic Center","public_transport":"stop_position","railway":"stop","station":"subway","subway":"yes"}},{"type":"node","id":6470277027,"lat":31.7769829,"lon":119.9593815,"tags":{"name":"文化宫","name:en":"Palace of Culture","public_transport":"stop_position","railway":"stop","station":"subway","subway":"yes"}},{"type":"node","id":6474346657,"lat":31.6620248,"lon":119.9440305,"tags":{"name":"武进沿江城际站","name:en":"Wujin Yanjiang Intercity Station","operator":"常州地铁Wujin Yanjiang Intercity Station","public_transport":"stop_position","railway":"stop","station":"subway","subway":"yes"}},{"type":"node","id":6556682848,"lat":31.8410286,"lon":119.975745,"tags":{"name":"环球港","name:en":"Global Harbor","operator":"常州地铁","public_transport":"stop_position","railway":"stop","station":"subway","subway":"yes"}},{"type":"node","id":6556682849,"lat":31.8410002,"lon":119.9759048,"tags":{"name":"环球港","name:en":"Global Harbor","operator":"常州地铁","public_transport":"stop_position","railway":"stop","station":"subway","subway":"yes"}},{"type":"node","id":6741884316,"lat":31.7951327,"lon":119.9713294,"tags":{"name":"翠竹","name:en":"Cuizhu","public_transport":"stop_position","railway":"stop","station":"subway","subway":"yes"}},{"type":"node","id":6741884317,"lat":31.7951932,"lon":119.9714463,"tags":{"name":"翠竹","name:en":"Cuizhu","public_transport":"stop_position","railway":"stop","station":"subway","subway":"yes"}},{"type":"node","id":6741884409,"lat":31.7774849,"lon":119.9597618,"tags":{"name":"文化宫","name:en":"Palace of Culture","operator":"常州地铁","public_transport":"stop_position","railway":"stop","station":"subway","subway":"yes"}},{"type":"node","id":6741884410,"lat":31.7775139,"lon":119.9596739,"tags":{"name":"文化宫","name:en":"Palace of Culture","operator":"常州地铁","public_transport":"stop_position","railway":"stop","station":"subway","subway":"yes"}},{"type":"node","id":6743772132,"lat":31.7630551,"lon":119.9555101,"tags":{"name":"清凉寺","name:en":"Qingliang Temple","operator":"常州地铁","public_transport":"stop_position","railway":"stop","station":"subway","subway":"yes"}},{"type":"node","id":6743772133,"lat":31.7630438,"lon":119.9556119,"tags":{"name":"清凉寺","name:en":"Qingliang Temple","operator":"常州地铁","public_transport":"stop_position","railway":"stop","station":"subway","subway":"yes"}},{"type":"node","id":6743772293,"lat":31.7366968,"lon":119.9443099,"tags":{"name":"聚湖路","name:en":"Juhu Road","operator":"常州地铁","public_transport":"stop_position","railway":"stop","station":"subway","subway":"yes"}},{"type":"node","id":6743772449,"lat":31.7081814,"lon":119.9437401,"tags":{"name":"长虹路","name:en":"Changhong Road","public_transport":"stop_position","railway":"stop","station":"subway","subway":"yes"}},{"type":"node","id":6743772450,"lat":31.7081766,"lon":119.9439273,"tags":{"name":"长虹路","name:en":"Changhong Road","public_transport":"stop_position","railway":"stop","station":"subway","subway":"yes"}},{"type":"node","id":6743772484,"lat":31.6990305,"lon":119.9434901,"tags":{"name":"延政大道","name:en":"Yanzheng Avenue","public_transport":"stop_position","railway":"stop","station":"subway","subway":"yes"}},{"type":"node","id":6743772509,"lat":31.6906648,"lon":119.9428198,"tags":{"name":"科教城北","name:en":"North SEC","public_transport":"stop_position","railway":"stop","station":"subway","subway":"yes"}},{"type":"node","id":6743772510,"lat":31.690607,"lon":119.9430578,"tags":{"name":"科教城北","name:en":"North SEC","public_transport":"stop_position","railway":"stop","station":"subway","subway":"yes"}},{"type":"node","id":6743772572,"lat":31.6475818,"lon":119.946166,"tags":{"name":"阳湖路","name:en":"Yanghu Road","operator":"常州地铁","public_transport":"stop_position","railway":"stop","station":"subway","subway":"yes"}},{"type":"node","id":6743772573,"lat":31.6476015,"lon":119.9463517,"tags":{"name":"阳湖路","name:en":"Yanghu Road","operator":"常州地铁","public_transport":"stop_position","railway":"stop","station":"subway","subway":"yes"}},{"type":"node","id":6883763802,"lat":31.7703244,"lon":119.9569952,"tags":{"name":"同济桥","name:en":"Tongji Bridge","operator":"常州地铁","public_transport":"station","railway":"station","ref":"L01-18","station":"subway","subway":"yes"}},{"type":"node","id":6883763803,"lat":31.8045926,"lon":119.9703092,"tags":{"name":"市民广场","name:en":"Civic Center","public_transport":"station","railway":"station","station":"subway","subway":"yes","wikidata":"Q18652768"}},{"type":"node","id":6898474812,"lat":31.3427091,"lon":120.6521201,"tags":{"name":"板泾","old_name":"扬东路","public_transport":"station","railway":"station","station":"subway","subway":"yes"}},{"type":"node","id":6898474836,"lat":31.4329818,"lon":120.6130975,"tags":{"name":"莫阳","public_transport":"station","railway":"construction","station":"subway","subway":"yes"}},{"type":"node","id":7018485886,"lat":31.4496931,"lon":120.2700572,"tags":{"name":"葛埭桥","name:en":"Gedaiqiao","public_transport":"station","railway":"station","station":"subway","subway":"yes"}},{"type":"node","id":7018485890,"lat":31.4627943,"lon":120.2747101,"tags":{"name":"雪浪","name:en":"Xuelang","public_transport":"station","railway":"station","station":"subway","subway":"yes"}},{"type":"node","id":7087071833,"lat":31.3744189,"lon":120.5212963,"tags":{"name":"苏州新区火车站","name:en":"Suzhou Xinqu Railway Station","name:zh-Hant":"蘇州新區火車站","public_transport":"station","railway":"station","station":"subway","subway":"yes"}},{"type":"node","id":7099200261,"lat":31.3476585,"lon":120.6973323,"tags":{"name":"古楼","name:en":"Gulou","old_name":"娄中路（在建）","public_transport":"station","railway":"station","station":"subway","subway":"yes"}},{"type":"node","id":7099200262,"lat":31.3511727,"lon":120.6695535,"tags":{"name":"南泽庄","name:en":"Nanzezhuang","old_name":"和顺路","public_transport":"station","railway":"station","station":"subway","subway":"yes"}},{"type":"node","id":7099200278,"lat":31.3750792,"lon":120.6666523,"tags":{"name":"古香圩","name:en":"Guxiangwei","old_name":"济学路","public_transport":"station","railway":"station","station":"subway","subway":"yes"}},{"type":"node","id":7099206585,"lat":31.3750293,"lon":120.6561171,"tags":{"name":"五潨泾","name:en":"Wucongjing","old_name":"徐阳路","public_transport":"station","railway":"station","station":"subway","subway":"yes"}},{"type":"node","id":7099206586,"lat":31.369461,"lon":120.6433484,"tags":{"name":"白荡北","name:en":"Baidang North","old_name":"相城区行政中心南","public_transport":"station","railway":"station","station":"subway","subway":"yes"}},{"type":"node","id":7099206587,"lat":31.3671316,"lon":120.6341863,"tags":{"name":"夏圩","name:en":"Xiawei","old_name":"相城大道","public_transport":"station","railway":"station","station":"subway","subway":"yes"}},{"type":"node","id":7099206588,"lat":31.3688016,"lon":120.6227032,"tags":{"name":"阳澄湖中路","old_name":"采莲路","public_transport":"station","railway":"station","station":"subway","subway":"yes"}},{"type":"node","id":7099206589,"lat":31.3652022,"lon":120.6164868,"tags":{"name":"陆慕古巷","old_name":"陆慕老街","public_transport":"station","railway":"station","station":"subway","subway":"yes"}},{"type":"node","id":7099206590,"lat":31.3645712,"lon":120.6055109,"tags":{"name":"御窑","old_name":"人民路","public_transport":"station","railway":"station","station":"subway","subway":"yes"}},{"type":"node","id":7099206591,"lat":31.3636849,"lon":120.5858254,"tags":{"name":"虎丘湿地公园","public_transport":"station","railway":"station","station":"subway","subway":"yes"}},{"type":"node","id":7099206592,"lat":31.3501493,"lon":120.5615553,"tags":{"name":"徐望","old_name":"虎殿路","public_transport":"station","railway":"station","station":"subway","subway":"yes"}},{"type":"node","id":7099206593,"lat":31.3369686,"lon":120.5500882,"tags":{"name":"时家桥","public_transport":"station","railway":"station","station":"subway","subway":"yes"}},{"type":"node","id":7099222609,"lat":31.3219177,"lon":120.6565394,"tags":{"name":"积翠桥","public_transport":"station","railway":"station","station":"subway","subway":"yes"}},{"type":"node","id":7099222610,"lat":31.3360698,"lon":120.6529952,"tags":{"name":"样泾","old_name":"扬华路","public_transport":"station","railway":"station","station":"subway","subway":"yes"}},{"type":"node","id":7099222613,"lat":31.3570981,"lon":120.6470095,"tags":{"name":"白荡南","public_transport":"station","railway":"station","station":"subway","subway":"yes"}},{"type":"node","id":7099222614,"lat":31.3780025,"lon":120.6417669,"tags":{"name":"相城区行政中心北","public_transport":"station","railway":"station","station":"subway","subway":"yes"}},{"type":"node","id":7099222615,"lat":31.3834708,"lon":120.6407866,"tags":{"name":"春申湖东路","public_transport":"station","railway":"station","station":"subway","subway":"yes"}},{"type":"node","id":7099222616,"lat":31.3917539,"lon":120.640327,"tags":{"name":"蠡塘河路","public_transport":"station","railway":"station","station":"subway","subway":"yes"}},{"type":"node","id":7099222617,"lat":31.4031808,"lon":120.6420438,"tags":{"name":"登云","old_name":"富元路","public_transport":"station","railway":"construction","station":"subway","subway":"yes"}},{"type":"node","id":7099222620,"lat":31.413859,"lon":120.6490033,"tags":{"name":"常楼","old_name":"青龙港","public_transport":"station","railway":"station","station":"subway","subway":"yes"}},{"type":"node","id":7099222622,"lat":31.422728,"lon":120.6497287,"tags":{"name":"雪南","old_name":"会展中心","public_transport":"station","railway":"construction","station":"subway","subway":"yes"}},{"type":"node","id":7101512613,"lat":31.2852303,"lon":120.568272,"tags":{"name":"索山桥西","name:en":"Suoshanqiao West","name:zh-Hant":"索山橋西","public_transport":"station","railway":"station","station":"subway","subway":"yes"}},{"type":"node","id":7101512614,"lat":31.2847749,"lon":120.5686007,"tags":{"name":"索山桥西","name:en":"Suoshanqiao West","name:zh-Hant":"索山橋西","public_transport":"station","railway":"station","station":"subway","subway":"yes"}},{"type":"node","id":7101512615,"lat":31.2968375,"lon":120.5441889,"tags":{"name":"狮子山","name:en":"Shizishan","name:zh-Hant":"獅子山","operator":"SRT","public_transport":"station","railway":"station","station":"subway","subway":"yes"}},{"type":"node","id":7101512616,"lat":31.2974051,"lon":120.5443657,"tags":{"name":"狮子山","name:en":"Shizishan","name:zh-Hant":"獅子山","operator":"SRT","public_transport":"station","railway":"station","station":"subway","subway":"yes","wikidata":"Q7651028"}},{"type":"node","id":7504976225,"lat":31.7814243,"lon":119.9380727,"tags":{"name":"怀德(5号线建设中)","name:en":"Huaide","public_transport":"station","railway":"station","station":"subway","subway":"yes"}},{"type":"node","id":7505488237,"lat":31.7993649,"lon":120.0296422,"tags":{"name":"青龙(建设中)","name:en":"Qinlong","operator":"常州地铁","public_transport":"station","railway":"station","station":"subway","subway":"yes"}},{"type":"node","id":7812716080,"lat":31.2558103,"lon":120.4995586,"tags":{"name":"灵岩山","name:en":"Lingyanshan","public_transport":"station","railway":"station","station":"subway","subway":"yes"}},{"type":"node","id":7891771289,"lat":31.5681037,"lon":120.3326337,"tags":{"name":"叙丰","name:en":"Xufeng","official_name":"叙丰站","official_name:en":"Xufeng Station","public_transport":"station","railway":"station","station":"subway","subway":"yes"}},{"type":"node","id":8046634236,"lat":31.5155692,"lon":120.381183,"tags":{"name":"周泾巷","name:en":"Zhoujingxiang","public_transport":"station","railway":"station","station":"subway","subway":"yes"}},{"type":"node","id":8046634240,"lat":31.4990663,"lon":120.3984182,"tags":{"name":"长江南路","name:en":"South Changjiang Road","public_transport":"station","railway":"station","station":"subway","subway":"yes"}},{"type":"node","id":8046634244,"lat":31.5010211,"lon":120.387615,"tags":{"name":"无锡新区站","name:en":"Wuxi New Distric Station","public_transport":"station","railway":"station","station":"subway","subway":"yes"}},{"type":"node","id":8046634245,"lat":31.503961,"lon":120.426672,"tags":{"name":"硕放机场","name:en":"Sunan Shuofang International Airport","public_transport":"station","railway":"station","station":"subway","subway":"yes"}},{"type":"node","id":8046914302,"lat":31.560999,"lon":120.3392514,"tags":{"name":"太湖花园","name:en":"Taihu Huayuan","public_transport":"station","railway":"station","station":"subway","subway":"yes"}},{"type":"node","id":8046914306,"lat":31.551263,"lon":120.3480229,"tags":{"name":"新光路","name:en":"Xinguang Road","public_transport":"station","railway":"station","station":"subway","subway":"yes"}},{"type":"node","id":8046914307,"lat":31.5431998,"lon":120.3538701,"tags":{"name":"旺庄路","name:en":"Wangzhuang Road","public_transport":"station","railway":"station","station":"subway","subway":"yes"}},{"type":"node","id":8046914316,"lat":31.5314872,"lon":120.36524,"tags":{"name":"黄山路","name:en":"Huangshan Road","public_transport":"station","railway":"station","station":"subway","subway":"yes"}},{"type":"node","id":8046914326,"lat":31.5252046,"lon":120.371633,"tags":{"name":"高浪东路","name:en":"East Gaolang Road","public_transport":"station","railway":"station","station":"subway","subway":"yes"}},{"type":"node","id":8047163713,"lat":31.5907234,"lon":120.3153829,"tags":{"name":"广瑞","name:en":"Guangrui","public_transport":"station","railway":"station","station":"subway","subway":"yes"}},{"type":"node","id":8047163740,"lat":31.5755279,"lon":120.3280119,"tags":{"name":"东风","name:en":"Dongfeng","public_transport":"station","railway":"station","station":"subway","subway":"yes"}},{"type":"node","id":8049327216,"lat":31.5938991,"lon":120.266206,"tags":{"name":"盛岸站","name:en":"Sheng'an","name:zh-Latn-pinyin":"Shèngàn Zhàn","public_transport":"station","railway":"station","station":"subway","subway":"yes"}},{"type":"node","id":8049327219,"lat":31.5957516,"lon":120.2812706,"tags":{"name":"吴桥","name:en":"Wuqiao","public_transport":"station","railway":"station","station":"subway","subway":"yes"}},{"type":"node","id":8049327221,"lat":31.5928499,"lon":120.2925022,"tags":{"name":"北栅口","name:en":"Beizhakou","public_transport":"station","railway":"station","station":"subway","subway":"yes"}},{"type":"node","id":8049425522,"lat":31.5987124,"lon":120.2112922,"tags":{"name":"苏庙","name:en":"Sumiao","public_transport":"station","railway":"station","station":"subway","subway":"yes"}},{"type":"node","id":8049425532,"lat":31.6024175,"lon":120.2393024,"tags":{"name":"龙山梢","name:en":"Longshanshao","public_transport":"station","railway":"station","station":"subway","subway":"yes"}},{"type":"node","id":8049425535,"lat":31.5993096,"lon":120.2546437,"tags":{"name":"石门路","name:en":"Shimen Road","public_transport":"station","railway":"station","station":"subway","subway":"yes"}},{"type":"node","id":8133767612,"lat":31.797816,"lon":120.0407013,"tags":{"name":"大明北路(建设中)","public_transport":"station","railway":"station","station":"subway","subway":"yes"}},{"type":"node","id":8133767613,"lat":31.7931724,"lon":120.0523041,"tags":{"name":"东青(建设中)","public_transport":"station","railway":"station","station":"subway","subway":"yes"}},{"type":"node","id":8133767614,"lat":31.7992981,"lon":120.016891,"tags":{"name":"横塘河东路(建设中)","public_transport":"station","railway":"station","station":"subway","subway":"yes"}},{"type":"node","id":8133767616,"lat":31.7971465,"lon":119.9904969,"tags":{"name":"竹林(建设中)","public_transport":"station","railway":"station","station":"subway","subway":"yes"}},{"type":"node","id":8133767637,"lat":31.7939934,"lon":119.9817995,"tags":{"name":"北环(建设中)","public_transport":"station","railway":"station","station":"subway","subway":"yes"}},{"type":"node","id":8133767648,"lat":31.8003004,"lon":119.9616028,"tags":{"name":"锦绣(建设中)","public_transport":"station","railway":"station","station":"subway","subway":"yes"}},{"type":"node","id":8133767649,"lat":31.7967323,"lon":119.9518189,"tags":{"name":"万福桥(建设中)","public_transport":"station","railway":"station","station":"subway","subway":"yes"}},{"type":"node","id":8133767650,"lat":31.7873133,"lon":119.9462329,"tags":{"name":"西横街(建设中)","public_transport":"station","railway":"station","station":"subway","subway":"yes"}},{"type":"node","id":8133767651,"lat":31.7793633,"lon":119.9240629,"tags":{"name":"马公桥(建设中)","public_transport":"station","railway":"station","station":"subway","subway":"yes"}},{"type":"node","id":8133767652,"lat":31.7766541,"lon":119.9088869,"tags":{"name":"花园(建设中)","public_transport":"station","railway":"station","station":"subway","subway":"yes"}},{"type":"node","id":8133767653,"lat":31.7622855,"lon":119.8989439,"tags":{"name":"永红(建设中)","public_transport":"station","railway":"station","station":"subway","subway":"yes"}},{"type":"node","id":8133767654,"lat":31.7548369,"lon":119.8942521,"tags":{"name":"皇粮浜(建设中)","public_transport":"station","railway":"station","station":"subway","subway":"yes"}},{"type":"node","id":8133767655,"lat":31.7386972,"lon":119.8947614,"tags":{"name":"江理工(建设中)","public_transport":"station","railway":"station","station":"subway","subway":"yes"}},{"type":"node","id":8133767656,"lat":31.7311481,"lon":119.8946132,"tags":{"name":"牛塘(建设中)","public_transport":"station","railway":"station","station":"subway","subway":"yes"}},{"type":"node","id":8133767658,"lat":31.7224965,"lon":119.8949489,"tags":{"name":"长虹路(建设中)","public_transport":"station","railway":"station","station":"subway","subway":"yes"}},{"type":"node","id":8133767659,"lat":31.7141228,"lon":119.8849608,"tags":{"name":"漕溪路(建设中)","public_transport":"station","railway":"station","station":"subway","subway":"yes"}},{"type":"node","id":8133767660,"lat":31.7091577,"lon":119.8701557,"tags":{"name":"常州南站(规划中)","public_transport":"station","railway":"station","station":"subway","subway":"yes"}},{"type":"node","id":8133767662,"lat":31.71106,"lon":119.8550021,"tags":{"name":"稻香路(建设中)","public_transport":"station","railway":"station","station":"subway","subway":"yes"}},{"type":"node","id":8133767663,"lat":31.701121,"lon":119.8447164,"tags":{"name":"西太湖(建设中)","public_transport":"station","railway":"station","station":"subway","subway":"yes"}},{"type":"node","id":8133767664,"lat":31.6909992,"lon":119.842855,"tags":{"name":"揽月湾(建设中)","public_transport":"station","railway":"station","station":"subway","subway":"yes"}},{"type":"node","id":8374616268,"lat":31.7695988,"lon":119.9009784,"tags":{"name":"清潭(建设中)","public_transport":"station","railway":"station","station":"subway","subway":"yes"}},{"type":"node","id":8840524848,"lat":31.4788797,"lon":120.3210878,"tags":{"name":"博览中心","public_transport":"station","railway":"station","station":"subway","subway":"yes"}},{"type":"node","id":9007654236,"lat":31.2925749,"lon":120.5932773,"tags":{"name":"劳动路","name:en":"Laodong Lu","public_transport":"station","railway":"station","station":"subway","subway":"yes"}},{"type":"node","id":9007666057,"lat":31.2942287,"lon":120.6203305,"tags":{"name":"南门","name:en":"Nanmen","public_transport":"station","railway":"station","station":"subway","subway":"yes"}},{"type":"node","id":9007685097,"lat":31.2275968,"lon":120.4482206,"tags":{"name":"太湖香山","name:en":"Taihu Xiangshan","public_transport":"station","railway":"station","station":"subway","subway":"yes"}},{"type":"node","id":9287572907,"lat":31.6200829,"lon":120.2861566,"tags":{"name":"广石路站","name:en":"Guangshi Road","name:zh-Latn-pinyin":"Guǎngshí Lù Zhàn","public_transport":"station","railway":"station","station":"subway","subway":"yes"}},{"type":"node","id":9287572908,"lat":31.5706706,"lon":120.265216,"tags":{"name":"青山湾荣院","name:en":"Qingshanwan Rongjun Hospital","name:zh-Latn-pinyin":"Qīngshānwān Róngyuàn Zhàn","public_transport":"station","railway":"station","station":"subway","subway":"yes"}},{"type":"node","id":9287572909,"lat":31.5833907,"lon":120.2730693,"tags":{"name":"惠山古镇","name:en":"Huishan Ancient Town","name:zh-Latn-pinyin":"Huìshān Gǔzhèn Zhàn","public_transport":"station","railway":"station","station":"subway","subway":"yes"}},{"type":"node","id":9287572910,"lat":31.6012358,"lon":120.27537,"tags":{"name":"黄巷站","name:en":"Huangxiang","name:zh-Latn-pinyin":"Huángxiàng Zhàn","public_transport":"station","railway":"station","station":"subway","subway":"yes"}},{"type":"node","id":9287642700,"lat":31.5340983,"lon":120.258902,"tags":{"name":"夏家边","name:en":"Xiajiabian","name:zh-Latn-pinyin":"Xiàjiābiān Zhàn","public_transport":"station","railway":"station","station":"subway","subway":"yes"}},{"type":"node","id":9287642701,"lat":31.506203,"lon":120.296795,"tags":{"name":"周新苑","public_transport":"station","railway":"station","station":"subway","subway":"yes"}},{"type":"node","id":9287642702,"lat":31.5507136,"lon":120.2576097,"tags":{"name":"西园弄","name:en":"Xiyuannong","name:zh-Latn-pinyin":"Xīyuánnòng Zhàn","public_transport":"station","railway":"station","station":"subway","subway":"yes"}},{"type":"node","id":9287642703,"lat":31.5240048,"lon":120.2615064,"tags":{"addr:city":"无锡市","addr:district":"滨湖区","addr:province":"江苏省","name":"蠡湖大桥","network":"无锡地铁4号线","operator":"无锡地铁","public_transport":"station","railway":"station","station":"subway","subway":"yes"}},{"type":"node","id":9287642704,"lat":31.5077244,"lon":120.2825868,"tags":{"name":"五湖大道","public_transport":"station","railway":"station","station":"subway","subway":"yes"}},{"type":"node","id":9287642705,"lat":31.5428262,"lon":120.2583221,"tags":{"name":"体育中心","name:en":"Sports Center","name:zh-Latn-pinyin":"Tǐyù Zhōngxīn Zhàn","public_transport":"station","railway":"station","station":"subway","subway":"yes"}},{"type":"node","id":9287642706,"lat":31.5136862,"lon":120.2768144,"tags":{"name":"大剧院","public_transport":"station","railway":"station","station":"subway","subway":"yes"}},{"type":"node","id":9287659656,"lat":31.4852177,"lon":120.3038362,"tags":{"name":"吴都路","public_transport":"station","railway":"station","station":"subway","subway":"yes"}},{"type":"node","id":9287659657,"lat":31.4760509,"lon":120.3108335,"tags":{"name":"丰润道","public_transport":"station","railway":"station","station":"subway","subway":"yes","wheelchair":"limited"}},{"type":"node","id":9778896846,"lat":31.4639111,"lon":120.6204227,"tags":{"name":"观塘路（在建）","public_transport":"station","railway":"station","station":"subway","subway":"yes"}},{"type":"node","id":9778896847,"lat":31.4475647,"lon":120.6181307,"tags":{"name":"漕湖大道（在建）","public_transport":"station","railway":"station","station":"subway","subway":"yes"}},{"type":"node","id":9778896848,"lat":31.4147077,"lon":120.609606,"tags":{"name":"太阳路（在建）","public_transport":"station","railway":"station","station":"subway","subway":"yes"}},{"type":"node","id":10941963098,"lat":31.5984223,"lon":120.2256042,"tags":{"layer":"-2","name":"钱桥","name:en":"Qianqiao","public_transport":"station","railway":"station","subway":"yes"}},{"type":"node","id":11284626560,"lat":31.6475912,"lon":119.9462608,"tags":{"name":"阳湖路","name:en":"Yanghu Road","operator":"常州地铁","public_transport":"station","railway":"station","station":"subway","subway":"yes","wikidata":"Q94632737"}},{"type":"node","id":11313993907,"lat":31.9252018,"lon":120.253734,"tags":{"name":"江阴外滩","name:en":"Jiangyin Bund","public_transport":"station","railway":"station","station":"subway","subway":"yes","wikidata":"Q124328206","wikipedia":"zh:江阴外滩站"}},{"type":"node","id":11330330480,"lat":31.9089455,"lon":120.2666006,"tags":{"name":"中山公园","name:en":"Zhongshan Park","public_transport":"station","railway":"station","station":"subway","subway":"yes","wikidata":"Q124328214"}},{"type":"node","id":11330330483,"lat":31.8932703,"lon":120.2671664,"tags":{"name":"南门","name:en":"Nanmen","public_transport":"station","railway":"station","station":"subway","subway":"yes","wikidata":"Q124328290"}},{"type":"node","id":11330330490,"lat":31.8780164,"lon":120.267637,"tags":{"name":"江阴中医院","name:en":"Jiangyin TCM Hospital","public_transport":"station","railway":"station","station":"subway","subway":"yes","wikidata":"Q124328291"}},{"type":"node","id":11514206356,"lat":31.8736764,"lon":120.5645871,"tags":{"name":"华昌路（在建）","public_transport":"station","railway":"station","station":"subway","subway":"yes"}},{"type":"node","id":11514206357,"lat":31.8794527,"lon":120.5435532,"tags":{"name":"杨舍（在建）","public_transport":"station","railway":"station","station":"subway","subway":"yes"}},{"type":"node","id":11514206363,"lat":31.4268321,"lon":120.6561953,"tags":{"name":"国际会展中心（在建）","public_transport":"station","railway":"station","station":"subway","subway":"yes"}},{"type":"node","id":11545949013,"lat":31.7101455,"lon":120.3067085,"tags":{"name":"马镇","name:en":"Mazhen","public_transport":"station","railway":"station","station":"subway","subway":"yes","wikidata":"Q124328330"}},{"type":"node","id":11545949014,"lat":31.7726788,"lon":120.2897358,"tags":{"name":"青阳","name:en":"Qingyang","public_transport":"station","railway":"station","station":"subway","subway":"yes","wikidata":"Q124328306"}},{"type":"node","id":11545949015,"lat":31.8184654,"lon":120.2676354,"tags":{"name":"峭岐","name:en":"Qiaoqi","public_transport":"station","railway":"station","station":"subway","subway":"yes","wikidata":"Q124328305"}},{"type":"node","id":11545949016,"lat":31.8437829,"lon":120.2626224,"tags":{"name":"南闸","name:en":"Nanzha","public_transport":"station","railway":"station","station":"subway","subway":"yes","wikidata":"Q124328293"}},{"type":"node","id":11545949017,"lat":31.8641474,"lon":120.274425,"tags":{"name":"江阴高铁站","name:en":"Jiangyin Railway Station","public_transport":"station","railway":"station","station":"subway","subway":"yes","wikidata":"Q124328292"}},{"type":"node","id":12022610594,"lat":31.3678051,"lon":120.5310702,"tags":{"name":"保丰","public_transport":"station","railway":"station","station":"subway","subway":"yes"}},{"type":"node","id":12022610597,"lat":31.3757013,"lon":120.5229968,"tags":{"name":"苏州新区火车站","name:en":"Suzhou Xinqu Railway Station","public_transport":"station","railway":"station","station":"subway","subway":"yes","wikidata":"Q6579534"}},{"type":"node","id":12022610618,"lat":31.3377512,"lon":120.6264973,"tags":{"name":"梅巷","name:en":"Meixiang","public_transport":"station","railway":"station","station":"subway","subway":"yes","wikidata":"Q127172298","wikipedia":"zh:梅巷站"}},{"type":"node","id":12074652877,"lat":31.3081715,"lon":120.6600443,"tags":{"name":"惹云桥","public_transport":"station","railway":"station","station":"subway","subway":"yes"}},{"type":"node","id":12074652901,"lat":31.3046366,"lon":120.6313688,"tags":{"name":"望星桥苏大","public_transport":"station","railway":"station","station":"subway","subway":"yes"}},{"type":"node","id":12074652910,"lat":31.335808,"lon":120.5631588,"tags":{"name":"金鸡墩","public_transport":"station","railway":"station","station":"subway","subway":"yes"}},{"type":"node","id":12074652911,"lat":31.3109409,"lon":120.6262994,"tags":{"name":"临顿路","name:en":"Lindun Lu","name:zh":"临顿路","name:zh-Hans":"临顿路","name:zh-Hant":"臨頓路","operator":"SRT","public_transport":"station","railway":"station","station":"subway","subway":"yes","wheelchair":"yes","wikidata":"Q6552957","wikipedia":"zh:临顿路站"}},{"type":"node","id":12074652914,"lat":31.3386044,"lon":120.6007958,"tags":{"name":"苏锦","name:en":"Sujin","public_transport":"station","railway":"station","station":"subway","subway":"yes"}},{"type":"node","id":12074652916,"lat":31.3397681,"lon":120.6107752,"tags":{"name":"平河路","name:en":"Pinghe Lu","public_transport":"station","railway":"station","station":"subway","subway":"yes","wikidata":"Q7800259"}},{"type":"node","id":12074652955,"lat":31.3246088,"lon":120.6229106,"tags":{"name":"拙政园苏博","old_name":"拙政园","public_transport":"stop_position","railway":"stop","station":"subway","subway":"yes"}},{"type":"node","id":12074653109,"lat":31.3378485,"lon":120.5921557,"tags":{"name":"江星桥南","name:en":"Jiangxingqiao South","old_name":"江星路","public_transport":"stop_position","railway":"stop","station":"subway","subway":"yes"}},{"type":"node","id":12074653182,"lat":31.3246339,"lon":120.6230603,"tags":{"name":"拙政园苏博","old_name":"拙政园","public_transport":"stop_position","railway":"stop","station":"subway","subway":"yes"}},{"type":"node","id":12074653336,"lat":31.3379782,"lon":120.5921408,"tags":{"name":"江星桥南","name:en":"Jiangxingqiao South","old_name":"江星路","public_transport":"stop_position","railway":"stop","station":"subway","subway":"yes"}},{"type":"node","id":12080252737,"lat":31.3498172,"lon":120.5501055,"tags":{"name":"长泾","public_transport":"station","railway":"station","station":"subway","subway":"yes"}},{"type":"node","id":12167318914,"lat":31.3280575,"lon":120.5414957,"tags":{"name":"新元","old_name":"长江路（在建）","public_transport":"station","railway":"station","station":"subway","subway":"yes"}},{"type":"node","id":12215507890,"lat":31.8300092,"lon":119.982018,"tags":{"name":"新区公园","name:en":"Xinqu Park","operator":"常州地铁","public_transport":"station","railway":"station","station":"subway","subway":"yes","wikidata":"Q18652651"}},{"type":"node","id":12215522508,"lat":31.8652073,"lon":119.949747,"tags":{"name":"新桥","name:en":"Xinqiao","operator":"常州地铁","public_transport":"station","railway":"station","station":"subway","subway":"yes","wikidata":"Q18652950"}},{"type":"node","id":12215523698,"lat":31.8569412,"lon":119.951123,"tags":{"name":"常州北站","name:en":"Changzhou North Railway Station","operator":"常州地铁","public_transport":"station","railway":"station","station":"subway","subway":"yes","wikidata":"Q84081970"}},{"type":"node","id":12299823079,"lat":31.3020883,"lon":120.5524898,"tags":{"name":"塔园路","name:en":"Tayuan Road","operator":"SRT","public_transport":"stop_position","railway":"stop","station":"subway","subway":"yes"}},{"type":"node","id":12299823098,"lat":31.285653,"lon":120.5455897,"tags":{"name":"玉山路","name:en":"Yushan Road","operator":"SRT","public_transport":"stop_position","railway":"stop","station":"subway","subway":"yes","wikidata":"Q8061875"}},{"type":"node","id":12299823301,"lat":31.4327671,"lon":120.6294211,"tags":{"name":"朱泾","public_transport":"station","railway":"construction","station":"subway","subway":"yes"}},{"type":"node","id":12299823334,"lat":31.4227901,"lon":120.6497707,"tags":{"name":"雪南","old_name":"会展中心","public_transport":"station","railway":"construction","station":"subway","subway":"yes"}},{"type":"node","id":12299823361,"lat":31.4031726,"lon":120.6421273,"tags":{"name":"登云","old_name":"富元路","public_transport":"station","railway":"station","station":"subway","subway":"yes"}},{"type":"node","id":12299823500,"lat":31.4331534,"lon":120.6128584,"tags":{"name":"莫阳","public_transport":"station","railway":"construction","station":"subway","subway":"yes"}},{"type":"node","id":12299823512,"lat":31.4326363,"lon":120.6293517,"tags":{"name":"朱泾","public_transport":"station","railway":"construction","station":"subway","subway":"yes"}},{"type":"node","id":12299823545,"lat":31.4226659,"lon":120.6496867,"tags":{"name":"雪南","old_name":"会展中心","public_transport":"station","railway":"construction","station":"subway","subway":"yes"}},{"type":"node","id":12299823572,"lat":31.403189,"lon":120.6419603,"tags":{"name":"登云","old_name":"富元路","public_transport":"station","railway":"station","station":"subway","subway":"yes"}},{"type":"node","id":12299823711,"lat":31.433022,"lon":120.6127908,"tags":{"name":"莫阳","public_transport":"station","railway":"construction","station":"subway","subway":"yes"}},{"type":"node","id":12299824244,"lat":31.3022315,"lon":120.5524758,"tags":{"name":"塔园路","name:en":"Tayuan Road","operator":"SRT","public_transport":"stop_position","railway":"stop","station":"subway","subway":"yes"}},{"type":"node","id":12299824263,"lat":31.2856412,"lon":120.5454221,"tags":{"name":"玉山路","name:en":"Yushan Road","operator":"SRT","public_transport":"stop_position","railway":"stop","station":"subway","subway":"yes","wikidata":"Q8061875"}},{"type":"node","id":13392792192,"lat":31.4055581,"lon":120.6206667,"tags":{"name":"富元路","name:en":"Fuyuan Lu","public_transport":"station","railway":"station","station":"subway","subway":"yes","wikidata":"Q5510968"}},{"type":"node","id":13565836216,"lat":31.3063739,"lon":120.5968315,"tags":{"name":"广济南路","name:en":"Guangjinan Lu","name:zh-Hant":"廣濟南路","operator":"SRT","public_transport":"station","railway":"station","station":"subway","subway":"yes"}},{"type":"node","id":13566013436,"lat":31.3135205,"lon":120.5959818,"tags":{"name":"石路","name:en":"Shi Lu","public_transport":"station","railway":"station","station":"subway","subway":"yes","wikidata":"Q7496785"}},{"type":"node","id":13566013437,"lat":31.321804,"lon":120.5977835,"tags":{"name":"山塘街","name:en":"Shantang Jie","name:zh":"山塘街","name:zh-Hans":"山塘街","name:zh-Hant":"山塘街","public_transport":"station","railway":"station","station":"subway","subway":"yes","wheelchair":"yes","wikidata":"Q7651030","wikipedia":"zh:山塘街站"}},{"type":"node","id":13568717975,"lat":31.4330838,"lon":120.6128173,"tags":{"name":"莫阳","public_transport":"station","railway":"construction","station":"subway","subway":"yes"}},{"type":"node","id":13575331522,"lat":31.3554728,"lon":120.6194115,"tags":{"name":"陆慕","name:en":"Lumu","public_transport":"station","railway":"station","station":"subway","subway":"yes","wikidata":"Q7056430"}},{"type":"node","id":13575331523,"lat":31.3466597,"lon":120.6087604,"tags":{"name":"平泷路东","name:en":"Pinglonglu East","public_transport":"station","railway":"station","station":"subway","subway":"yes","wikidata":"Q5328676"}},{"type":"way","id":541572228,"center":{"lat":31.3001285,"lon":120.6194275},"nodes":[5236743323,5236743320,5236743321,5236743319,5236743318,5236743317,5236743316,5236743315,5236743314,5236743313,5236743312,5236743286,5236743311,5236743310,5236743309,5236743308,5236743307,5236743306,5236743305,5236743285,5236743304,5236743303,5236743302,5236743284,5236743301,5236743300,5236743299,5236743298,5236743297,5236743296,5236743295,5236743294,5236743293,5236743292,5236743291,5236743290,5236743289,5236743288,5236743287,5236743322,5236743323],"tags":{"name":"三元坊","network":"苏州轨道交通4号线","public_transport":"station","railway":"station","station":"subway","subway":"yes"}},{"type":"way","id":566130430,"center":{"lat":31.4238441,"lon":120.6407607},"nodes":[4703783918,5451238001,5451238002,4703783921,4703783918],"tags":{"building":"transportation","public_transport":"station","railway":"station","station":"subway","subway":"yes"}},{"type":"way","id":683963177,"center":{"lat":31.7703921,"lon":119.9570035},"nodes":[6407079758,6407079759,13063446958,13063446957,13063446997,13063447000,13063446987,13063446988,13063446981,13063446982,13063456401,13063446999,13063446962,13063446963,13063446966,13063446967,13063446968,13063446969,13063446965,13063446964,13063446961,6407079763,13063446959,13063446960,13063446992,13063446994,13063446996,13063446974,13063446975,13063446995,13063446993,13063446991,13063456403,13063456404,13063446979,13063446980,13063456405,13063456402,13063446956,13063446955,6407079758],"tags":{"internet_access":"wlan","name":"同济桥","name:en":"Tongji Bridge","operator":"常州地铁","public_transport":"station","railway":"station","station":"subway","subway":"yes"}},{"type":"way","id":689050002,"center":{"lat":31.8045795,"lon":119.9703005},"nodes":[6463518781,6463518773,10569709806,10569709809,10569709810,10569709807,6463518785,10569709800,6463518789,10569709804,10569709803,10569709801,12300593593,6463518776,6463518778,12300593587,12300593586,10569709795,10569709816,10569709799,10569709798,10569709796,12300593585,6463518806,12300593588,10569709792,12300593598,12300593599,8925284390,6975620471,12300593591,12300593592,10569709791,6463518781],"tags":{"layer":"-1","location":"underground","operator":"常州市轨道交通发展有限公司","public_transport":"station","railway":"station","station":"subway","subway":"yes"}},{"type":"way","id":690097873,"center":{"lat":31.661794,"lon":119.9439723},"nodes":[6474346958,11786114704,11786114724,11786114723,11786114701,11786114702,6474346959,11786114703,11786114731,11786114733,11786114728,11786114729,11786114732,11786114730,11147447522,11167797121,11167797122,11147447521,11786114716,11786114718,11786114719,11786114721,11786114720,11786114717,11786114670,11786114713,11786114714,11786114715,11786114711,11786114712,6474346960,6474346969,11147426298,11147426286,11147426287,11147426297,11147426296,6474346958],"tags":{"name":"武进沿江城际站","name:en":"Wujin Yanjiang Railway Station","name:zh":"武进沿江城际","network":"常州地铁","network:en":"Changzhou Metro","network:wikidata":"Q4507108","network:zh":"常州地铁","operator":"常州地铁","public_transport":"station","railway":"station","station":"subway","subway":"yes"}},{"type":"way","id":698151344,"center":{"lat":31.8562006,"lon":119.9624132},"nodes":[6556682665,6556682666,12157823136,12157823138,9747721318,9747721317,12157823137,12157823135,12157823130,12157823131,9747721312,9747721311,9747721314,12748834727,9747721313,12157823132,12157823129,6556682667,6556682668,12157823125,9747721308,9747721307,12157823127,12157823126,12157823133,9747721322,9747721321,12157823134,6556682665],"tags":{"layer":"-1","name":"北郊中学","name:en":"Beijiao High School","public_transport":"station","railway":"station","station":"subway","subway":"yes"}},{"type":"way","id":698151352,"center":{"lat":31.853516,"lon":119.9727072},"nodes":[12214368440,12214368441,12214368439,12214368433,9747721556,9747721555,12214368435,12214368437,12214368438,12214368436,9747721563,9747721562,12214368434,12214368442,12214368443,6556682734,6556682735,12214368449,12214368451,9747721568,9747721567,12214368450,12214368448,12214368444,12214368447,9747721572,9747721571,12214368446,12214368445,6556682736,12214368440],"tags":{"layer":"-1","name":"外国语学校","name:en":"Foreign Language School","operator":"常州地铁","public_transport":"station","railway":"station","station":"subway","subway":"yes"}},{"type":"way","id":704449837,"center":{"lat":31.8231094,"lon":119.9806775},"nodes":[6615726113,6615726114,12278754211,10284236216,10284236217,10284236218,10284236219,10284236220,10284236221,10284236222,10284236223,12278754210,12278754209,12278754203,10284236373,10284236374,12278754205,12278754204,12278754197,10284235932,10284235933,12278754199,12278754198,12278754190,12278754191,10284235920,10284235921,12278754196,12278754195,12278754194,12278754193,12278754192,6615726115,6615726116,12278754187,12278754189,10284235917,10284235918,12278754188,12278754186,12278754201,12278754202,10284235928,10284235929,12278754200,12278754207,12278754208,10284235936,10284235937,12278754206,12278754213,12278754214,10284236214,10284236215,12278754212,6615726113],"tags":{"layer":"-2","location":"underground","public_transport":"station","railway":"station","station":"subway","subway":"yes"}},{"type":"way","id":704449853,"center":{"lat":31.8131291,"lon":119.9768372},"nodes":[6615726190,6615726191,10284236906,10284236905,10284236908,12300593571,12300593570,12300593575,12300593577,10284236902,10284236901,10284236904,6615726192,6615726193,12300593573,9064955804,9064955803,9064955802,12300593574,12300593572,12300593566,12300593569,12300593567,9064955800,9064955799,9064955798,12300593568,6615726190],"tags":{"layer":"-2","location":"underground","public_transport":"station","railway":"station","station":"subway","subway":"yes"}},{"type":"way","id":717851969,"center":{"lat":31.7952473,"lon":119.9716073},"nodes":[6741853877,6741853878,11704439196,11704439195,11704439193,11047691294,11047691291,11047691292,12328144547,12328144544,6741853881,11704439191,12328144543,12328144545,12328144542,12328144541,6741853880,12328144540,12328144539,12328144538,12328144537,12328144536,12328144535,12328144534,12328144548,12328144549,12328144550,12328144546,6741853877],"tags":{"layer":"-2","location":"underground","name":"翠竹","name:en":"Cuizhu","operator":"常州地铁","public_transport":"station","railway":"station","station":"subway","subway":"yes"}},{"type":"way","id":717851976,"center":{"lat":31.7888589,"lon":119.969498},"nodes":[6741884312,6741884313,12376244294,12376244293,12376244292,12376244291,12376244290,12376244289,12376244288,12376244295,12376244298,12376244297,12376244296,6741884314,6741884315,9046822043,9046822044,11101252656,11101252655,11101252659,11101252660,11101252661,11101252658,6741884312],"tags":{"building":"transportation","layer":"-2","name":"常州火车站","operator":"常州地铁","public_transport":"station","railway":"station","station":"subway","subway":"yes","wikidata":"Q86729615","wikipedia":"zh:常州火车站 (地铁)"}},{"type":"way","id":717851988,"center":{"lat":31.7778671,"lon":119.9598967},"nodes":[6741884358,11011040999,8873583118,8872955765,8873583117,11011041002,11011041003,8872955764,11011041004,11011041000,11011041001,11011040997,11011092705,12698858413,11011092708,11011092707,12698858414,6741884373,11011092710,8873583174,11011092712,8873583172,11011092713,11011092711,11011092709,8873583167,8873583168,11011092715,11011092719,11011092716,8873583169,11011092718,11011092717,8873583171,11047691357,11047691356,11011092720,11011092721,11011092724,6741884374,11011092723,11011092722,6741884359,11011040987,11011040988,11011040992,6741884376,11011040993,11011040991,11011040990,6741884378,11011040989,8873583204,11011092726,11011092727,11011092728,11011092734,11011092731,11011092732,6741884380,11011092733,11011092730,11011092729,11011092725,6741884360,6741884361,6741884382,6741884366,11011040994,11011092753,11011092752,11011040996,8872955799,8872955798,8872955797,8872955796,8872955795,11011040995,8873583203,6741884358],"tags":{"building":"train_station","layer":"-1","location":"underground","name":"文化宫","name:en":"Palace of Culture","operator":"常州地铁","public_transport":"station","railway":"station","station":"subway","subway":"yes"}},{"type":"way","id":717851989,"center":{"lat":31.7779971,"lon":119.9574397},"nodes":[6741884363,11011092762,11011092764,8872942396,6741884369,8878667591,11011092763,11011092761,11011092760,6741884403,6275139820,8873583205,11011092767,11011092766,11011092769,11011092771,11011092775,6741884390,11011092774,11011092772,8873583206,11011092773,11011092770,6741884392,11011092777,11011092779,11011092780,6741884398,11011092783,11011092781,6279045242,6279045241,6741884397,11011092782,11011092778,6741884400,6741884386,6741884387,6741884396,8872955769,11011092785,11011092788,6741884393,11011092787,11011092786,11011092784,6741884401,6741884385,11011092755,11011092758,6741884383,11011092757,11011092756,6741884364,8778201734,11011092747,8872955766,11011092748,11011092746,8872955768,11011092750,8872955767,11011092749,11011092744,6741884382,6741884366,11011040994,11011092753,11011092752,6741884406,6741884363],"tags":{"building":"train_station","layer":"-2","location":"underground","name":"文化宫","name:en":"Palace of Culture","operator":"常州地铁","public_transport":"station","railway":"station","station":"subway","subway":"yes"}},{"type":"way","id":745613539,"center":{"lat":31.4387193,"lon":120.2670672},"nodes":[6979058483,6979058484,7018485885,6979063086,6979058483],"tags":{"layer":"-1","name":"南方泉","name:en":"Nanfangquan","public_transport":"station","railway":"station","station":"subway","subway":"yes"}},{"type":"way","id":834600026,"center":{"lat":31.628399,"lon":120.2997032},"nodes":[7790852679,7790852680,7790852681,7790852682,7790852683,7790852684,7790867685,7790852679],"tags":{"building":"yes","name":"刘潭站","public_transport":"station","railway":"station","station":"subway","subway":"yes"}},{"type":"way","id":839519074,"center":{"lat":31.6396831,"lon":120.2997276},"nodes":[7833976155,7833976156,7833976157,7833976158,7833976155],"tags":{"building":"yes","name":"天一站","public_transport":"station","railway":"station","station":"subway","subway":"yes"}},{"type":"way","id":839519075,"center":{"lat":31.6476709,"lon":120.2990138},"nodes":[7833976159,7833976160,7833976161,7833976162,7833976159],"tags":{"building":"yes","name":"西漳站","public_transport":"station","railway":"station","station":"subway","subway":"yes"}},{"type":"way","id":948337614,"center":{"lat":31.7724064,"lon":119.9681646},"nodes":[8778201735,8778201748,8778201751,8778201736,8778201737,8778201745,8906387229,8906387232,8778201738,8778201735],"tags":{"layer":"-1","location":"underground","name":"红梅公园","operator":"常州地铁","public_transport":"station","railway":"station","station":"subway","subway":"yes"}},{"type":"way","id":948337622,"center":{"lat":31.7707713,"lon":120.000938},"nodes":[8778201772,8778201773,11786114993,11786114991,11786114992,11786114990,11786114985,11786114988,11786114987,11786114989,11786114986,11786114984,11786114969,11786114973,11786114970,11786114971,11786114972,11786114961,11786114962,11786114963,11786114964,11786114996,11786115000,11786115001,11786114998,11786114997,11786115002,11786114999,11786114995,8778201772],"tags":{"layer":"-1","location":"underground","name":"紫云","name:en":"Ziyun","network":"常州地铁","network:en":"Changzhou Metro","network:wikidata":"Q4507108","network:zh":"常州地铁","operator":"常州地铁","public_transport":"station","railway":"station","station":"subway","subway":"yes"}},{"type":"way","id":948337652,"center":{"lat":31.7884193,"lon":119.9239643},"nodes":[8778201884,8778201885,8778201886,8778201887,10864187568,8778201884],"tags":{"layer":"-1","location":"underground","public_transport":"station","railway":"station","station":"subway","subway":"yes"}},{"type":"way","id":1097483086,"center":{"lat":31.6615789,"lon":119.9416755},"nodes":[10049040278,11785915758,11785915760,11785915762,11785915764,11785915765,11785915763,11785915761,11785915759,10049040279,11167797136,11167797133,11167797132,11167797129,11786114671,12585148686,11147447423,11147447422,11167797123,11786114674,11786114673,11786114672,11167797128,11167797122,11167797121,11167797127,11167797126,11167797125,11167797124,10049040278],"tags":{"name":"武进沿江城际站","network":"常州地铁","network:en":"Changzhou Metro","network:wikidata":"Q4507108","network:zh":"常州地铁","operator":"常州地铁","public_transport":"station","railway":"station","station":"subway","subway":"yes"}},{"type":"way","id":1190853705,"center":{"lat":31.3216238,"lon":120.5978492},"nodes":[11056988271,11056988247,11056988248,11056988249,11056988250,11056988251,11056988252,11056988253,11056988254,11056988255,11056988256,11056988257,11056988258,11056988259,11056988260,11056988261,11056988262,11056988263,11056988264,11056988265,11056988266,11056988267,11056988268,11056988269,11056988270,11056988279,11056988278,11056988277,11056988276,11056988275,11056988274,11056988273,11056988272,11056988271],"tags":{"building":"train_station","layer":"-1","location":"underground","public_transport":"station","railway":"station","station":"subway","subway":"yes"}},{"type":"way","id":1267623045,"center":{"lat":31.2872345,"lon":120.5943892},"nodes":[11773069424,11773069423,11773069422,11773069421,11773069420,11773069419,11773069418,11773069417,11773069416,11773069415,11773069414,11773069413,11773069412,11773069411,11773069410,11773069409,11773069408,11773069407,11773069406,11773069405,11773069404,11773069403,11773069402,11773069401,11773069400,11773069399,11773069398,11773069397,11773069396,11773069395,11773069394,11773069424],"tags":{"building":"train_station","layer":"-1","location":"underground","public_transport":"station","railway":"station","station":"subway","subway":"yes"}},{"type":"way","id":1267677563,"center":{"lat":31.2999662,"lon":120.5937434},"nodes":[11773514511,11773514510,11773514509,11773514508,11773514507,11773514506,11773514505,11773514504,11773514503,11773514502,11773514501,11773514500,11773514499,11773514498,11773514497,11773514496,11773514511],"tags":{"building":"train_station","layer":"-1","location":"underground","public_transport":"station","station":"subway","subway":"yes"}},{"type":"way","id":1267677565,"center":{"lat":31.2935239,"lon":120.5926041},"nodes":[11773514539,11773514540,11773514541,11773514542,11773514543,11773514544,11773514545,11773514546,11773514547,11773514548,11773514549,11773514550,11773514551,11773514552,11773514553,11773514554,11773514555,11773514556,11773514557,11773514558,11773514559,11773514560,11773514561,11773514562,11773514563,11773514564,11773514565,11773514566,11773514567,11773514568,11773514569,11773514583,11773514582,11773514581,11773514580,11773514579,11773514578,11773514577,11773514576,11773514575,11773514574,11773514570,11773514571,11773514572,11773514573,11773514610,11773514609,11773514608,11773514607,11773514606,11773514605,11773514604,11773514603,11773514602,11773514601,11773514600,11773514599,11773514598,11773514597,11773514596,11773514595,11773514594,11773514593,11773514592,11773514591,11773514590,11773514589,11773514588,11773514587,11773514586,11773514585,11773514584,11773514539],"tags":{"building":"train_station","layer":"-1","location":"underground","public_transport":"station","station":"subway","subway":"yes"}},{"type":"way","id":1268935380,"center":{"lat":31.6676981,"lon":119.9565036},"nodes":[11786114684,11786114785,11786114786,11786114685,11786114784,11786114783,11786114782,11786114690,11786114781,11786114797,11786114798,11786114799,11786114800,11786114801,11786114796,11786114795,11786114693,11786114686,11786114687,11786114691,11786114692,11786114788,11786114790,11786114792,11786114794,11786114793,11786114791,11786114789,11786114787,11786114776,11786114778,11786114777,11786114780,11786114779,11786114698,11786114689,11786114688,11786114684],"tags":{"name":"和平路(建设中)","public_transport":"station","railway":"station","station":"subway","subway":"yes"}},{"type":"way","id":1268935385,"center":{"lat":31.6732662,"lon":119.9702836},"nodes":[11786114734,11786114735,11786114736,11786114737,11786114802,11786114806,11786114808,11786114807,11786114809,11786114805,11786114804,11786114803,11786114814,11786114818,11786114819,11786114827,11786114826,11786114815,11786114752,11786114738,11786114739,11786114740,11786114741,11786114742,11786114832,11786114831,11786114743,11786114829,11786114753,11786114830,11786114828,11786114817,11786114822,11786114823,11786114824,11786114821,11786114825,11786114820,11786114816,11786114810,11786114811,11786114812,11786114813,11786114744,11786114745,11786114734],"tags":{"name":"科教城东(建设中)","public_transport":"station","railway":"station","station":"subway","subway":"yes"}},{"type":"way","id":1268935387,"center":{"lat":31.6997603,"lon":119.9712974},"nodes":[11786114759,11786114760,11786114761,11786114762,11786114763,11786114764,11786114765,11786114766,11786114767,11786114768,11786114769,11786114770,11786114771,11786114759],"tags":{"name":"延政东路(建设中)","public_transport":"station","railway":"station","station":"subway","subway":"yes"}},{"type":"way","id":1268935389,"center":{"lat":31.6844918,"lon":119.9717253},"nodes":[11786114833,11786114834,11786114835,11786114836,11786114837,11786114838,11786114839,11786114840,11786114841,11786114842,11786114843,11786114844,11786114833],"tags":{"name":"天润大道(建设中)","public_transport":"station","railway":"station","station":"subway","subway":"yes"}},{"type":"way","id":1268935391,"center":{"lat":31.7195247,"lon":119.9743166},"nodes":[11786114849,11786114850,11786114851,11786114852,11786114853,11786114854,11786114855,11786114856,11786114857,11786114858,11786114859,11786114860,11786114849],"tags":{"name":"定安路(建设中)","public_transport":"station","railway":"station","station":"subway","subway":"yes"}},{"type":"way","id":1268935393,"center":{"lat":31.7074546,"lon":119.9716122},"nodes":[11786114866,11786114867,11786114868,11786114869,11786114870,11786114871,11786114872,11786114873,11786114874,11786114875,11786114876,11786114877,11786114866],"tags":{"name":"湖塘纺织城(建设中)","public_transport":"station","railway":"station","station":"subway","subway":"yes"}},{"type":"way","id":1268935395,"center":{"lat":31.7320655,"lon":119.973909},"nodes":[11786114882,11786114883,11786114884,11786114885,11786114886,11786114887,11786114888,11786114889,11786114890,11786114891,11786114892,11786114893,11786114882],"tags":{"name":"贺北(建设中)","public_transport":"station","railway":"station","station":"subway","subway":"yes"}},{"type":"way","id":1268935397,"center":{"lat":31.7496781,"lon":119.9736862},"nodes":[11786114898,11786114899,11786114900,11786114901,11786114902,11786114903,11786114904,11786114905,11786114906,11786114907,11786114908,11786114909,11786114898],"tags":{"name":"丽华(建设中)","public_transport":"station","railway":"station","station":"subway","subway":"yes"}},{"type":"way","id":1268935399,"center":{"lat":31.7616661,"lon":119.9751959},"nodes":[11786114914,11786114915,11786114916,11786114917,11786114918,11786114919,11786114920,11786114921,11786114922,11786114923,11786114924,11786114925,11786114914],"tags":{"name":"朝阳(建设中)","public_transport":"station","railway":"station","station":"subway","subway":"yes"}},{"type":"way","id":1268935401,"center":{"lat":31.7647869,"lon":119.983543},"nodes":[11786114930,11786114931,11786114932,11786114933,11786114934,11786114935,11786114936,11786114937,11786114938,11786114939,11786114940,11786114941,11786114930],"tags":{"name":"兆丰(建设中)","public_transport":"station","railway":"station","station":"subway","subway":"yes"}},{"type":"way","id":1268935403,"center":{"lat":31.771011,"lon":119.9995885},"nodes":[11786114946,11786114947,11786115003,11786115005,11786115006,11786114948,11786114949,11786115008,11786115007,11786115004,11786115012,11786115014,11786115015,11786115017,11786115016,11786115013,11786115018,11786115022,11786115023,11786115021,11786115019,11786115020,11786114950,11786114951,11786114952,11786115024,11786115027,11786115028,11786115025,11786114953,11786114954,11786114955,8778201773,8778201772,11786115009,11786115010,11786114956,11786115011,11786114946],"tags":{"name":"紫云(建设中)","public_transport":"station","railway":"station","station":"subway","subway":"yes"}},{"type":"way","id":1268935407,"center":{"lat":31.785145,"lon":120.00305},"nodes":[11786115029,11786115030,11786115031,11786115032,11786115033,11786115034,11786115035,11786115036,11786115037,11786115038,11786115039,11786115040,11786115029],"tags":{"name":"紫荆公园(建设中)","public_transport":"station","railway":"station","station":"subway","subway":"yes"}},{"type":"way","id":1268935409,"center":{"lat":31.79957,"lon":120.000817},"nodes":[11786115045,11786115046,11786115047,11786115048,11786115062,11786115061,11786115049,11786115050,11786115051,11786115052,11786115053,11786115054,11786115055,11786115056,11786115045],"tags":{"name":"东经120(建设中)","public_transport":"station","railway":"station","station":"subway","subway":"yes"}},{"type":"way","id":1268935411,"center":{"lat":31.7993164,"lon":120.001851},"nodes":[11786115061,11786115062,11786115063,11786115064,11786115065,11786115066,11786115067,11786115068,11786115069,11786115070,11786115061],"tags":{"name":"东经120(建设中)","public_transport":"station","railway":"station","station":"subway","subway":"yes"}},{"type":"way","id":1268935413,"center":{"lat":31.8077868,"lon":120.0010573},"nodes":[11786115075,11786115076,11786115077,11786115078,11786115079,11786115080,11786115081,11786115082,11786115083,11786115084,11786115085,11786115086,11786115075],"tags":{"name":"北塘河路(建设中)","public_transport":"station","railway":"station","station":"subway","subway":"yes"}},{"type":"way","id":1268935415,"center":{"lat":31.8180448,"lon":120.0008217},"nodes":[11786115091,11786115092,11786115093,11786115094,11786115095,11786115096,11786115097,11786115098,11786115099,11786115100,11786115101,11786115102,11786115091],"tags":{"name":"恐龙园(建设中)","public_transport":"station","railway":"station","station":"subway","subway":"yes"}},{"type":"way","id":1268935417,"center":{"lat":31.8287049,"lon":119.9914114},"nodes":[11786115109,11786115110,11786115111,11786115112,11786115113,11786115114,11786115115,11786115116,11786115117,11786115118,11786115119,11786115120,11786115109],"tags":{"name":"汉江路(建设中)","public_transport":"station","railway":"station","station":"subway","subway":"yes"}},{"type":"way","id":1268935421,"center":{"lat":31.8317219,"lon":119.9736714},"nodes":[11786115141,11786115142,11786115143,11786115144,11786115145,11786115146,11786115147,11786115148,11786115149,11786115150,11786115151,11786115152,11786115141],"tags":{"name":"通江路(建设中)","public_transport":"station","railway":"station","station":"subway","subway":"yes"}},{"type":"way","id":1268935423,"center":{"lat":31.8353562,"lon":119.9612309},"nodes":[11786115157,11786115158,11786115159,11786115160,11786115161,11786115162,11786115163,11786115164,11786115165,11786115166,11786115167,11786115168,11786115157],"tags":{"name":"泰山路(建设中)","public_transport":"station","railway":"station","station":"subway","subway":"yes"}},{"type":"way","id":1268935425,"center":{"lat":31.8453331,"lon":119.9464534},"nodes":[11786115173,11786115174,11786115175,11786115176,11786115177,11786115178,11786115179,11786115180,11786115181,11786115182,11786115183,11786115184,11786115173],"tags":{"name":"长江路(建设中)","public_transport":"station","railway":"station","station":"subway","subway":"yes"}}]}