{"version":0.6,"generator":"Overpass API 0.7.62.11 87bfad18","osm3s":{"timestamp_osm_base":"2026-07-10T13:57:00Z","copyright":"The data included in this document is from www.openstreetmap.org. The data is made available under ODbL."},"elements":[{"type":"node","id":654082162,"lat":35.6908759,"lon":51.3883603,"tags":{"name":"ایستگاه مترو میدان حر","name:ar":"ساحة هار","name:en":"Meydan-e Hor metro station","name:fa":"میدان حر","name:hi":"हुर मैदान","name:ml":"മെയ്ദാനെ ഹൊർ","public_transport":"stop_position","railway":"station","station":"subway","subway":"yes"}},{"type":"node","id":659782107,"lat":35.6923351,"lon":51.4331713,"tags":{"name":"ایستگاه مترو بهارستان","name:ar":"بهارستان","name:en":"Baharestan metro station","name:fa":"بهارستان","name:hi":"बहारिस्तान","name:ml":"ബഹാറെസ്ഥാൻ","public_transport":"stop_position","railway":"station","station":"subway","subway":"yes"}},{"type":"node","id":659784460,"lat":35.6883561,"lon":51.426721,"tags":{"name":"ایستگاه مترو ملت","name:ar":"ملت","name:en":"Mellat metro station","name:fa":"ملت","name:hi":"मिल्लत","name:ml":"മെല്ലത്ത്","public_transport":"stop_position","railway":"station","station":"subway","subway":"yes","wikidata":"Q2371897"}},{"type":"node","id":660628303,"lat":35.7090585,"lon":51.4529655,"tags":{"name":"ایستگاه مترو شهید مدنی","name:ar":"الشهيد مدني","name:en":"Shahid Madani metro station","name:fa":"شهید مدنی","name:hi":"शहीद मदनी","name:ml":"ഷഹീദ് മദനി","public_transport":"stop_position","railway":"station","station":"subway","subway":"yes","wikidata":"Q2372962"}},{"type":"node","id":660628364,"lat":35.7182413,"lon":51.4645702,"tags":{"name":"ایستگاه مترو سبلان","name:ar":"سبلان","name:en":"Sabalan metro station","name:fa":"سبلان","name:hi":"सबालान","name:ml":"സബലാൻ","public_transport":"stop_position","railway":"station","station":"subway","subway":"yes","wikidata":"Q2371990"}},{"type":"node","id":660628705,"lat":35.7357324,"lon":51.4947992,"tags":{"name":"ایستگاه مترو سرسبز","name:ar":"سرسبز","name:en":"Sarsabz metro station","name:fa":"سرسبز","name:hi":"सरसब्ज़","name:ml":"സർസബ്സ്","public_transport":"stop_position","railway":"station","station":"subway","subway":"yes","vending_machine":"coffe","wikidata":"Q2373650","wikimedia_commons":"Category:Sarsabz Metro Station"}},{"type":"node","id":660628852,"lat":35.7344204,"lon":51.5049701,"tags":{"name":"ایستگاه مترو دانشگاه علم و صنعت","name:ar":"جامعة العلوم والتكنولوجيا","name:en":"Daneshgah-e Elm-o San'at Metro Station","name:fa":"دانشگاه علم و صنعت","name:hi":"विज्ञान और उद्योग विश्वविद्यालय","name:ml":"ദാനെഷ്ഗ എൽമ് ഒ-സനാത്ത്","public_transport":"stop_position","railway":"station","station":"subway","subway":"yes"}},{"type":"node","id":660636159,"lat":35.6508488,"lon":51.4162934,"tags":{"name":"ایستگاه مترو پایانه جنوب","name:ar":"المحطة الجنوبية","name:en":"Payaneh Jonoub","name:fa":"پایانه جنوب","name:hi":"पायाने-ए जनूब","name:ml":"പായാനെ ജനൂബ്","old_name":"ترمینال جنوب","public_transport":"stop_position","railway":"stop","station":"subway","subway":"yes"}},{"type":"node","id":660637545,"lat":35.6573519,"lon":51.4142572,"tags":{"name":"ایستگاه مترو شوش","name:ar":"شوش","name:en":"Shoush","name:fa":"شوش","name:hi":"शूश","name:ml":"ഷൂഷ്","public_transport":"stop_position","railway":"stop","station":"subway","subway":"yes"}},{"type":"node","id":660658572,"lat":35.7488862,"lon":51.4262979,"tags":{"name":"ایستگاه مترو شهید همت","name:ar":"الشهيد همت","name:en":"Shahid Hemmat","name:fa":"شهید همت","name:hi":"शहीद हिम्मत","name:ml":"ഷഹീദ് ഹെമ്മത്ത്","public_transport":"station","railway":"station","station":"subway","subway":"yes","wikidata":"Q2372998","wikipedia":"fa:ایستگاه متروی شهید همت"}},{"type":"node","id":864404756,"lat":35.7057728,"lon":51.3541752,"tags":{"name":"ایستگاه مترو دانشگاه شریف","name:ar":"جامعة شريف","name:en":"Sharif University Metro Station","name:fa":"دانشگاه شریف","name:hi":"शरीफ़ विश्वविद्यालय","name:ml":"ഷരീഫ് സർവകലാശാല","public_transport":"stop_position","railway":"station","station":"subway","subway":"yes","wikidata":"Q2372225"}},{"type":"node","id":2120217849,"lat":35.7160834,"lon":51.3435808,"tags":{"name":"ایستگاه مترو طرشت","name:ar":"طرشت","name:en":"Tarasht metro station","name:fa":"طرشت","name:hi":"तरश्त","name:ml":"തറഷ്ത്","public_transport":"stop_position","railway":"station","station":"subway","subway":"yes","wikidata":"Q2372268"}},{"type":"node","id":2169380700,"lat":35.7727016,"lon":51.4380971,"tags":{"name":"ایستگاه مترو قلهک","name:ar":"قلهك","name:en":"Gholhak","name:fa":"قلهک","name:hi":"क़ुल्हक","name:ml":"ഗൊൽഹക്ക്","public_transport":"station","railway":"station","station":"subway","subway":"yes","wikidata":"Q2371957","wikipedia":"fa:ایستگاه متروی قلهک"}},{"type":"node","id":2169732971,"lat":35.6904567,"lon":51.4568004,"tags":{"alt_name":"شیخ الرئیس","name":"ایستگاه مترو ابن سینا","name:ar":"ابن سينا","name:en":"Ebne Sina metro station","name:fa":"ابن سینا","name:hi":"इब्न सीना","name:ml":"ഇബ്നു സീന","public_transport":"stop_position","railway":"station","station":"subway","subway":"yes","wikidata":"Q55639627"}},{"type":"node","id":2169732984,"lat":35.7001565,"lon":51.3447089,"tags":{"name":"ایستگاه مترو استاد معین","name:ar":"استاد معین","name:en":"Ostad Moein Metro Station","name:fa":"استاد معین","name:hi":"उस्ताद मोईन","name:ml":"ഉസ്താദ് മൊയീൻ","public_transport":"stop_position","railway":"station","station":"subway","subway":"yes","wikidata":"Q7107559"}},{"type":"node","id":2831259315,"lat":35.7205082,"lon":51.4084156,"tags":{"alt_name":"ایستگاه مترو فاطمی","alt_name:en":"Fatemi Metro Station","name":"ایستگاه مترو میدان جهاد","name:ar":"ساحة الجهاد","name:de":"Jahad-Platz","name:en":"Meydan-e Jahad Metro Station","name:fa":"میدان جهاد","name:hi":"जहाद मैदान","name:it":"Meidan e Jahad","name:ml":"മെയ്ദാനെ ജഹാദ്","public_transport":"stop_position","railway":"station","station":"subway","subway":"yes","wikidata":"Q20718062"}},{"type":"node","id":3080821096,"lat":35.72658,"lon":51.4756588,"tags":{"name":"ایستگاه مترو فدک","name:ar":"فدك","name:en":"Fadak metro station","name:fa":"فدک","name:hi":"फ़दक","name:ml":"ഫദക്ക്","public_transport":"stop_position","railway":"station","station":"subway","subway":"yes","wheelchair":"limited","wikidata":"Q2371865"}},{"type":"node","id":3635251445,"lat":35.6595032,"lon":51.3977283,"tags":{"name":"ایستگاه مترو راه آهن","name:ar":"السكك الحديدية","name:en":"Rah Ahan Metro Station","name:fa":"راه آهن","name:hi":"राह अहन","name:ml":"റാ ആഹൻ","name:ru":"Рах Ахан","operator":"مترو تهران","public_transport":"station","railway":"station","station":"subway","subway":"yes","wheelchair":"limited","wikidata":"Q17991377","wikipedia":"fa:ایستگاه متروی راه‌آهن (تهران)"}},{"type":"node","id":3641204693,"lat":35.6593516,"lon":51.387791,"tags":{"addr:city":"تهران","addr:street":"نادر زربافیان","name":"ایستگاه مترو جوادیه","name:ar":"جوادية","name:en":"Javadiyeh Metro Station","name:fa":"جوادیه","name:hi":"जवादिया","name:ml":"ജവാദിയെ","operator":"مترو تهران","public_transport":"stop_position","railway":"station","station":"subway","subway":"yes","wikidata":"Q17991375"}},{"type":"node","id":3649760926,"lat":35.6811307,"lon":51.401641,"tags":{"name":"ایستگاه مترو منیریه","name:ar":"منيرية","name:en":"Moniriyeh Metro Station","name:fa":"منیریه","name:hi":"मुनीरिया","name:ml":"മൊനീറിയെ","public_transport":"stop_position","railway":"station","station":"subway","subway":"yes","wikidata":"Q17991382"}},{"type":"node","id":3649760928,"lat":35.6442232,"lon":51.3685225,"tags":{"name":"ایستگاه مترو شهرک شریعتی","name:ar":"مدينة شريعتي","name:en":"Shahrak-e Shariati Metro Station","name:fa":"شهرک شریعتی","name:hi":"शहरक-ए-शरीयती","name:ml":"ഷഹ്റക്കെ ഷറീയത്തി","public_transport":"stop_position","railway":"station","station":"subway","subway":"yes","wikidata":"Q20718131"}},{"type":"node","id":3691224155,"lat":35.6861227,"lon":51.4101573,"tags":{"name":"ایستگاه مترو حسن آباد","name:ar":"حسن أباد","name:en":"Hassan Abad metro station","name:fa":"حسن آباد","name:hi":"हसनाबाद","name:ml":"ഹസ്സനാബാദ്","public_transport":"stop_position","railway":"station","station":"subway","subway":"yes","wikidata":"Q2372305"}},{"type":"node","id":3778792864,"lat":35.6874074,"lon":51.3990742,"tags":{"name":"ایستگاه مترو دانشگاه امام علی ع","name:ar":"جامعة الامام علي","name:en":"Daneshgah-e Imam Ali metro station","name:fa":"دانشگاه امام علی(ع)","name:hi":"इमाम अली विश्वविद्यालय","name:ml":"ദാനെഷ്ഗാഹെ ഇമാം അലി","note":"این ایستگاه مترو بسته شده است.\nThis subway station is closed.","public_transport":"stop_position","railway":"station","station":"subway","subway":"yes","wheelchair":"no","wikidata":"Q2371488"}},{"type":"node","id":3778821747,"lat":35.73134,"lon":51.4447877,"tags":{"name":"ایستگاه مترو شهید قدوسی","name:ar":"الشهيد قدوسي","name:en":"Shahid Ghoddoosi Metro Station","name:fa":"شهید قدوسی","name:hi":"शहीद कुद्दूसी","name:ml":"ഷഹീദ് ഖുദ്ദൂസി","public_transport":"station","railway":"station","station":"subway","subway":"yes","wheelchair":"no","wikidata":"Q27063105"}},{"type":"node","id":3778822187,"lat":35.772078,"lon":51.4731866,"tags":{"name":"ایستگاه مترو میدان هروی","name:ar":"ميدان هروي","name:en":"Heravi Square Metro Station","name:fa":"میدان هروی","name:hi":"हिरवी मैदान","name:ml":"ഹെറവി","public_transport":"station","railway":"station","station":"subway","subway":"yes","wikidata":"Q28713954"}},{"type":"node","id":3778861785,"lat":35.7311282,"lon":51.4367691,"tags":{"name":"ایستگاه مترو سهروردی","name:ar":"سهروردي","name:en":"Sohrevardi Metro Station","name:fa":"سهروردی","name:hi":"सुहरेवर्दी","name:ml":"സൊഹ്രെവർദി","public_transport":"stop_position","railway":"station","station":"subway","subway":"yes","wikidata":"Q26433876"}},{"type":"node","id":3778861786,"lat":35.7355601,"lon":51.4583975,"tags":{"name":"ایستگاه مترو شهید صیاد شیرازی","name:ar":"الشهيد صياد الشيرازي","name:en":"Shahid Sayyad-e Shirazi Metro Station","name:fa":"شهید صیاد شیرازی","name:hi":"शहीद सैयाद-ए शीराज़ी","name:ml":"ഷഹീദ് സയ്യാദ് ഷിറാസി","public_transport":"stop_position","railway":"station","station":"subway","subway":"yes","wikidata":"Q27792585"}},{"type":"node","id":3778861787,"lat":35.7434577,"lon":51.4621422,"tags":{"name":"ایستگاه مترو خواجه عبدالله انصاری","name:ar":"خواجة عبد الله أنصاري","name:en":"Khajeh Abdollah-e Ansari Metro Station","name:fa":"خواجه عبدالله انصاری","name:hi":"ख्वाजा अब्दुल्ला-ए अंसारी","name:ml":"ഖാജെ അബ്ദൊല്ലാഹെ അൻസാറി","public_transport":"stop_position","railway":"station","station":"subway","subway":"yes","wheelchair":"limited","wikidata":"Q25252241"}},{"type":"node","id":3778861789,"lat":35.7789408,"lon":51.4786726,"tags":{"alt_name:ml":"ഹുസൈനാബാദ്","name":"ایستگاه مترو حسین آباد","name:ar":"حسین آباد","name:en":"Hossein Abad Metro Station","name:fa":"حسین آباد","name:hi":"हुसैनाबाद","name:ml":"ഹൊസെയ്നാബാദ്","public_transport":"stop_position","railway":"station","station":"subway","subway":"yes","wikidata":"Q28713625"}},{"type":"node","id":3778861790,"lat":35.7903188,"lon":51.479379,"tags":{"name":"ایستگاه مترو نوبنیاد","name:ar":"نوبنیاد","name:en":"Nobonyad Metro Station","name:fa":"نوبنیاد","name:hi":"नोबुनयाद","name:ml":"നൊബന്യാദ്","public_transport":"stop_position","railway":"station","station":"subway","subway":"yes","wikidata":"Q21064666"}},{"type":"node","id":3784645922,"lat":35.6679421,"lon":51.4623861,"tags":{"name":"ایستگاه مترو چهل تن دولاب","name:ar":"تشهل تن دولاب","name:en":"Chehel Tan Dowlab metro station","name:fa":"چهل تن دولاب","name:hi":"चेहेल तन दौलाब","name:ml":"ചഹൽ തൻ ദൗലബ്","public_transport":"stop_position","railway":"station","station":"subway","subway":"yes"}},{"type":"node","id":3784645934,"lat":35.6697324,"lon":51.4364777,"tags":{"name":"ایستگاه مترو میدان قیام","name:ar":"ساحة الانتفاضة","name:en":"Ghiyam Square metro station","name:fa":"میدان قیام","name:fa-Latn":"Meydan-e Ghiyam","name:hi":"कियाम मैदान","name:ml":"മൈദാൻ ഖിയാം","public_transport":"stop_position","railway":"station","station":"subway","subway":"yes"}},{"type":"node","id":3784645954,"lat":35.6677915,"lon":51.3870914,"tags":{"name":"ایستگاه مترو هلال احمر","name:ar":"هلال احمر","name:en":"Helal Ahmar metro station","name:fa":"هلال احمر","name:hi":"हिलाल अहमर","name:ml":"ഹെലാൽ അഹ്മർ","public_transport":"stop_position","railway":"station","station":"subway","subway":"yes"}},{"type":"node","id":3784648857,"lat":35.777281,"lon":51.3558412,"tags":{"name":"میدان کتاب","name:ar":"ساحة الكتاب","name:en":"Ketab Square","name:fa":"میدان کتاب","name:hi":"किताब मैदान","name:ml":"കിത്താബ് ചത്വരം","public_transport":"stop_position","railway":"station","station":"subway","subway":"yes","wikidata":"Q122923402"}},{"type":"node","id":3784648871,"lat":35.669217,"lon":51.4722,"tags":{"name":"ایستگاه مترو آهنگ","name:ar":"آهنغ","name:en":"Ahang metro station","name:fa":"آهنگ","name:hi":"आहंग","name:ml":"ആഹംഗ്","public_transport":"stop_position","railway":"station","station":"subway","subway":"yes"}},{"type":"node","id":3784648875,"lat":35.6692573,"lon":51.4288083,"tags":{"name":"ایستگاه مترو مولوی","name:ar":"مولوي","name:en":"Molavi metro station","name:fa":"مولوی","name:hi":"मौलवी","name:ml":"മൗലവി","public_transport":"stop_position","railway":"station","station":"subway","subway":"yes","wikidata":"Q78153724"}},{"type":"node","id":3784648883,"lat":35.7320386,"lon":51.3827505,"tags":{"name":"ایستگاه مترو بوستان گفتگو","name:ar":"حديقة غفتغو","name:en":"Goftegou Park metro station","name:fa":"بوستان گفتگو","name:hi":"गुफ्तगू पार्क","name:ml":"ഗൊഫ്തെഗൂ പാർക്ക്","public_transport":"stop_position","railway":"station","station":"subway","subway":"yes"}},{"type":"node","id":3784648884,"lat":35.7474221,"lon":51.3790751,"tags":{"name":"ایستگاه مترو برج میلاد تهران","name:ar":"برج الميلاد طهران","name:en":"Borj-e Milad-e Tehran metro station","name:fa":"برج میلاد تهران","name:hi":"बुर्ज-ए मिलाद-ए तेहरान","name:ml":"ബൊർജെ മിലാദെ ടെഹ്റാൻ","public_transport":"stop_position","railway":"station","station":"subway","subway":"yes","wheelchair":"yes","wikidata":"Q101957215"}},{"type":"node","id":3784648885,"lat":35.7543831,"lon":51.3679617,"tags":{"name":"ایستگاه مترو میدان صنعت","name:ar":"ساحة الصناعة","name:en":"San'at Square metro station","name:fa":"میدان صنعت","name:hi":"सनात मैदान","name:ml":"സനാത്ത് ചത്വരം","public_transport":"stop_position","railway":"station","station":"subway","subway":"yes","wikidata":"Q31069747"}},{"type":"node","id":3815456806,"lat":35.7316901,"lon":51.3705088,"tags":{"name":"ایستگاه مترو شهرک آزمایش","name:ar":"مدينة آزمایش","name:en":"Shahrak Azmayesh Metro Station","name:fa":"شهرک آزمایش","name:hi":"शहरक आज़मायेश","name:ml":"ഷഹ്റക്കെ ആസ്മയേഷ്","public_transport":"stop_position","railway":"station","station":"subway","subway":"yes","wikidata":"Q107406897"}},{"type":"node","id":3815456823,"lat":35.7347651,"lon":51.3460208,"tags":{"name":"ایستگاه مترو یادگار امام","name:ar":"ذكرى الإمام","name:en":"Yadegar-e Emam Metro Station","name:fa":"یادگار امام","name:hi":"यादगार-ए-इमाम","name:ml":"യാദഗാർ ഇമാം","public_transport":"stop_position","railway":"station","station":"subway","subway":"yes"}},{"type":"node","id":3815456838,"lat":35.7360887,"lon":51.3318177,"tags":{"name":"ایستگاه مترو اشرفی اصفهانی","name:ar":"أشرفي أصفهاني","name:en":"Ashrafi Esfahani Metro Station","name:fa":"اشرفی اصفهانی","name:hi":"अशरफ़ी इस्फ़हानी","name:ml":"അഷ്റഫി ഇസ്ഫഹാനി","public_transport":"stop_position","railway":"station","station":"subway","subway":"yes"}},{"type":"node","id":3815456860,"lat":35.7414736,"lon":51.3008783,"tags":{"name":"ایستگاه مترو آیت الله کاشانی","name:ar":"آية الله الكاشاني","name:en":"Ayatollah Kashani Metro Station","name:fa":"آیت الله کاشانی","name:hi":"अयतुल्ला काशानी","name:ml":"ആയത്തുള്ള കാഷാനി","public_transport":"stop_position","railway":"station","station":"subway","subway":"yes"}},{"type":"node","id":3853324358,"lat":35.753978,"lon":51.2874715,"tags":{"name":"ایستگاه مترو شهران","name:ar":"شهران","name:en":"Shahran Metro Station","name:fa":"شهران","name:hi":"शहरान","name:ml":"ഷഹ്റാൻ","public_transport":"stop_position","railway":"station","station":"subway","subway":"yes","wikidata":"Q123097288"}},{"type":"node","id":4293293322,"lat":35.6946832,"lon":51.3791914,"tags":{"name":"جنوب شرقی","name:en":"southeast","railway":"subway_entrance","station":"subway","subway":"yes"}},{"type":"node","id":4396461099,"lat":35.678294,"lon":51.4173042,"tags":{"name":"ایستگاه مترو پانزده خرداد","name:ar":"الخامس عشر من يونيو","name:en":"Panzdah-e Khordad Metro Station","name:fa":"پانزده خرداد","name:hi":"पांज़दहे-खुर्दाद","name:ml":"പാൻസദ ഖൊർദാദ്","public_transport":"station","railway":"station","station":"subway","subway":"yes","wikidata":"Q2372356","wikipedia":"fa:ایستگاه متروی پانزده خرداد"}},{"type":"node","id":4453205974,"lat":35.7605766,"lon":51.4658777,"tags":{"name":"ایستگاه مترو شهید زین الدین","name:ar":"الشهيد زين الدين","name:en":"Shahid Zeyn-e-ddin Metro Station","name:fa":"شهید زین الدین","name:hi":"शहीद ज़ेनुद्दीन","name:ml":"ഷഹീദ് സെയ്നുദ്ദീൻ","public_transport":"stop_position","railway":"station","station":"subway","subway":"yes","wikidata":"Q21064670"}},{"type":"node","id":4453604919,"lat":35.6383716,"lon":51.3599477,"tags":{"name":"ایستگاه مترو عبدل آباد","name:ar":"عبدل آباد","name:en":"Abdol Abad Metro Station","name:fa":"عبدل آباد","name:hi":"अब्दुलाबाद","name:ml":"അബ്ദൊലാബാദ്","public_transport":"stop_position","railway":"station","station":"subway","subway":"yes","wheelchair":"no","wikidata":"Q20717407"}},{"type":"node","id":4544628125,"lat":35.690986,"lon":51.467861,"tags":{"addr:street":"خیابان پیروزی","name":"ایستگاه مترو پیروزی","name:ar":"بيروزي","name:en":"Piroozi metro station","name:fa":"پیروزی","name:hi":"पीरूज़ी","name:ml":"പിറൂസി","public_transport":"stop_position","railway":"station","station":"subway","subway":"yes","wikidata":"Q5701801"}},{"type":"node","id":4558309639,"lat":35.7002963,"lon":51.3560391,"tags":{"name":"ایستگاه مترو دکتر حبیب اله","name:ar":"الدكتور حبيب الله","name:en":"Doctor Habib-o-llah Metro Station","name:fa":"دکتر حبیب اله","name:hi":"डॉक्टर हबीबुल्ला","name:ml":"ഡോക്ടർ ഹബീബൊള്ള","public_transport":"stop_position","railway":"station","station":"subway","subway":"yes","wikidata":"Q5882449"}},{"type":"node","id":4674995987,"lat":35.733237,"lon":51.4841242,"tags":{"name":"ایستگاه مترو جانبازان","name:ar":"جانبازان","name:en":"Janbazan metro Station","name:fa":"جانبازان","name:hi":"जानबाज़ान","name:ml":"ജാൻബസാൻ","old_name":"گلبرگ","public_transport":"stop_position","railway":"station","station":"subway","subway":"yes","wikidata":"Q2372781"}},{"type":"node","id":5059043809,"lat":35.4744346,"lon":51.2381316,"tags":{"name":"واوان","name:en":"Vavan","proposed:public_transport":"stop_position","proposed:railway":"station","station":"subway","subway":"yes"}},{"type":"node","id":5162855447,"lat":35.6731655,"lon":51.4166268,"tags":{"name":"ایستگاه مترو خیام","name:ar":"خیام","name:en":"Khayyam","name:fa":"خیام","name:hi":"खय्याम","name:ml":"ഖയ്യാം","public_transport":"station","railway":"station","station":"subway","subway":"yes","wikidata":"Q1708126","wikipedia":"fa:ایستگاه متروی خیام (تهران)"}},{"type":"node","id":5162855457,"lat":35.5217646,"lon":51.3691839,"tags":{"name":"ایستگاه مترو کهریزک","name:ar":"كهريزك","name:en":"Kahrizak","name:fa":"کهریزک","name:hi":"कहरीज़क","name:ml":"കഹ്റീസക്ക്","public_transport":"station","railway":"station","station":"subway","subway":"yes","wikidata":"Q4249398","wikipedia":"fa:ایستگاه متروی کهریزک"}},{"type":"node","id":5162855462,"lat":35.5473567,"lon":51.3827705,"tags":{"name":"ایستگاه مترو شاهد باقرشهر","name:ar":"شاهد باقرشهر","name:en":"Shahed- Bagher Shahr","name:fa":"شاهد باقرشهر","name:hi":"शाहिद बाकरशहर","name:ml":"ഷാഹെദ് ബാഖെർഷഹർ","public_transport":"station","railway":"station","station":"subway","subway":"yes","wikidata":"Q5711297","wikipedia":"fa:ایستگاه متروی شاهد (تهران)"}},{"type":"node","id":5162855464,"lat":35.4078348,"lon":51.1544783,"tags":{"name":"ایستگاه مترو فرودگاه امام خمینی","name:ar":"مطار الإمام الخميني","name:en":"Imam Khomeini Airport metro station","name:fa":"فرودگاه امام خمینی","name:hi":"इमाम खुमैनी हवाई अड्डा","name:ml":"ഇമാം ഖൊമെയ്നി വിമാനത്താവളം","public_transport":"station","railway":"station","station":"subway","wikidata":"Q28713705"}},{"type":"node","id":5162910430,"lat":35.6916179,"lon":51.4773416,"tags":{"name":"ایستگاه مترو نبرد","name:ar":"نبرد","name:en":"Nabard metro station","name:fa":"نبرد","name:hi":"नबर्द","name:ml":"നബർദ്","public_transport":"station","railway":"station","station":"subway","subway":"yes","wikidata":"Q2372016"}},{"type":"node","id":5162910431,"lat":35.7011762,"lon":51.392437,"tags":{"name":"ایستگاه مترو میدان انقلاب اسلامی","name:ar":"ساحة الثورة الإسلامية","name:en":"Meydan-e Enghelab-e Eslami Metro Station","name:fa":"میدان انقلاب اسلامی","name:hi":"इस्लामी इंकलाब मैदान","name:ml":"മെയ്ദാനെ ഇംഗിലാബെ ഇസ്ലാമി","network":"متروی تهران","network:wikidata":"Q714823","operator":"Tehran Urban and Suburban Railway Company","public_transport":"station","railway":"station","station":"subway","subway":"yes","wikidata":"Q5909873"}},{"type":"node","id":5162910432,"lat":35.7012551,"lon":51.4052694,"tags":{"alt_name":"ایستگاه مترو چهارراه ولیعصر","name":"ایستگاه مترو تئاترشهر","name:ar":"مسرح المدينة","name:en":"Teatr-e Shahr Metro Station","name:fa":"تئاترشهر","name:hi":"थिएटर शहर","name:it":"Teatr-e Shahr - Vali Asr","name:ml":"തിയാത്രെ ഷഹർ","network":"متروی تهران","network:wikidata":"Q714823","operator":"Tehran Urban and Suburban Railway Company","public_transport":"station","railway":"station","station":"subway","subway":"yes","wheelchair":"no","wikidata":"Q1585723"}},{"type":"node","id":5162910441,"lat":35.6927768,"lon":51.4881134,"tags":{"name":"ایستگاه مترو نیرو هوایی","name:ar":"القوات الجوية","name:en":"Niru-ye-Havaei metro station","name:fa":"نیرو هوایی","name:hi":"नीरू-ये-हवाई","name:ml":"നീറൂയെ ഹയാവി","public_transport":"station","railway":"station","station":"subway","subway":"yes","wikidata":"Q5906181"}},{"type":"node","id":5162910442,"lat":35.6986125,"lon":51.4997931,"tags":{"name":"ایستگاه مترو شهید کلاهدوز","name:ar":"الشهيد كلاهدوز","name:en":"Shahid Kolahdooz metro station","name:fa":"شهید کلاهدوز","name:hi":"शहीद कुलाहदूज़","name:ml":"ഷഹീദ് കൊലഹ്ദൂസ്","public_transport":"station","railway":"station","station":"subway","subway":"yes","wikidata":"Q2373027","wikipedia":"fa:ایستگاه متروی شهید کلاهدوز"}},{"type":"node","id":5163103597,"lat":35.7978034,"lon":51.5081682,"tags":{"name":"ایستگاه مترو شهید محلاتی","name:ar":"الشهيد محلاتي","name:en":"Shahid Mahallati Metro Station","name:fa":"شهید محلاتی","name:hi":"शहीद महल्लाती","name:ml":"ഷഹീദ് മഹല്ലത്തി","public_transport":"station","railway":"station","station":"subway","subway":"yes","wikidata":"Q39050279"}},{"type":"node","id":5163103598,"lat":35.7988727,"lon":51.5208074,"tags":{"name":"ایستگاه مترو قائم","name:ar":"قائم","name:en":"Ghaem Metro Station","name:fa":"قائم","name:hi":"काइम","name:ml":"ഖായെം","public_transport":"station","railway":"station","station":"subway","subway":"yes","wheelchair":"limited","wikidata":"Q21064663"}},{"type":"node","id":5163103599,"lat":35.732899,"lon":51.516843,"tags":{"name":"ایستگاه مترو شهید باقری","name:ar":"الشهيد باقري","name:en":"Shahid Bagheri metro station","name:fa":"شهید باقری","name:hi":"शहीद बाकरी","name:ml":"ഷഹീദ് ബാഖറി","public_transport":"station","railway":"station","station":"subway","subway":"yes","wikidata":"Q2373042"}},{"type":"node","id":5163103600,"lat":35.7298253,"lon":51.5470491,"tags":{"name":"ایستگاه مترو فرهنگسرا","name:ar":"فرهنغسرا","name:en":"Farhangsara metro station","name:fa":"فرهنگسرا","name:hi":"फरहंगसरा","name:ml":"ഫർഹംഗ്സറ","public_transport":"station","railway":"station","station":"subway","subway":"yes","wikidata":"Q2373638"}},{"type":"node","id":5163103601,"lat":35.7308782,"lon":51.5318398,"tags":{"name":"ایستگاه مترو تهرانپارس","name:ar":"طهرانبارس","name:en":"Tehranpars metro station","name:fa":"تهرانپارس","name:hi":"तेहरानपार्स","name:ml":"ടെഹ്റാൻപാർസ്","public_transport":"station","railway":"station","station":"subway","subway":"yes","wikidata":"Q5907250"}},{"type":"node","id":5165422503,"lat":35.6949232,"lon":51.3787835,"tags":{"name":"ایستگاه مترو شهید نواب صفوی","name:ar":"الشهيد نواب صفوي","name:en":"Shahid Navvab-e Safavi metro station","name:fa":"شهید نواب صفوی","name:hi":"शहीद नवाब-ए सफ़वी","name:ml":"ഷഹീദ് നവാബ് സഫവി","public_transport":"station","railway":"station","station":"subway","subway":"yes","wikidata":"Q2374950"}},{"type":"node","id":5165422504,"lat":35.6877551,"lon":51.3795193,"tags":{"name":"ایستگاه مترو رودکی","name:ar":"الرودكي","name:en":"Roudaki metro station","name:fa":"رودکی","name:hi":"रुदकी","name:ml":"റൂദക്കി","public_transport":"station","railway":"station","station":"subway","subway":"yes","wikidata":"Q42296390"}},{"type":"node","id":5165462147,"lat":35.6337679,"lon":51.3472457,"tags":{"name":"ایستگاه مترو نعمت آباد","name:ar":"نعمت آباد","name:en":"Ne'mat Abad Metro Station","name:fa":"نعمت آباد","name:hi":"नेमताबाद","name:ml":"നെമത്താബാദ്","public_transport":"station","railway":"station","station":"subway","subway":"yes","wikidata":"Q21694153"}},{"type":"node","id":5165462148,"lat":35.627521,"lon":51.3352468,"tags":{"name":"ایستگاه مترو آزادگان","name:ar":"آزادغان","name:en":"Azadegan Metro Station","name:fa":"آزادگان","name:hi":"आज़ादगान","name:ml":"ആസാദഗാൻ","public_transport":"station","railway":"station","station":"subway","subway":"yes","wikidata":"Q17991373"}},{"type":"node","id":5183508081,"lat":35.7155645,"lon":51.4260941,"tags":{"alt_name":"هفت تیر","name":"ایستگاه مترو شهدای هفتم تیر","name:ar":"شهداء السابع من يوليو","name:en":"Shohada-ye Haftom-e Tir","name:fa":"شهدای هفتم تیر","name:hi":"शुहदा-ये हफ़्तुम तीर","name:ml":"ഹഫ്തെ തീർ","public_transport":"station","railway":"station","station":"subway","subway":"yes","wikidata":"Q2372086","wikipedia":"fa:ایستگاه متروی شهدای هفتم تیر"}},{"type":"node","id":5183513583,"lat":35.6296378,"lon":51.4157072,"tags":{"name":"ایستگاه مترو علی آباد","name:ar":"علي آباد","name:en":"Ali Abad","name:fa":"علی آباد","name:hi":"अलीयाबाद","name:ml":"അലിയാബാദ്","public_transport":"station","railway":"station","station":"subway","subway":"yes","wikidata":"Q2372287","wikipedia":"fa:ایستگاه متروی علی‌آباد"}},{"type":"node","id":5183520307,"lat":35.6995082,"lon":51.3222062,"tags":{"name":"ایستگاه مترو بیمه","name:ar":"بيمه","name:en":"Bimeh Metro Station","name:fa":"بیمه","name:hi":"बीमा","name:ml":"ബീമെ","public_transport":"station","railway":"station","station":"subway","subway":"yes","wikidata":"Q23962380"}},{"type":"node","id":5183625750,"lat":35.7004149,"lon":51.3647616,"tags":{"name":"ایستگاه مترو شادمان","name:ar":"شادمان","name:en":"Shademan metro station","name:fa":"شادمان","name:hi":"शादमान","name:ml":"ഷാദെമാൻ","public_transport":"station","railway":"station","station":"subway","subway":"yes","wheelchair":"no"}},{"type":"node","id":5186234550,"lat":35.6999026,"lon":51.3328335,"tags":{"name":"ایستگاه مترو میدان آزادی","name:ar":"ساحة آزادي","name:en":"Meydan-e Azadi Metro Station","name:fa":"میدان آزادی","name:hi":"आज़ादी मैदान","name:ml":"മെയ്ദാനെ ആസാദി","public_transport":"station","railway":"station","station":"subway","subway":"yes","wikidata":"Q6534346"}},{"type":"node","id":5186262276,"lat":35.6858747,"lon":51.4207683,"tags":{"name":"ایستگاه مترو امام خمینی","name:ar":"الامام الخميني","name:en":"Imam Khomeini Metro Station","name:fa":"امام خمینی","name:hi":"इमाम ख़ुमैनी","name:ml":"ഇമാം ഖൊമെയ്നി","name:ru":"Имам Хомейни","public_transport":"station","railway":"station","station":"subway","subway":"yes","wikidata":"Q2372190","wikipedia":"fa:ایستگاه متروی امام خمینی"}},{"type":"node","id":5188247275,"lat":35.7015783,"lon":51.426021,"tags":{"name":"ایستگاه مترو دروازه دولت","name:ar":"بوابة الحكومة","name:en":"Darvazeh Dowlat","name:fa":"دروازه دولت","name:hi":"दरवाज़ा दौलत","name:ml":"ദർവാസെ ദൗലത്ത്","network":"متروی تهران","network:wikidata":"Q714823","operator":"Tehran Urban and Suburban Railway Company","public_transport":"station","railway":"station","station":"subway","subway":"yes","wikidata":"Q2372159","wikipedia":"fa:ایستگاه متروی دروازه دولت"}},{"type":"node","id":5188341403,"lat":35.6989969,"lon":51.4372795,"tags":{"name":"ایستگاه مترو دروازه شمیران","name:ar":"بوابة شميران","name:en":"Darvazeh Shemiran metro station","name:fa":"دروازه شمیران","name:hi":"दरवाज़ा शेमीरान","name:ml":"ദർവാസെ ഷെമീറാൻ","public_transport":"station","railway":"station","station":"subway","subway":"yes"}},{"type":"node","id":5190423568,"lat":35.7248927,"lon":51.3813173,"tags":{"name":"ایستگاه مترو دانشگاه تربیت مدرس","name:ar":"جامعة تربية مدرس","name:en":"Tarbiat Modares University metro station","name:fa":"دانشگاه تربیت مدرس","name:hi":"तर्बियत मुदरस विश्वविद्यालय","name:ml":"തർബിയത്ത് മദറസ് യൂണിവേഴ്സിറ്റി","public_transport":"station","railway":"station","station":"subway","subway":"yes","wikidata":"Q31069749"}},{"type":"node","id":5190423570,"lat":35.6813395,"lon":51.3800656,"tags":{"name":"ایستگاه مترو کمیل","name:ar":"کمیل","name:en":"Komeyl metro station","name:fa":"کمیل","name:hi":"कुमैल","name:ml":"കൊമൈൽ","nat_name":"مترو کمیل","public_transport":"station","railway":"station","station":"subway","subway":"yes","wikidata":"Q31069760"}},{"type":"node","id":5190423572,"lat":35.6730951,"lon":51.3808312,"tags":{"name":"ایستگاه مترو بریانک","name:ar":"بريانك","name:en":"Beryanak metro station","name:fa":"بریانک","name:hi":"बिर्यानक","name:ml":"ബെർയാനക്ക്","public_transport":"station","railway":"station","station":"subway","subway":"yes","wikidata":"Q31069765"}},{"type":"node","id":5190555599,"lat":35.6525617,"lon":51.3735926,"tags":{"name":"ایستگاه مترو زمزم","name:ar":"زمزم","name:en":"Zamzam Metro Station","name:fa":"زمزم","name:hi":"ज़मज़म","name:ml":"സംസം","public_transport":"stop_position","railway":"station","station":"subway","subway":"yes","wikidata":"Q17991380"}},{"type":"node","id":5194776019,"lat":35.5450892,"lon":51.3730265,"tags":{"name":"ایستگاه مترو حرم مطهر","name:ar":"الضريح المقدس","name:en":"Haram-e Motahar-e Imam Khomeini","name:fa":"حرم مطهر","name:hi":"हरम-ए-मुतहर","name:ml":"ഹറമെ മൊത്തഹർ","public_transport":"station","railway":"station","station":"subway","subway":"yes","wikidata":"Q2372057","wikipedia":"fa:ایستگاه متروی حرم مطهر امام خمینی"}},{"type":"node","id":5212515304,"lat":35.5397084,"lon":51.3493225,"tags":{"name":"ایستگاه مترو شهر آفتاب","name:ar":"مدينة آفتاب","name:en":"Shahr-e Aftab metro station","name:fa":"شهر آفتاب","name:hi":"शहर-ए-आफ़ताब","name:ml":"ഷഹ്റെ ആഫ്താബ്","public_transport":"station","railway":"station","station":"subway","subway":"yes","wikidata":"Q24041759"}},{"type":"node","id":5540220849,"lat":35.730611,"lon":51.427083,"tags":{"name":"ایستگاه مترو شهید بهشتی","name:ar":"الشهيد بهشتي","name:en":"Shahid Beheshti","name:fa":"شهید بهشتی","name:hi":"शहीद बेहिश्ती","name:ml":"ഷഹീദ് ബെഹെഷ്തി","public_transport":"station","railway":"station","station":"subway","subway":"yes","wheelchair":"yes","wikidata":"Q1708115","wikipedia":"fa:ایستگاه متروی شهید بهشتی (تهران)"}},{"type":"node","id":5602562105,"lat":35.8249517,"lon":50.9329176,"tags":{"name":"ایستگاه مترو گلشهر","name:ar":"غلشهر","name:en":"Golshahr","name:fa":"گلشهر","name:hi":"गुलशहर","public_transport":"station","railway":"station","station":"subway","subway":"yes","train":"yes","wikidata":"Q2373606","wikipedia":"fa:ایستگاه متروی گلشهر"}},{"type":"node","id":5602579936,"lat":35.7175582,"lon":51.3020416,"tags":{"alt_name":"اکباتان","name":"ایستگاه مترو ارم سبز","name:ar":"إرم سبز","name:en":"Eram-e Sabz","name:fa":"ارم سبز","name:hi":"इरम-ए सब्ज़","name:ml":"ഇറം സബ്സ്","public_transport":"station","railway":"station","station":"subway","subway":"yes","wikidata":"Q2374567","wikipedia":"fa:ایستگاه متروی ارم سبز"}},{"type":"node","id":5602602180,"lat":35.7675416,"lon":51.0458865,"tags":{"light_rail":"yes","name":"ایستگاه مترو اتمسفر","name:ar":"اتمسفر","name:en":"Atmosfer","name:fa":"اتمسفر","name:hi":"एटमोस्फ़ेर","public_transport":"station","railway":"station","station":"light_rail","train":"yes","wikidata":"Q2371927","wikipedia":"fa:ایستگاه متروی اتمسفر"}},{"type":"node","id":5604713689,"lat":35.7438259,"lon":51.1506325,"tags":{"light_rail":"yes","name":"ایستگاه مترو وردآورد","name:ar":"ورداورد","name:en":"Vardavard metro station","name:fa":"وردآورد","name:hi":"वर्दावर्द","operator":"Tehran Urban and Suburban Railways Organization","public_transport":"station","railway":"station","station":"light_rail","train":"yes","wikidata":"Q2374933","wikipedia":"fa:ایستگاه متروی وردآورد"}},{"type":"node","id":5604726880,"lat":35.7165426,"lon":51.2814613,"tags":{"light_rail":"yes","name":"ایستگاه مترو ورزشگاه آزادی","name:ar":"ملعب آزادي","name:en":"Varzeshgah-e Azadi","name:fa":"ورزشگاه آزادی","name:hi":"आज़ादी स्टेडियम","public_transport":"station","railway":"station","station":"light_rail","train":"yes","wikidata":"Q4832088","wikipedia":"fa:ایستگاه متروی ورزشگاه آزادی"}},{"type":"node","id":5604726917,"lat":35.7169564,"lon":51.2438647,"tags":{"light_rail":"yes","name":"ایستگاه مترو چیتگر","name:ar":"تشيتغر","name:en":"Chitgar","name:fa":"چیتگر","name:hi":"चीतगर","name:ml":"ചിത്ഗർ","public_transport":"station","railway":"station","station":"subway","subway":"yes","wikidata":"Q2372140","wikipedia":"fa:ایستگاه متروی چیتگر"}},{"type":"node","id":5604727187,"lat":35.7252171,"lon":51.1965948,"tags":{"light_rail":"yes","name":"ایستگاه مترو ایران خودرو","name:ar":"ایران خودرو","name:en":"Iran Khodro metro station","name:fa":"ایران خودرو","name:hi":"ईरान खोदरो","operator":"Tehran Urban and Suburban Railways Organization","public_transport":"station","railway":"station","station":"light_rail","train":"yes","wikidata":"Q2372176","wikipedia":"fa:ایستگاه متروی ایران خودرو"}},{"type":"node","id":5604727197,"lat":35.7178504,"lon":51.3311631,"tags":{"name":"ایستگاه مترو صادقیه","name:ar":"صادقية","name:en":"Sadeghiyeh metro station","name:fa":"صادقیه","name:hi":"सादिकिया","name:ml":"സാദെഗിയെ","public_transport":"station","railway":"station","station":"subway","subway":"yes","wikidata":"Q2373666","wikipedia":"fa:ایستگاه متروی صادقیه"}},{"type":"node","id":5606659846,"lat":35.7517846,"lon":51.081807,"tags":{"light_rail":"yes","name":"ایستگاه مترو گرمدره","name:ar":"غرمدرة","name:en":"Garmdarreh metro station","name:fa":"گرمدره","name:hi":"गर्मदरा","operator":"Tehran Urban and Suburban Railways Organization","public_transport":"station","railway":"station","station":"light_rail","train":"yes","wikidata":"Q2373010","wikipedia":"fa:ایستگاه متروی گرم‌دره"}},{"type":"node","id":5607262986,"lat":35.8023357,"lon":50.9649204,"tags":{"alt_name":"ماهدشت","alt_name:en":"Mahdasht","name":"ایستگاه مترو محمد شهر","name:ar":"محمد شهر","name:en":"Mohammad Shahr","name:fa":"محمد شهر","name:hi":"मुहम्मद शहर","public_transport":"station","railway":"station","station":"subway","subway":"yes","train":"yes","wikidata":"Q2373729","wikipedia":"fa:ایستگاه متروی محمدشهر"}},{"type":"node","id":5607263132,"lat":35.786678,"lon":51.0025585,"tags":{"alt_name":"فردیس","alt_name:en":"Fardis","light_rail":"yes","name":"ایستگاه مترو کرج","name:ar":"کرج","name:en":"Karaj","name:fa":"کرج","name:fr":"Karadj","name:hi":"करज","public_transport":"station","railway":"station","station":"light_rail","train":"yes","wikidata":"Q2372238","wikipedia":"fa:ایستگاه متروی کرج"}},{"type":"node","id":6390530105,"lat":35.6188159,"lon":51.4641433,"tags":{"name":"ایستگاه مترو شهدای دولت آباد","name:ar":"شهداء دولت آباد","name:en":"Shohadaye Dowlat Abad Metro Station","name:fa":"شهدای دولت آباد","name:hi":"शुहदा-ये दौलताबाद","name:ml":"ദൗലത്താബാദ്","public_transport":"station","railway":"station","station":"subway","subway":"yes"}},{"type":"node","id":6390530109,"lat":35.690092,"lon":51.44742,"tags":{"name":"ایستگاه مترو میدان شهدا","name:ar":"ساحة الشهداء","name:en":"Meydan-e Shohada metro station","name:fa":"میدان شهدا","name:hi":"शहीद मैदान","name:ml":"മെയ്ദാനെ ഷൊഹദാ","public_transport":"station","railway":"station","station":"subway","subway":"yes","wikidata":"Q7500107"}},{"type":"node","id":6444462277,"lat":35.6448382,"lon":51.4445887,"tags":{"name":"ایستگاه مترو بعثت","name:ar":"بعثت","name:en":"Be'sat Metro Station","name:fa":"بعثت","name:hi":"बेसत","name:ml":"ബെസത്ത്","public_transport":"station","railway":"station","station":"subway","subway":"yes","wikidata":"Q61064622"}},{"type":"node","id":6737096941,"lat":35.6677096,"lon":51.415856,"tags":{"name":"ایستگاه مترو میدان محمدیه","name:ar":"ساحة المحمدية","name:en":"Meydan-e Mohammadiyeh","name:fa":"میدان محمدیه","name:hi":"मुहम्मदिया मैदान","name:ml":"മൊഹമ്മദിയെ ചത്വരം","public_transport":"station","railway":"station","station":"subway","subway":"yes","wikidata":"Q2374553","wikipedia":"fa:ایستگاه متروی میدان محمدیه"}},{"type":"node","id":7934844452,"lat":35.4639698,"lon":50.9770279,"tags":{"name":"ایستگاه مترو شهر پرند","name:ar":"مدينة برند","name:en":"Shahr-e Parand metro station","name:fa":"شهر پرند","name:hi":"परंद शहर","public_transport":"station","railway":"station","station":"subway","subway":"yes","wikidata":"Q28169525"}},{"type":"node","id":8243426038,"lat":35.6825596,"lon":51.4468691,"tags":{"name":"ایستگاه مترو امیر کبیر","name:ar":"امیر کبیر","name:en":"Amir Kabir Metro Station","name:fa":"امیر کبیر","name:hi":"अमीर कबीर","name:ml":"അമീർ കബീർ","public_transport":"station","railway":"station","station":"subway","subway":"yes"}},{"type":"node","id":8273593826,"lat":35.6330387,"lon":51.448642,"tags":{"name":"ایستگاه مترو کیان شهر","name:ar":"کیان شهر","name:en":"Kiyan Shahr Metro Station","name:fa":"کیانشهر","name:hi":"कियानशहर","name:ml":"കിയാൻഷഹർ","public_transport":"station","railway":"station","station":"subway","subway":"yes","wikidata":"Q85774664"}},{"type":"node","id":8730248893,"lat":35.7280175,"lon":51.4172345,"tags":{"addr:city":"تهران","addr:street":"آیت الله بهشتی","name":"ایستگاه مترو میرزای شیرازی","name:ar":"ميرزا ​​الشيرازي","name:en":"Mirza-ye Shirazi Metro Station","name:fa":"میرزای شیرازی","name:hi":"मिर्ज़ाये शीराज़ी","public_transport":"station","railway":"station","station":"subway","subway":"yes"}},{"type":"node","id":8738914819,"lat":35.8006019,"lon":51.4846024,"tags":{"name":"ایستگاه مترو اقدسیه","name:ar":"أقدسية","name:en":"Aghdasiyeh Metro Station","name:fa":"اقدسیه","name:hi":"अक्दसिया","name:ml":"അഖ്ദസിയെ","public_transport":"station","railway":"station","station":"subway","subway":"yes"}},{"type":"node","id":8890549263,"lat":35.7344246,"lon":51.3594728,"tags":{"name":"ایستگاه مترو مرزداران","name:ar":"مرزداران","name:en":"Marzdaran Metro Station","name:fa":"مرزداران","name:hi":"मर्ज़दारान","name:ml":"മർസ്ദാറാൻ","public_transport":"station","railway":"station","station":"subway","subway":"yes"}},{"type":"node","id":8907277818,"lat":35.5949391,"lon":51.4222984,"tags":{"name":"ایستگاه مترو شهرری","name:ar":"مدينة ري","name:en":"Shahr-e Rey","name:fa":"شهرری","name:hi":"रे शहर","name:ml":"ഷഹ്റെ റെയ്","public_transport":"station","railway":"station","station":"subway","subway":"yes","wikidata":"Q2372323","wikipedia":"fa:ایستگاه متروی شهرری"}},{"type":"node","id":9149513248,"lat":35.6517959,"lon":51.4446046,"tags":{"name":"ایستگاه مترو شهید رضایی","name:ar":"الشهيد رضائي","name:en":"Shahid Rezaei Metro Station","name:fa":"شهید رضایی","name:hi":"शहीद रिज़ाई","name:ml":"ഷഹീദ് റെസായി","public_transport":"station","railway":"station","station":"subway","subway":"yes"}},{"type":"node","id":10126282787,"lat":35.7061214,"lon":51.3776859,"tags":{"name":"ایستگاه مترو مدافعان سلامت","name:ar":"مدافعان سلامت","name:en":"Modafean-e Salamat metro station","name:fa":"مدافعان سلامت","name:hi":"मुदाफ़ियान सलामत","name:ml":"മൊദാഫെയാൻ സലാമത്ത്","public_transport":"stop_position","railway":"station","station":"subway","subway":"yes"}},{"type":"node","id":10235224668,"lat":35.7369271,"lon":51.3199678,"tags":{"name":"ایستگاه مترو شهید ستاری","name:ar":"الشهيد ستاري","name:en":"Shahid Sattari Metro Station","name:fa":"شهید ستاری","name:hi":"शहीद सत्तारी","name:ml":"ഷഹീദ് സത്താറി","public_transport":"stop_position","railway":"station","station":"subway","subway":"yes","wikidata":"Q107406834"}},{"type":"node","id":10701601167,"lat":35.8367939,"lon":50.9429933,"tags":{"name":"۴۵ متری گلشهر","name:ar":"خمسة وأربعون مترا من غلشهر","name:en":"Chehel-o-panj Metri Golshahr","name:fa":"۴۵ متری گلشهر","name:hi":"गुलशहर से पैंतालीस मीटर","public_transport":"station","railway":"station","station":"subway","wikidata":"Q116978439"}},{"type":"node","id":10701601168,"lat":35.8221608,"lon":50.9883267,"tags":{"name":"چهارراه طالقانی","name:ar":"مفترق طالقاني","name:en":"Taleqani Crossroad","name:fa":"چهارراه طالقانی","name:fr":"Échangeur de Taleqani","name:hi":"तालिकानी चौराहा","public_transport":"station","railway":"station","station":"subway","subway":"yes","wikidata":"Q116978511"}},{"type":"node","id":10746895093,"lat":35.7149533,"lon":51.3895579,"tags":{"name":"ایستگاه مترو کارگر","name:ar":"كارغر","name:en":"Kargar Metro Station","name:fa":"کارگر","name:hi":"कारगर","name:ml":"കാറെഗർ","public_transport":"station","railway":"station","station":"subway","subway":"yes","wikidata":"Q111852443"}},{"type":"node","id":10746895094,"lat":35.7670778,"lon":51.3665384,"tags":{"name":"ایستگاه مترو شهید دادمان","name:ar":"الشهيد دادمان","name:en":"Shahid Dadman metro station","name:fa":"شهید دادمان","name:hi":"शहीद दादमान","name:ml":"ഷഹീദ് ദാദ്മാൻ","public_transport":"stop_position","railway":"station","station":"subway","subway":"yes","train":"yes","wikidata":"Q118715287"}},{"type":"node","id":10759924012,"lat":35.71564,"lon":51.4397861,"tags":{"alt_name":"ایستگاه متروی بیمارستان خانواده","alt_name:en":"Khanevadeh Hospital Metro Station","alt_name:fa":"بیمارستان خانواده","name":"ایستگاه متروی بهار شیراز","name:ar":"بهار شیراز","name:en":"Bahar Shiraz Metro Station","name:fa":"بهار شیراز","name:hi":"बहार-ए-शीराज़","name:ml":"ബഹാർ ഷിറാസ്","public_transport":"station","railway":"station","station":"subway","subway":"yes"}},{"type":"node","id":10760685493,"lat":35.7115655,"lon":51.4070003,"tags":{"alt_name":"ایستگاه مترو میدان ولی عصر","alt_name:en":"Vali-e Asr Square Metro Station","alt_name:ml":"മെയ്ദാനെ വലിയെ അസർ","name":"ایستگاه مترو میدان حضرت ولیعصر","name:ar":"ساحة حضرة ولي عصر","name:en":"Hazrat Vali-e Asr Square Metro Station","name:fa":"میدان حضرت ولیعصر","name:hi":"हज़रत वली-ए-असर मैदान","name:ml":"വലിയെ അസർ ചത്വരം","public_transport":"station","railway":"station","station":"subway","subway":"yes","wheelchair":"limited","wikidata":"Q20718064"}},{"type":"node","id":10761286147,"lat":35.7632103,"lon":51.2839432,"tags":{"name":"ایستگاه مترو شهدای کن","name:ar":"شهداء كان","name:en":"Shohada-ye Kan Metro Station","name:fa":"شهدای کن","name:hi":"शुहदा-ये-कन","name:ml":"ഷുഹദായെ കൻ","public_transport":"stop_position","railway":"station","station":"subway","subway":"yes"}},{"type":"node","id":10861347776,"lat":35.7309611,"lon":51.3071786,"tags":{"alt_name":"پروانه","name":"ایستگاه مترو علامه جعفری","name:ar":"العلامة جعفري","name:en":"Allameh Ja'fari Metro Station","name:etymology:wikidata":"Q545407","name:fa":"علامه جعفری","name:hi":"अल्लामा जाफ़री","name:ml":"അല്ലാമെ ജാഫറി","public_transport":"station","railway":"station","station":"subway","subway":"yes","wheelchair":"no","wikidata":"Q118130784"}},{"type":"node","id":11263536540,"lat":35.7456674,"lon":51.2947466,"tags":{"name":"ایستگاه مترو شهر زیبا","name:ar":"مدينة زیبا","name:en":"Shahr-e Ziba Metro Station","name:fa":"شهر زیبا","name:hi":"शहर-ए-ज़ीबा","name:ml":"ഷഹ്റെ സീബ","public_transport":"stop_position","railway":"station","station":"subway","subway":"yes","wikidata":"Q123095404"}},{"type":"node","id":11281445852,"lat":35.5599402,"lon":51.3993678,"tags":{"name":"ایستگاه مترو پالایشگاه","name:ar":"مصفاة","name:en":"Palayeshgah","name:fa":"پالایشگاه","name:hi":"पालायेशगाह","name:ml":"പലായെഷ്ഗ","public_transport":"station","railway":"station","station":"subway","subway":"yes","wikidata":"Q2371882","wikipedia":"fa:ایستگاه متروی پالایشگاه"}},{"type":"node","id":11417020371,"lat":35.6671658,"lon":51.3993725,"tags":{"name":"ایستگاه مترو مهدیه","name:ar":"مهدية","name:en":"Mahdiyeh Metro Station","name:fa":"مهدیه","name:hi":"महदीया","name:ml":"മഹ്ദിയെ","public_transport":"station","railway":"station","station":"subway","subway":"yes","wikidata":"Q20718111"}},{"type":"node","id":11417054143,"lat":35.6890644,"lon":51.3304485,"tags":{"name":"ایستگاه مترو فرودگاه مهرآباد ترمینال‌های ۴ و ۶","name:ar":"مطار مهرآباد، المحطتان 4 و6","name:en":"Mehrabad Airport Terminals 4 & 6 Metro Station","name:fa":"فرودگاه مهرآباد ترمینال‌های ۴ و ۶","name:hi":"मेहराबाद हवाई अड्डा टर्मिनल 4 और 6","name:ml":"മെഹ്റാബാദ് എയർപോർട്ട് 4 & 6 ടെർമിനലുകൾ","public_transport":"station","railway":"station","station":"subway","subway":"yes","wikidata":"Q23962255"}},{"type":"node","id":11417054161,"lat":35.69316,"lon":51.3251037,"tags":{"name":"ایستگاه مترو فرودگاه مهرآباد ترمینال‌های ۱ و ۲","name:ar":"مطار مهرآباد، المحطتان 1 و2","name:en":"Mehrabad Airport Terminals 1 & 2 Metro Station","name:fa":"فرودگاه مهرآباد ترمینال‌های ۱ و ۲","name:hi":"मेहराबाद हवाई अड्डा टर्मिनल 1 और 2","name:ml":"മെഹ്‌റാബാദ് എയർപോർട്ട് 1 & 2 ടെർമിനലുകൾ","public_transport":"station","railway":"station","station":"subway","subway":"yes","wikidata":"Q24041752"}},{"type":"node","id":11528229167,"lat":35.828859,"lon":50.9685367,"tags":{"name":"رجایی‌شهر","name:ar":"رجايي شهر","name:en":"Rajaei Shahr","name:fa":"رجایی‌شهر","name:hi":"रजाई शहर","public_transport":"station","railway":"station","station":"subway","subway":"yes","wikipedia":"fa:ایستگاه متروی رجایی‌شهر"}},{"type":"node","id":11750922029,"lat":35.6665024,"lon":51.4900285,"tags":{"name":"ایستگاه مترو بسیج","name:ar":"بسیج","name:en":"Basij metro station","name:fa":"بسیج","name:hi":"बसीज","name:ml":"ബസീജ്","public_transport":"station","railway":"station","station":"subway","subway":"yes","wikidata":"Q31069779"}},{"type":"node","id":12659430599,"lat":35.6653944,"lon":51.4456123,"tags":{"name":"ایستگاه مترو میدان خراسان","name:ar":"ساحة خراسان","name:en":"Meydan-e Khorasan Metro Station","name:fa":"میدان خراسان","name:hi":"ख़ुरासान मैदान","public_transport":"station","railway":"station","station":"subway","subway":"yes"}},{"type":"node","id":13127975089,"lat":35.7858826,"lon":51.0059834,"tags":{"name":"شهید سلطانی","name:ar":"الشهيد سلطاني","name:en":"Shahid Soltani","name:fa":"شهید سلطانی","name:hi":"शहीद सुल्तानी","public_transport":"station","railway":"station","station":"subway","subway":"yes"}},{"type":"node","id":13200364129,"lat":35.6942603,"lon":51.3803342,"tags":{"name":"دامپزشکی","name:en":"Veterinary","railway":"subway_entrance","station":"subway","subway":"yes"}},{"type":"node","id":13200364130,"lat":35.6949486,"lon":51.3790803,"tags":{"name":"شمال شرقی","name:en":"northeast","railway":"subway_entrance","station":"subway","subway":"yes"}},{"type":"node","id":13202066659,"lat":35.7015309,"lon":51.4191216,"tags":{"alt_name:ml":"ഫിർദൗസി","name":"ایستگاه مترو فردوسی","name:ar":"فردوسي","name:en":"Ferdowsi metro station","name:fa":"فردوسی","name:hi":"फिरदौसी","name:ml":"ഫെർദോസി","name:ru":"Фирдоуси","network":"متروی تهران","network:wikidata":"Q714823","operator":"Tehran Urban and Suburban Railway Company","public_transport":"station","railway":"station","station":"subway","subway":"yes","wikidata":"Q2372815"}},{"type":"node","id":13230283736,"lat":35.7705521,"lon":51.2790018,"tags":{"alt_name":"کوهسار","alt_name:en":"Kouhsar","name":"ایستگاه مترو آرمان علی وردی","name:ar":"أرمان علي وردي","name:en":"Arman Aliverdi Metro Station","name:fa":"آرمان علی وردی","name:hi":"अरमान अलिवेर्दी","name:ml":"അലിവെർദി","public_transport":"station","railway":"station","station":"subway","subway":"yes","wikidata":"Q123097140"}},{"type":"node","id":13230313218,"lat":35.7055267,"lon":51.3076746,"tags":{"name":"ایستگاه مترو شهرک اکباتان","name:ar":"مدينة إيكباتانا","name:en":"Sharak-e Ekbatan Metro Station","name:fa":"شهرک اکباتان","name:hi":"शहरक-ए-इक्बातान","name:ml":"ഷഹ്റക്ക് ഇക്ബാത്താൻ","public_transport":"station","railway":"station","station":"subway","subway":"yes"}},{"type":"node","id":13279314257,"lat":35.7151939,"lon":51.4144384,"tags":{"name":"ایستگاه مترو مریم مقدس","name:ar":"مريم المقدسة","name:en":"Maryam-e Moghaddas Metro Station","name:fa":"مریم مقدس","name:hi":"मरियम-ए-मुक़द्दस","name:ml":"പരിശുദ്ധ മറിയം","public_transport":"station","railway":"station","station":"subway","subway":"yes","wikidata":"Q136645108"}},{"type":"node","id":13284688255,"lat":35.6684763,"lon":51.44578,"tags":{"name":"ایستگاه مترو شهدای هفده شهریور","name:ar":"شهداء السابع عشر من سبتمبر","name:en":"Shohada-ye Hefdah-e Shahrivar","name:fa":"شهدای هفده شهریور","name:hi":"शुहदा-ये हेफ़दहे शहरिवर","name:ml":"ഷൊഹദായെ ഹെഫ്ദഹെ ഷഹറീവർ","public_transport":"station","railway":"station","station":"subway","subway":"yes","wikidata":"Q123097286"}},{"type":"node","id":13380418873,"lat":35.6100492,"lon":51.4194666,"tags":{"name":"ایستگاه مترو جوانمرد قصاب","name:ar":"جوانمرد قصاب","name:en":"Javanmard-e Ghassab","name:fa":"جوانمرد قصاب","name:hi":"जवानमर्द कसाब","name:ml":"ജവാൻമർദ് ഗസാബ്","public_transport":"station","railway":"station","station":"subway","subway":"yes","wikidata":"Q2372002","wikipedia":"fa:ایستگاه متروی جوانمرد قصاب"}},{"type":"node","id":13380425728,"lat":35.6407705,"lon":51.4147776,"tags":{"alt_name":"خزانه","name":"ایستگاه مترو شهید بخارایی","name:ar":"الشهيد بخاري","name:en":"Shahid Bokharaei","name:fa":"شهید بخارایی","name:hi":"शहीद बुखारी","name:ml":"ഷഹീദ് ബൊഖാറായ്","public_transport":"station","railway":"station","station":"subway","subway":"yes","wikidata":"Q2372761","wikipedia":"fa:ایستگاه متروی خزانه"}},{"type":"node","id":13380425818,"lat":35.6508946,"lon":51.4162862,"tags":{"name":"ایستگاه مترو پایانه جنوب","name:ar":"المحطة الجنوبية","name:en":"Payaneh Jonoub","name:fa":"پایانه جنوب","name:hi":"पायाने-ए जनूब","name:ml":"പായാനെ ജനൂബ്","old_name":"ترمینال جنوب","public_transport":"station","railway":"station","station":"subway","subway":"yes","wikidata":"Q2372029","wikipedia":"fa:ایستگاه متروی پایانه جنوب"}},{"type":"node","id":13380425829,"lat":35.6508513,"lon":51.4162591,"tags":{"name":"ایستگاه مترو پایانه جنوب","name:ar":"المحطة الجنوبية","name:en":"Payaneh Jonoub","name:fa":"پایانه جنوب","name:hi":"पायाने-ए जनूब","name:ml":"പായാനെ ജനൂബ്","old_name":"ترمینال جنوب","public_transport":"stop_position","railway":"stop","station":"subway","subway":"yes"}},{"type":"node","id":13380425834,"lat":35.6574237,"lon":51.4142407,"tags":{"name":"ایستگاه مترو شوش","name:ar":"شوش","name:en":"Shoush","name:fa":"شوش","name:hi":"शूश","name:ml":"ഷൂഷ്","public_transport":"station","railway":"station","station":"subway","subway":"yes","wikidata":"Q2372340","wikipedia":"fa:ایستگاه متروی شوش"}},{"type":"node","id":13380425847,"lat":35.6573536,"lon":51.4142138,"tags":{"name":"ایستگاه مترو شوش","name:ar":"شوش","name:en":"Shoush","name:fa":"شوش","name:hi":"शूश","name:ml":"ഷൂഷ്","public_transport":"stop_position","railway":"stop","station":"subway","subway":"yes"}},{"type":"node","id":13380785610,"lat":35.6933311,"lon":51.4244398,"tags":{"name":"ایستگاه مترو سعدی","name:ar":"سعدي","name:en":"Sa'di","name:fa":"سعدی","name:hi":"सादी","name:ml":"സാദി","public_transport":"station","railway":"station","station":"subway","subway":"yes","wikidata":"Q2373074","wikipedia":"fa:ایستگاه متروی سعدی"}},{"type":"node","id":13380785625,"lat":35.7071305,"lon":51.4255161,"tags":{"name":"ایستگاه مترو طالقانی","name:ar":"طالقاني","name:en":"Ayatollah Taleghani","name:fa":"طالقانی","name:hi":"तालिकानी","name:ml":"താലെഖാനി","public_transport":"station","railway":"station","station":"subway","subway":"yes","wheelchair":"no","wikidata":"Q2372252","wikipedia":"fa:ایستگاه متروی طالقانی"}},{"type":"node","id":13381123725,"lat":35.7244381,"lon":51.4277776,"tags":{"name":"ایستگاه مترو شهید مفتح","name:ar":"الشهيد مفتح","name:en":"Shahid Mofatteh","name:fa":"شهید مفتح","name:hi":"शहीद मुफ़त्तह","name:ml":"ഷഹീദ് മൊഫത്തേഹ്","public_transport":"station","railway":"station","station":"subway","subway":"yes","wikidata":"Q2372979","wikipedia":"fa:ایستگاه متروی شهید مفتح"}},{"type":"node","id":13381123730,"lat":35.7403353,"lon":51.4276616,"tags":{"name":"ایستگاه مترو مصلی امام خمینی (ره)","name:ar":"مصلی","name:en":"Mosalla-ye Emam Khomeini","name:fa":"مصلی امام خمینی (ره)","name:hi":"मुसल्ला","name:ml":"മൊസല്ല","public_transport":"station","railway":"station","station":"subway","subway":"yes","wikidata":"Q2373749","wikipedia":"fa:ایستگاه متروی مصلای امام خمینی"}},{"type":"node","id":13381123745,"lat":35.7567055,"lon":51.4260913,"tags":{"name":"ایستگاه مترو شهید حقانی","name:ar":"الشهيد حقاني","name:en":"Shahid Haghani","name:fa":"شهید حقانی","name:hi":"शहीद हक्कानी","name:ml":"ഷഹീദ് ഹഖാനി","public_transport":"station","railway":"station","station":"subway","subway":"yes","wikidata":"Q2372745","wikipedia":"fa:ایستگاه متروی شهید حقانی"}},{"type":"node","id":13381123758,"lat":35.7599846,"lon":51.4338172,"tags":{"name":"ایستگاه مترو میرداماد","name:ar":"میرداماد","name:en":"Mirdamad","name:fa":"میرداماد","name:hi":"मीरदामाद","name:ml":"മിർദാമാദ്","public_transport":"station","railway":"station","station":"subway","subway":"yes","wikidata":"Q2372844","wikipedia":"fa:ایستگاه متروی میرداماد"}},{"type":"node","id":13381123759,"lat":35.7630183,"lon":51.4440762,"tags":{"name":"ایستگاه مترو دکتر شریعتی","name:ar":"الدكتور شريعتي","name:en":"Doctor Shari'ati","name:fa":"دکتر شریعتی","name:hi":"डॉ. शरीयती","name:ml":"ഡോക്ടർ ഷറീയത്തി","public_transport":"station","railway":"station","station":"subway","subway":"yes","wikidata":"Q2372209","wikipedia":"fa:ایستگاه متروی دکتر شریعتی (تهران)"}},{"type":"node","id":13381123770,"lat":35.785118,"lon":51.4360318,"tags":{"name":"ایستگاه مترو شهید صدر","name:ar":"الشهيد صدر","name:en":"Shahid Sadr","name:fa":"شهید صدر","name:hi":"शहीद सद्र","name:ml":"ഷഹീദ് സദ്ർ","public_transport":"station","railway":"station","station":"subway","subway":"yes","wikidata":"Q2371507","wikipedia":"fa:ایستگاه متروی شهید صدر"}},{"type":"node","id":13381264373,"lat":35.7934184,"lon":51.4350607,"tags":{"name":"ایستگاه مترو قیطریه","name:ar":"قيطرية","name:en":"Gheytariyeh","name:fa":"قیطریه","name:hi":"क़ैतरिया","name:ml":"ഖൈത്തറിയെ","public_transport":"station","railway":"station","station":"subway","subway":"yes","wikidata":"Q2372827","wikipedia":"fa:ایستگاه متروی قیطریه"}},{"type":"node","id":13381264374,"lat":35.8046938,"lon":51.4336496,"tags":{"name":"ایستگاه مترو تجریش","name:ar":"تجریش","name:de":"Tadschrisch","name:en":"Tajrish","name:fa":"تجریش","name:hi":"तजरीश","name:ml":"തജ്രീഷ്","public_transport":"station","railway":"station","station":"subway","subway":"yes","website":"https://tajrish1.ir","wikidata":"Q5887864","wikipedia":"fa:ایستگاه متروی تجریش"}},{"type":"node","id":13426509301,"lat":35.709057,"lon":51.4429368,"tags":{"name":"ایستگاه متروی سرباز وطن","name:en":"Sarbaz-e Vatan Metro Station","name:fa":"سرباز وطن","name:hi":"सरबाज़-ए-वतन","public_transport":"station","railway":"station","station":"subway","subway":"yes","toilets":"no"}},{"type":"node","id":13426743990,"lat":35.7024033,"lon":51.4457999,"tags":{"name":"ایستگاه مترو امام حسین","name:en":"Emam Hossein Metro Station","name:fa":"امام حسین","name:hi":"इमाम हुसैन","operator":"Tehran Urban & Suburban Railway Operation Co.","public_transport":"station","railway":"station","station":"subway","subway":"yes","wikidata":"Q6003067"}},{"type":"node","id":13817588094,"lat":35.6645811,"lon":51.5106479,"tags":{"name":"ورزشگاه تختی","name:en":"Varzeshgah-e Takhti","name:hi":"वर्ज़ेशगाह-ए-तख़्ती","public_transport":"station","railway":"station","station":"subway","subway":"yes"}},{"type":"way","id":671794339,"center":{"lat":35.7011098,"lon":51.3784672},"nodes":[5165422501,6290875868,6290875866,4219260482,6290875860,6290875855,6290875854,6290875853,3439539465,6290875852,11162849695,13313025225,6290875849,5165422501],"tags":{"building":"yes","name":"ایستگاه مترو توحید","name:ar":"توحید","name:en":"Towhid metro station","name:fa":"توحید","name:hi":"तौहीद","name:ml":"തൗഹീദ്","network":"متروی تهران","network:wikidata":"Q714823","operator":"Tehran Urban and Suburban Railway Company","public_transport":"station","railway":"station","region":"6","station":"subway","subway":"yes","wikidata":"Q2371944","zone":"15"}},{"type":"way","id":1169531671,"center":{"lat":35.7086556,"lon":51.395046},"nodes":[10875076960,10875076959,10875076958,10746895092,10875076957,10875076960],"tags":{"building":"transportation","name":"ایستگاه مترو بوستان لاله","name:ar":"حديقة لاله","name:en":"Laleh Park Metro Station","name:fa":"بوستان لاله","name:hi":"लाले पार्क","name:ml":"ബുസ്താൻ ലാലെ","public_transport":"station","railway":"station","station":"subway","subway":"yes","wikidata":"Q111852796"}}]}