{"version":0.6,"generator":"Overpass API 0.7.62.11 87bfad18","osm3s":{"timestamp_osm_base":"2026-07-10T15:17:42Z","copyright":"The data included in this document is from www.openstreetmap.org. The data is made available under ODbL."},"elements":[{"type":"node","id":9077267210,"lat":30.1243892,"lon":120.4067931,"tags":{"building:levels":"2","height":"20","layer":"2","name":"钱清","name:en":"Qianqing","name:zh":"钱清","opening_hours":"06:09-23:49","operator":"绍兴京越地铁有限公司","public_transport":"station","railway":"station","ref":"1(W)","start_date":"-","station":"subway","subway":"yes"}},{"type":"node","id":9077267211,"lat":30.1655526,"lon":120.355421,"tags":{"public_transport":"station","railway":"station","station":"subway","subway":"yes"}},{"type":"node","id":9077267212,"lat":30.1467767,"lon":120.3606834,"tags":{"layer":"-1","name":"杨汛桥","name:en":"Yangxunqiao","name:zh":"杨汛桥","opening_hours":"06:09-23:49","operator":"绍兴京越地铁有限公司","public_transport":"station","railway":"station","ref":"1(W)","start_date":"-","station":"subway","subway":"yes"}},{"type":"node","id":9077267213,"lat":30.1261686,"lon":120.389499,"tags":{"building:levels":"2","height":"20","layer":"2","name":"前梅","name:en":"Qianmei","name:zh":"前梅","opening_hours":"06:09-23:49","operator":"绍兴京越地铁有限公司","public_transport":"station","railway":"station","ref":"1(W)","start_date":"-","station":"subway","subway":"yes"}},{"type":"node","id":9077267214,"lat":30.1198442,"lon":120.4219408,"tags":{"building:levels":"2","height":"20","layer":"2","name":"西沙路","name:en":"Xisha Road","name:zh":"西沙路","opening_hours":"06:09-23:49","operator":"绍兴京越地铁有限公司","public_transport":"station","railway":"station","ref":"1(W)","start_date":"-","station":"subway","subway":"yes"}},{"type":"node","id":9077267215,"lat":30.1125877,"lon":120.4364589,"tags":{"building:levels":"2","height":"20","layer":"2","name":"临杭大道","name:en":"Linhang Avenue","name:zh":"临杭大道","opening_hours":"06:09-23:49","operator":"绍兴京越地铁有限公司","public_transport":"station","railway":"station","ref":"1(W)","start_date":"-","station":"subway","subway":"yes"}},{"type":"node","id":9442045449,"lat":30.2734024,"lon":120.4074291,"tags":{"layer":"-1","name":"杭州大会展中心","name:en":"Hangzhou Grand Convention and Exhibition Center","name:zh":"杭州大会展中心","operator":"杭州杭港地铁有限公司","public_transport":"station","railway":"station","ref":"1","start_date":"-","station":"subway","subway":"yes"}},{"type":"node","id":9442045451,"lat":30.2729662,"lon":120.420773,"tags":{"layer":"-1","name":"港城大道","name:en":"Gangcheng Avenue","name:zh":"港城大道","opening_hours":"06:09-23:49","operator":"杭州杭港地铁有限公司","public_transport":"station","railway":"station","ref":"1","start_date":"-","station":"subway","subway":"yes"}},{"type":"node","id":9442045521,"lat":30.2626374,"lon":120.4380143,"tags":{"layer":"-1","name":"向阳路","name:en":"Xiangyang Road","name:zh":"向阳路","opening_hours":"06:09-23:49","operator":"杭州杭港地铁有限公司","public_transport":"station","railway":"station","ref":"1","start_date":"-","station":"subway","subway":"yes"}},{"type":"node","id":9442274971,"lat":30.2723902,"lon":120.4311145,"tags":{"layer":"-1","name":"南阳","name:en":"Nanyang","name:zh":"南阳","opening_hours":"06:09-23:49","operator":"杭州杭港地铁有限公司","public_transport":"station","railway":"station","ref":"1","start_date":"-","station":"subway","subway":"yes"}},{"type":"node","id":9458110001,"lat":30.1836501,"lon":120.2625341,"tags":{"layer":"-1","name":"人民广场","name:en":"People’s Square","name:zh":"人民广场","network":"杭州地铁","network:en":"Hangzhou Metro","network:wikidata":"Q2419742","network:zh":"杭州地铁","operator":"杭州地铁集团运营有限公司","public_transport":"station","railway":"station","ref":"2","start_date":"2014-11-24","station":"subway","subway":"yes"}},{"type":"node","id":9458110018,"lat":30.1836687,"lon":120.2618063,"tags":{"layer":"-1","name":"人民广场","name:en":"People’s Square","name:zh":"人民广场","network":"杭州地铁","network:en":"Hangzhou Metro","network:wikidata":"Q2419742","network:zh":"杭州地铁","operator":"杭州杭港地铁五号线有限公司","public_transport":"station","railway":"station","ref":"5","start_date":"2020-04-23","station":"subway","subway":"yes","toilets":"yes"}},{"type":"node","id":9468588380,"lat":30.1730439,"lon":120.2623297,"tags":{"layer":"-1","name":"杭发厂","name:en":"Hangfachang","name:zh":"杭发厂","opening_hours":"06:09-23:49","operator":"杭州地铁集团运营有限公司","public_transport":"station","railway":"station","ref":"2","start_date":"-","station":"subway","subway":"yes"}},{"type":"node","id":9468588399,"lat":30.1613679,"lon":120.2630329,"tags":{"layer":"-1","name":"人民路","name:en":"Renmin Road","name:zh":"人民路","opening_hours":"06:09-23:49","operator":"杭州地铁集团运营有限公司","public_transport":"station","railway":"station","ref":"2","start_date":"-","station":"subway","subway":"yes"}},{"type":"node","id":9468596890,"lat":30.1509428,"lon":120.263294,"tags":{"layer":"-1","name":"潘水","name:en":"Panshui","name:zh":"潘水","opening_hours":"06:09-23:49","operator":"杭州地铁集团运营有限公司","public_transport":"station","railway":"station","ref":"2","start_date":"-","station":"subway","subway":"yes"}},{"type":"node","id":9468596964,"lat":30.1367084,"lon":120.2631599,"tags":{"layer":"-1","name":"曹家桥","name:en":"Caojiaqiao","name:zh":"曹家桥","opening_hours":"06:09-23:49","operator":"杭州地铁集团运营有限公司","public_transport":"station","railway":"station","ref":"2","start_date":"-","station":"subway","subway":"yes"}},{"type":"node","id":9468597002,"lat":30.1245598,"lon":120.2636489,"tags":{"layer":"-1","name":"朝阳","name:en":"Chaoyang","name:zh":"朝阳","opening_hours":"06:09-23:49","operator":"杭州地铁集团运营有限公司","public_transport":"station","railway":"station","ref":"2","start_date":"-","station":"subway","subway":"yes"}},{"type":"node","id":9468597084,"lat":30.1833071,"lon":120.2730356,"tags":{"layer":"-1","name":"育才北路","name:en":"North Yucai Road","name:zh":"育才北路","opening_hours":"06:09-23:49","operator":"杭州杭港地铁五号线有限公司","public_transport":"station","railway":"station","ref":"5","start_date":"-","station":"subway","subway":"yes"}},{"type":"node","id":9470798764,"lat":30.1831126,"lon":120.2806399,"tags":{"layer":"-1","name":"通惠中路","name:en":"Middle Tonghui Road","name:zh":"通惠中路","opening_hours":"06:09-23:49","operator":"杭州杭港地铁五号线有限公司","public_transport":"station","railway":"station","ref":"5","start_date":"-","station":"subway","subway":"yes"}},{"type":"node","id":9470929848,"lat":30.1755184,"lon":120.3044997,"tags":{"layer":"-1","name":"双桥","name:en":"Shuangqiao","name:zh":"双桥","opening_hours":"06:09-23:49","operator":"杭州杭港地铁五号线有限公司","public_transport":"station","railway":"station","ref":"5","start_date":"-","station":"subway","subway":"yes"}},{"type":"node","id":9471678351,"lat":30.1782381,"lon":120.3259406,"tags":{"layer":"-1","name":"姑娘桥","name:en":"Guniangqiao","name:zh":"姑娘桥","opening_hours":"06:09-23:49","operator":"杭州杭港地铁五号线有限公司","public_transport":"station","railway":"station","ref":"5，1(W)","start_date":"-","station":"subway","subway":"yes"}},{"type":"node","id":9584937425,"lat":30.1750716,"lon":120.2926585,"tags":{"name":"火车南站","name:en":"South Railway Station","public_transport":"station","railway":"station","station":"subway","subway":"yes"}},{"type":"node","id":9697053464,"lat":29.9208512,"lon":120.5667362,"tags":{"name":"芳泉","name:en":"Fangquan","public_transport":"station","railway":"station","station":"subway","subway":"yes"}},{"type":"node","id":9697053465,"lat":29.9314068,"lon":120.5712917,"tags":{"name":"栖湖","name:en":"Qihu","public_transport":"station","railway":"station","station":"subway","subway":"yes"}},{"type":"node","id":9697053466,"lat":29.9418657,"lon":120.5717091,"tags":{"name":"南池","name:en":"Nanchi","public_transport":"station","railway":"station","station":"subway","subway":"yes"}},{"type":"node","id":9697053468,"lat":29.954527,"lon":120.5727519,"tags":{"name":"劳家葑","name:en":"Laojiafeng","name:zh":"劳家葑","public_transport":"station","railway":"station","station":"subway","subway":"yes"}},{"type":"node","id":9697053471,"lat":29.9663414,"lon":120.5738477,"tags":{"name":"凤凰山","name:en":"Fenghuangshan","public_transport":"station","railway":"station","station":"subway","subway":"yes"}},{"type":"node","id":9697053472,"lat":29.9787646,"lon":120.5763361,"tags":{"name":"城南大道","name:en":"Chengnan Avenue","public_transport":"station","railway":"station","station":"subway","subway":"yes"}},{"type":"node","id":9697058309,"lat":29.9941764,"lon":120.5764704,"tags":{"name":"鲁迅故里","name:en":"Luxun Native Place","public_transport":"station","railway":"station","station":"subway","subway":"yes"}},{"type":"node","id":9697058310,"lat":30.0066959,"lon":120.5771977,"tags":{"name":"城市广场","name:en":"City Square","public_transport":"station","railway":"station","station":"subway","subway":"yes"}},{"type":"node","id":9697058311,"lat":30.015738,"lon":120.5771893,"tags":{"name":"火车站","name:en":"Railway Station","public_transport":"station","railway":"station","station":"subway","subway":"yes"}},{"type":"node","id":9697058312,"lat":30.0261806,"lon":120.5784632,"tags":{"name":"大滩","name:en":"Datan","public_transport":"station","railway":"station","station":"subway","subway":"yes"}},{"type":"node","id":9697058313,"lat":30.039548,"lon":120.5774478,"tags":{"name":"凤林","name:en":"Fenglin","public_transport":"station","railway":"station","station":"subway","subway":"yes"}},{"type":"node","id":9697086917,"lat":30.0526194,"lon":120.5725913,"tags":{"name":"梅山广场","name:en":"Meishan Square","public_transport":"station","railway":"station","station":"subway","subway":"yes","wikidata":"Q111995380"}},{"type":"node","id":9697104329,"lat":30.0589438,"lon":120.5658495,"tags":{"name":"奥体中心","name:en":"Olympic Sports Center","public_transport":"station","railway":"station","station":"subway","subway":"yes"}},{"type":"node","id":9697104331,"lat":30.0554968,"lon":120.5496075,"tags":{"name":"张墅","name:en":"Zhangshu","public_transport":"station","railway":"station","station":"subway","subway":"yes"}},{"type":"node","id":9697104334,"lat":30.0609372,"lon":120.5355346,"tags":{"name":"黄酒小镇","name:en":"Huangjiu Town","public_transport":"station","railway":"station","station":"subway","subway":"yes","wikidata":"Q111995375","wikipedia":"zh:黄酒小镇站"}},{"type":"node","id":9697104335,"lat":30.0711519,"lon":120.5174432,"tags":{"name":"镜水路","name:en":"Jingshui Road","public_transport":"station","railway":"station","station":"subway","subway":"yes"}},{"type":"node","id":9697104336,"lat":30.0767978,"lon":120.5048291,"tags":{"name":"瓜渚湖","name:en":"Guazhuhu","public_transport":"station","railway":"station","station":"subway","subway":"yes"}},{"type":"node","id":9697104337,"lat":30.0818132,"lon":120.4912393,"tags":{"name":"明珠广场","name:en":"Mingzhu Square","public_transport":"station","railway":"station","station":"subway","subway":"yes"}},{"type":"node","id":9847996376,"lat":30.1658047,"lon":120.3553331,"tags":{"layer":"-1","name":"衙前","name:en":"Yaqian","name:zh":"衙前","opening_hours":"06:09-23:49","operator":"绍兴京越地铁有限公司","public_transport":"station","railway":"station","ref":"1(W)","start_date":"-","station":"subway","subway":"yes"}},{"type":"node","id":9859463007,"lat":30.2000031,"lon":120.3583284,"tags":{"layer":"-1","name":"盈中","name:en":"Yingzhong","name:zh":"盈中","opening_hours":"06:09-23:49","operator":"杭州地铁运营有限公司","public_transport":"station","railway":"station","ref":"7","start_date":"2020-12-30","station":"subway","subway":"yes","wikidata":"Q55514550"}},{"type":"node","id":9860230677,"lat":30.2003797,"lon":120.3384152,"tags":{"name":"合欢路","name:en":"Hehuan Road","operator":"杭州地铁","public_transport":"station","railway":"station","station":"subway","subway":"yes"}},{"type":"node","id":9863202903,"lat":30.2017903,"lon":120.3262667,"tags":{"layer":"-1","name":"新街","name:en":"Xinjie","name:zh":"新街","opening_hours":"06:09-23:49","operator":"杭州地铁运营有限公司","public_transport":"station","railway":"station","ref":"7","start_date":"-","station":"subway","subway":"yes"}},{"type":"node","id":9863202916,"lat":30.2054511,"lon":120.3021645,"tags":{"layer":"-1","name":"新汉路","name:en":"Xinhan Road","name:zh":"新汉路","opening_hours":"06:09-23:49","operator":"杭州地铁运营有限公司","public_transport":"station","railway":"station","ref":"7","start_date":"-","station":"subway","subway":"yes"}},{"type":"node","id":9863203368,"lat":30.2074732,"lon":120.2891111,"tags":{"layer":"-1","name":"新兴路","name:en":"Xinxing Road","name:zh":"新兴路","opening_hours":"06:09-23:49","operator":"杭州地铁运营有限公司","public_transport":"station","railway":"station","ref":"7","start_date":"-","station":"subway","subway":"yes"}},{"type":"node","id":9863987445,"lat":30.2001162,"lon":120.3909129,"tags":{"building:levels":"2","height":"-20","layer":"-2","name":"坎山","name:en":"Kanshan","name:zh":"坎山","opening_hours":"06:09-23:49","operator":"杭州地铁运营有限公司","public_transport":"station","railway":"station","ref":"7","start_date":"-","station":"subway","subway":"yes","wikidata":"Q55501738"}},{"type":"node","id":9865970130,"lat":30.2391775,"lon":120.4670748,"tags":{"layer":"-1","name":"永盛路","name:en":"Yongsheng Road","name:zh":"永盛路","opening_hours":"06:09-23:49","operator":"杭州地铁运营有限公司","public_transport":"station","railway":"station","ref":"7,19","start_date":"-","station":"subway","subway":"yes","wikidata":"Q55876615"}},{"type":"node","id":9866105604,"lat":30.2306369,"lon":120.3314419,"tags":{"building:levels":"2","height":"-20","layer":"-2","name":"知行路","name:en":"Zhixing Road","name:zh":"知行路","opening_hours":"06:09-23:49","operator":"杭州地铁运营有限公司","public_transport":"station","railway":"station","ref":"7","start_date":"-","station":"subway","subway":"yes"}},{"type":"node","id":9867980804,"lat":30.2606499,"lon":120.4798024,"tags":{"layer":"-1","name":"新镇路","name:en":"Xinzhen Road","name:zh":"新镇路","opening_hours":"06:09-23:49","operator":"杭州地铁运营有限公司","public_transport":"station","railway":"station","ref":"7","start_date":"-","station":"subway","subway":"yes"}},{"type":"node","id":9867980805,"lat":30.2762785,"lon":120.482607,"tags":{"layer":"-1","name":"义蓬","name:en":"Yipeng","name:zh":"义蓬","opening_hours":"06:09-23:49","operator":"杭州地铁运营有限公司","public_transport":"station","railway":"station","ref":"7","start_date":"-","station":"subway","subway":"yes","wikidata":"Q105378490"}},{"type":"node","id":9867985457,"lat":30.2867424,"lon":120.4859056,"tags":{"layer":"-1","name":"塘新线","name:en":"Tangxinxian","name:zh":"塘新线","opening_hours":"06:09-23:49","operator":"杭州地铁运营有限公司","public_transport":"station","railway":"station","ref":"7","start_date":"-","station":"subway","subway":"yes","wikidata":"Q64516206"}},{"type":"node","id":9867985553,"lat":30.3000767,"lon":120.488037,"tags":{"layer":"-1","name":"青六中路","name:en":"Middle Qingliu Road","name:zh":"青六中路","opening_hours":"06:09-23:49","operator":"杭州地铁运营有限公司","public_transport":"station","railway":"station","ref":"7,8","start_date":"-","station":"subway","subway":"yes","wikidata":"Q66129167"}},{"type":"node","id":9867985554,"lat":30.300167,"lon":120.4872175,"tags":{"layer":"-1","name":"青六中路","name:en":"Middle Qingliu Road","name:zh":"青六中路","opening_hours":"06:09-23:49","operator":"杭州地铁运营有限公司","public_transport":"station","railway":"station","ref":"7,8","start_date":"-","station":"subway","subway":"yes","wikidata":"Q66129167"}},{"type":"node","id":9867985563,"lat":30.3143487,"lon":120.4902614,"tags":{"layer":"-1","name":"启成路","name:en":"Qicheng Road","name:zh":"启成路","opening_hours":"06:09-23:49","operator":"杭州地铁运营有限公司","public_transport":"station","railway":"station","ref":"7","start_date":"-","station":"subway","subway":"yes","wikidata":"Q105378478","wikipedia":"zh:启成路站"}},{"type":"node","id":9869706039,"lat":30.2198578,"lon":120.404149,"tags":{"building:levels":"2","height":"-20","layer":"-2","name":"新港","name:en":"Xingang","name:zh":"新港","opening_hours":"06:09-23:49","operator":"杭州地铁运营有限公司","public_transport":"station","railway":"station","ref":"7","start_date":"-","station":"subway","subway":"yes"}},{"type":"node","id":9869948420,"lat":30.297235,"lon":120.5358745,"tags":{"layer":"-1","name":"新湾路","name:en":"Xinwan Road","name:zh":"新湾路","opening_hours":"06:09-23:49","operator":"杭州地铁运营有限公司","public_transport":"station","railway":"station","ref":"8","start_date":"-","station":"subway","subway":"yes"}},{"type":"node","id":9869948458,"lat":30.2966026,"lon":120.5168857,"tags":{"layer":"-1","name":"冯娄村","name:en":"Fengloucun","name:zh":"冯娄村","opening_hours":"06:09-23:49","operator":"杭州地铁运营有限公司","public_transport":"station","railway":"station","ref":"8","start_date":"2021-06-28","station":"subway","subway":"yes","wikidata":"Q107388713","wikipedia":"zh:冯娄村站"}},{"type":"node","id":9869948502,"lat":30.2963499,"lon":120.5034046,"tags":{"colour":"pink","layer":"-1","name":"仓北村","name:en":"Cangbeicun","name:zh":"仓北村","opening_hours":"06:09-23:49","operator":"杭州地铁运营有限公司","public_transport":"station","railway":"station","ref":"8","start_date":"-","station":"subway","subway":"yes"}},{"type":"node","id":9869948557,"lat":30.3006297,"lon":120.4732504,"tags":{"colour":"pink","layer":"-1","name":"青西三路","name:en":"Qingxisan Road","name:zh":"青西三路","opening_hours":"06:09-23:49","operator":"杭州地铁运营有限公司","public_transport":"station","railway":"station","ref":"8","start_date":"-","station":"subway","subway":"yes"}},{"type":"node","id":9869948584,"lat":30.3009586,"lon":120.4519423,"tags":{"colour":"pink","layer":"-1","name":"河庄路","name:en":"Hezhuang Road","name:zh":"河庄路","opening_hours":"06:09-23:49","operator":"杭州地铁运营有限公司","public_transport":"station","railway":"station","ref":"8","start_date":"-","station":"subway","subway":"yes"}},{"type":"node","id":9869948709,"lat":30.305355,"lon":120.4279238,"tags":{"colour":"pink","layer":"-1","name":"桥头堡","name:en":"Qiaotoubao","name:zh":"桥头堡","opening_hours":"06:09-23:49","operator":"杭州地铁运营有限公司","public_transport":"station","railway":"station","ref":"8","start_date":"-","station":"subway","subway":"yes"}},{"type":"node","id":9870552642,"lat":30.05227,"lon":120.5857218,"tags":{"name":"后墅路","name:en":"Houshu Road","public_transport":"station","railway":"station","station":"subway","subway":"yes"}},{"type":"node","id":11073098761,"lat":30.0470095,"lon":120.658156,"tags":{"name":"檀渎","name:en":"Tandu","public_transport":"station","railway":"station","station":"subway","subway":"yes"}},{"type":"node","id":11073098762,"lat":30.0505385,"lon":120.6453484,"tags":{"name":"豆姜","name:en":"Doujian","public_transport":"station","railway":"station","station":"subway","subway":"yes"}},{"type":"node","id":11073098765,"lat":30.052043,"lon":120.6345103,"tags":{"name":"恂南","name:en":"Xunnan","public_transport":"station","railway":"station","station":"subway","subway":"yes"}},{"type":"node","id":11073098766,"lat":30.0521846,"lon":120.6232075,"tags":{"name":"洋泾湖","name:en":"Yangjinghu","public_transport":"station","railway":"station","station":"subway","subway":"yes"}},{"type":"node","id":11073098767,"lat":30.0522403,"lon":120.6076822,"tags":{"name":"袍中路","name:en":"Paozhong Road","public_transport":"station","railway":"station","station":"subway","subway":"yes"}},{"type":"node","id":11073098768,"lat":30.0520755,"lon":120.5972913,"tags":{"name":"袍谷","name:en":"Paogu","public_transport":"station","railway":"station","station":"subway","subway":"yes"}},{"type":"node","id":11073098777,"lat":30.0468911,"lon":120.5549017,"tags":{"name":"人民医院总院","name:en":"People's Hospital","public_transport":"station","railway":"station","station":"subway","subway":"yes","wikidata":"Q120768406","wikipedia":"zh:人民医院总院站"}},{"type":"node","id":11778282958,"lat":30.0905757,"lon":120.5339592,"tags":{"name":"大庆寺","name:en":"Daqingsi","public_transport":"station","railway":"station","station":"subway","subway":"yes","wikidata":"Q125296915","wikipedia":"zh:大慶寺站"}},{"type":"node","id":11778282959,"lat":30.0811902,"lon":120.53386,"tags":{"name":"湖西","name:en":"Huxi","public_transport":"station","railway":"station","station":"subway","subway":"yes","wikidata":"Q125296964","wikipedia":"zh:湖西站"}},{"type":"node","id":11778282960,"lat":30.0698331,"lon":120.5339082,"tags":{"name":"绍兴一中","name:en":"Shaoxing No.1 High School","public_transport":"station","railway":"station","station":"subway","subway":"yes","wikidata":"Q125297024","wikipedia":"zh:绍兴一中站"}},{"type":"node","id":12966377073,"lat":30.1013649,"lon":120.5319795,"tags":{"name":"绍兴北站","name:en":"Shaoxing North Railway Station","public_transport":"station","railway":"station","station":"subway","subway":"yes","wikidata":"Q135189017"}},{"type":"node","id":12966377074,"lat":30.1033369,"lon":120.5133071,"tags":{"name":"会展中心","name:en":"Convention & Exhibition Center","public_transport":"station","railway":"station","station":"subway","subway":"yes","wikidata":"Q135189028"}},{"type":"node","id":13533546799,"lat":30.1460533,"lon":120.2463601,"tags":{"name":"南秀路","public_transport":"station","railway":"station","station":"subway","subway":"yes"}},{"type":"node","id":13533546802,"lat":30.1354345,"lon":120.2461242,"tags":{"name":"向旭路","public_transport":"station","railway":"station","station":"subway","subway":"yes"}},{"type":"node","id":13533546805,"lat":30.1271093,"lon":120.2463361,"tags":{"name":"蜀山","public_transport":"station","railway":"station","station":"subway","subway":"yes"}},{"type":"node","id":13533546808,"lat":30.1153298,"lon":120.2465218,"tags":{"name":"亚太路","public_transport":"station","railway":"station","station":"subway","subway":"yes"}},{"type":"node","id":13739083335,"lat":30.050396,"lon":120.5391258,"tags":{"name":"东浦","network":"绍兴轨道交通","public_transport":"station","railway":"station","station":"subway","subway":"yes"}},{"type":"node","id":13739083336,"lat":30.0420888,"lon":120.5378988,"tags":{"name":"大树江","network":"绍兴轨道交通","public_transport":"station","railway":"station","station":"subway","subway":"yes"}},{"type":"node","id":13739083337,"lat":30.0208751,"lon":120.528129,"tags":{"name":"青甸湖","network":"绍兴轨道交通","public_transport":"station","railway":"station","station":"subway","subway":"yes"}},{"type":"node","id":13739083338,"lat":30.0097545,"lon":120.5373193,"tags":{"name":"陆游故里","network":"绍兴轨道交通","public_transport":"station","railway":"station","station":"subway","subway":"yes"}},{"type":"node","id":13739083339,"lat":30.0084368,"lon":120.5480183,"tags":{"name":"二环西路","network":"绍兴轨道交通","public_transport":"station","railway":"station","station":"subway","subway":"yes"}},{"type":"node","id":13739083349,"lat":30.0072132,"lon":120.5568962,"tags":{"name":"胜利西路","network":"绍兴轨道交通","public_transport":"station","railway":"station","station":"subway","subway":"yes"}},{"type":"node","id":13739979994,"lat":30.0069737,"lon":120.5665236,"tags":{"name":"府山西路","network":"绍兴轨道交通","public_transport":"station","railway":"station","station":"subway","subway":"yes"}},{"type":"node","id":13739979995,"lat":30.0066544,"lon":120.5896616,"tags":{"name":"世茂广场","network":"绍兴轨道交通","public_transport":"station","railway":"station","station":"subway","subway":"yes"}},{"type":"node","id":13739979996,"lat":30.0066838,"lon":120.5958124,"tags":{"name":"世茂天际","network":"绍兴轨道交通","public_transport":"station","railway":"station","station":"subway","subway":"yes"}},{"type":"node","id":13739979997,"lat":29.9961173,"lon":120.6033995,"tags":{"name":"平江路","network":"绍兴轨道交通","public_transport":"station","railway":"station","station":"subway","subway":"yes"}},{"type":"node","id":13739979998,"lat":29.9957746,"lon":120.614167,"tags":{"name":"人民东路","network":"绍兴轨道交通","public_transport":"station","railway":"station","station":"subway","subway":"yes"}},{"type":"node","id":13739979999,"lat":29.9959894,"lon":120.6318077,"tags":{"name":"迎宾路","network":"绍兴轨道交通","public_transport":"station","railway":"station","station":"subway","subway":"yes"}},{"type":"node","id":13739980000,"lat":29.9978089,"lon":120.6540148,"tags":{"name":"独树路","network":"绍兴轨道交通","public_transport":"station","railway":"station","station":"subway","subway":"yes"}},{"type":"node","id":13739992401,"lat":30.0004052,"lon":120.6744045,"tags":{"name":"银桥路","network":"绍兴轨道交通","public_transport":"station","railway":"station","station":"subway","subway":"yes"}},{"type":"way","id":961604975,"center":{"lat":30.084791,"lon":120.4837481},"nodes":[8895038388,8895038387,8981629143,8981629141,8981629149,8981629148,8981629147,8981629146,8981629145,8981629144,8981629142,8981629140,8981629128,8981629129,8981629131,8981629134,8981629133,8981629136,8981629137,8981629138,8981629139,8981629135,8981629132,8981629130,8981629127,8895038386,8895038385,8981629159,8981629160,8981629163,8981629162,8981629161,8981629158,8981629151,8981629152,8981629154,8981629157,8981629156,11999129001,11999129000,11999129002,11999129003,8981629155,8981629153,11999128999,8981629150,8895038388],"tags":{"building":"transportation","layer":"-1","location":"underground","name":"中国轻纺城","name:en":"China Textile City","public_transport":"station","railway":"station","station":"subway","subway":"yes","wikidata":"Q107392176"}},{"type":"way","id":961604976,"center":{"lat":30.1011008,"lon":120.4524682},"nodes":[8895078421,8895078420,8981629172,8981629176,8981629178,8981629177,8981629173,8981629175,8981629174,8981629179,8981629182,8981629183,8981629184,8981629181,8981629180,8895078419,8895078418,8981629185,8981629188,8981629190,8981629189,8981629187,8981629186,5040598191,8981629192,8981629193,8981629194,8981629196,8981629195,8981629191,8895078421],"tags":{"building":"transportation","layer":"-1","location":"underground","name":"鉴水路","name:en":"Jianshui Road","public_transport":"station","railway":"station","station":"subway","subway":"yes"}},{"type":"way","id":970514225,"center":{"lat":30.0900561,"lon":120.4758602},"nodes":[8981594585,8981594586,8981594587,8981594588,8981594589,8981594590,8981594591,8981594592,8981594593,8981594594,8981594595,8981594596,8981594597,8981594598,8981594599,8981594600,8981594601,8981594602,8981594603,8981594604,8981594605,8981594606,8981594607,8981594608,8981594609,8981594610,8981594585],"tags":{"building":"transportation","layer":"-1","location":"underground","name":"越州大道","name:en":"Yuezhou Avenue","public_transport":"station","railway":"station","station":"subway","subway":"yes","wikidata":"Q107562554"}},{"type":"way","id":970535894,"center":{"lat":30.2381704,"lon":120.4295873},"nodes":[8981893526,8981893535,10797168946,10797168945,11097179726,11091909604,11097179725,9446505079,9446505080,8981893528,8981893529,8981893526],"tags":{"indoor":"yes","layer":"-1","level":"-2","location":"underground","name":"萧山国际机场","name:en":"Xiaoshan International Airport","name:zh":"萧山国际机场","opening_hours":"06:09-23:49","operator":"杭州杭港地铁有限公司、杭州地铁运营有限公司","public_transport":"station","railway":"station","ref":"1,7,19","station":"subway","subway":"yes","wikidata":"Q53233700"}},{"type":"way","id":1030031952,"center":{"lat":30.0525156,"lon":120.6338324},"nodes":[9495207307,9495207308,9495207309,9495207310,9495207311,9495207312,9495207313,9495207314,9495207315,9495207316,9495207317,9495207318,9495207319,9495207320,9495207321,9495207322,9495207323,9495207324,9495207325,9495207326,9495207327,9495207328,9495207329,9495207330,9495207365,9495207331,9495207332,9495207333,9495207334,9495207335,9495207336,9495207337,9495207338,9495207339,9495207340,9495207341,9495207342,9495207366,9495207367,9495207370,9495207369,9495207368,9495207343,9495207344,9495207345,9495207346,9495207347,9495207348,9495207349,9495207350,9495207351,9495207352,9495207353,9495207354,9495207355,9495207356,9495207357,9495207364,9495207363,9495207362,9495207358,9495207359,9495207360,9495207361,9495207307],"tags":{"building":"transportation","layer":"-1","location":"underground","public_transport":"station","station":"subway","subway":"yes"}}]}