{"version":0.6,"generator":"Overpass API 0.7.62.11 87bfad18","osm3s":{"timestamp_osm_base":"2026-07-10T13:22:18Z","copyright":"The data included in this document is from www.openstreetmap.org. The data is made available under ODbL."},"elements":[{"type":"node","id":3781713897,"lat":32.2875723,"lon":118.780398,"tags":{"name":"化工园","name:en":"Huagongyuan","public_transport":"station","railway":"station","station":"subway","subway":"yes","wikidata":"Q19851950","wikipedia":"zh:化工园站"}},{"type":"node","id":3781713899,"lat":32.2757081,"lon":118.7715064,"tags":{"name":"长芦","name:en":"Changlu","public_transport":"station","railway":"station","station":"subway","subway":"yes","wikidata":"Q19853927","wikipedia":"zh:长芦站"}},{"type":"node","id":3781713902,"lat":32.2466477,"lon":118.7485212,"tags":{"name":"葛塘","name:en":"Getang","public_transport":"station","railway":"station","station":"subway","subway":"yes","wikidata":"Q19853624","wikipedia":"zh:葛塘站"}},{"type":"node","id":3781713909,"lat":32.2310899,"lon":118.7349949,"tags":{"name":"大厂","name:en":"Dachang","public_transport":"station","railway":"station","station":"subway","subway":"yes","wikidata":"Q19852240","wikipedia":"zh:大厂站"}},{"type":"node","id":4059246645,"lat":31.9751104,"lon":118.6693802,"tags":{"light_rail":"yes","name":"保双街","network":"南京有轨电车","public_transport":"station","railway":"station","station":"light_rail"}},{"type":"node","id":4059246646,"lat":31.9719144,"lon":118.6682527,"tags":{"light_rail":"yes","name":"保双街东","network":"南京有轨电车","public_transport":"station","railway":"station","station":"light_rail"}},{"type":"node","id":4059246647,"lat":31.9972712,"lon":118.7160735,"tags":{"light_rail":"yes","name":"元通","name:en":"Yuantong","network":"南京有轨电车","public_transport":"station","railway":"station","station":"light_rail"}},{"type":"node","id":4059246648,"lat":31.992343,"lon":118.7120277,"tags":{"light_rail":"yes","name":"博览中心东门","name:en":"Expo East Center","network":"南京有轨电车","public_transport":"station","railway":"station","station":"light_rail"}},{"type":"node","id":4059246649,"lat":31.9828223,"lon":118.7022554,"tags":{"light_rail":"yes","name":"友谊街","network":"南京有轨电车","public_transport":"station","railway":"station","station":"light_rail"}},{"type":"node","id":4059246650,"lat":31.9776945,"lon":118.6889134,"tags":{"light_rail":"yes","name":"吴侯街","name:en":"Wuhoujie","network":"南京有轨电车","public_transport":"station","railway":"station","station":"light_rail"}},{"type":"node","id":4059246651,"lat":31.97603,"lon":118.6761963,"tags":{"light_rail":"yes","name":"天保街","network":"南京有轨电车","public_transport":"station","railway":"station","station":"light_rail"}},{"type":"node","id":4059246652,"lat":32.0070407,"lon":118.7234631,"tags":{"light_rail":"yes","name":"奥体中心东门","name:en":"Olympic Stadium East Gate","network":"南京有轨电车","public_transport":"station","railway":"station","station":"light_rail"}},{"type":"node","id":4059246653,"lat":32.0031515,"lon":118.7203072,"tags":{"light_rail":"yes","name":"富春江西街","network":"南京有轨电车","public_transport":"station","railway":"station","station":"light_rail"}},{"type":"node","id":4059246654,"lat":31.9794348,"lon":118.6965509,"tags":{"light_rail":"yes","name":"平良大街","name:en":"Pingliangdajie","network":"南京有轨电车","public_transport":"station","railway":"station","station":"light_rail"}},{"type":"node","id":4059246655,"lat":31.9878051,"lon":118.7074107,"tags":{"light_rail":"yes","name":"江山大街","name:en":"Jianshandajie","network":"南京有轨电车","public_transport":"station","railway":"station","station":"light_rail"}},{"type":"node","id":4059246656,"lat":31.9697647,"lon":118.6627227,"tags":{"light_rail":"yes","name":"鱼嘴","name:en":"Yuzui","network":"南京有轨电车","public_transport":"station","railway":"station","station":"light_rail"}},{"type":"node","id":4059248501,"lat":31.9769222,"lon":118.6828601,"tags":{"light_rail":"yes","name":"龙王大街","network":"南京有轨电车","public_transport":"station","railway":"station","station":"light_rail"}},{"type":"node","id":4059270026,"lat":32.0232131,"lon":118.8873175,"tags":{"light_rail":"yes","name":"麒麟生态公园","network":"南京有轨电车","public_transport":"station","railway":"station","station":"light_rail","tram":"yes"}},{"type":"node","id":4059270027,"lat":32.0124902,"lon":118.8729831,"tags":{"light_rail":"yes","name":"智汇路","network":"南京有轨电车","public_transport":"station","railway":"station","station":"light_rail"}},{"type":"node","id":4059270028,"lat":32.0201551,"lon":118.8807185,"tags":{"light_rail":"yes","name":"光华路","network":"南京有轨电车","public_transport":"station","railway":"station","station":"light_rail"}},{"type":"node","id":4059270029,"lat":32.0338731,"lon":118.9042623,"tags":{"light_rail":"yes","name":"南湾营街","network":"南京有轨电车","public_transport":"station","railway":"station","station":"light_rail"}},{"type":"node","id":4059270030,"lat":32.0390416,"lon":118.9095014,"tags":{"light_rail":"yes","name":"天泉路","network":"南京有轨电车","public_transport":"station","railway":"station","station":"light_rail"}},{"type":"node","id":4059270031,"lat":32.0303814,"lon":118.8999956,"tags":{"light_rail":"yes","name":"天兴路","network":"南京有轨电车","public_transport":"station","railway":"station","station":"light_rail"}},{"type":"node","id":4059270032,"lat":32.016743,"lon":118.876521,"tags":{"light_rail":"yes","name":"水街坊","network":"南京有轨电车","public_transport":"station","railway":"station","station":"light_rail"}},{"type":"node","id":4059270033,"lat":32.0450526,"lon":118.9145811,"tags":{"light_rail":"yes","name":"北湾营街","network":"南京有轨电车","public_transport":"station","railway":"station","station":"light_rail","tram":"yes"}},{"type":"node","id":4059270034,"lat":32.0074243,"lon":118.8704698,"tags":{"light_rail":"yes","name":"石杨路","name:en":"Shiyanglu","network":"南京有轨电车","public_transport":"station","railway":"station","station":"light_rail"}},{"type":"node","id":4059270081,"lat":32.026462,"lon":118.8941652,"tags":{"light_rail":"yes","name":"启迪大街","network":"南京有轨电车","public_transport":"station","railway":"station","station":"light_rail"}},{"type":"node","id":5116356476,"lat":31.9733209,"lon":118.7920439,"tags":{"name":"南京南站","name:en":"Nanjing South Railway Station","name:zh-Latn-pinyin":"Nánjīng Nán Zhàn","public_transport":"stop_position","railway":"stop","station":"subway","subway":"yes"}},{"type":"node","id":5124587787,"lat":31.9690388,"lon":118.6646081,"tags":{"name":"鱼嘴","name:en":"Yuzui","name:zh-Hans":"鱼嘴","name:zh-Hant":"魚嘴","public_transport":"stop_position","railway":"stop","station":"subway","subway":"yes"}},{"type":"node","id":5124587791,"lat":31.9679857,"lon":118.6741099,"tags":{"name":"天保街","name:en":"Tianbaojie","public_transport":"stop_position","railway":"stop","station":"subway","subway":"yes"}},{"type":"node","id":5124587792,"lat":31.9644491,"lon":118.6867567,"tags":{"name":"青莲街","name:en":"Qinglainjie","name:zh-Hans":"青莲街","name:zh-Hant":"青蓮街","public_transport":"stop_position","railway":"stop","station":"subway","subway":"yes"}},{"type":"node","id":5124587796,"lat":31.9629061,"lon":118.6960591,"tags":{"name":"螺塘路","name:en":"Luotanglu","public_transport":"stop_position","railway":"stop","station":"subway","subway":"yes"}},{"type":"node","id":5340908569,"lat":32.1288354,"lon":118.8164488,"tags":{"name":"吉祥庵","name:en":"Jixiang'an","note":"地下三层岛式 长188 站台宽16.1 深22.8","public_transport":"station","railway":"station","station":"subway","subway":"yes","wikidata":"Q111225532","wikipedia":"zh:吉祥庵站"}},{"type":"node","id":6469532245,"lat":31.7398325,"lon":118.8825775,"tags":{"name":"空港新城江宁","name:en":"Konggangxinchengjiangning","network":"南京地铁S1号线,南京地铁S7号线","public_transport":"station","railway":"station","station":"subway","subway":"yes","wikidata":"Q52771391"}},{"type":"node","id":6469532246,"lat":31.7588247,"lon":118.9329381,"tags":{"description":"南京地铁S7号线","internet_access":"yes","name":"柘塘","name:en":"Zhetang","network":"南京地铁","network:en":"Nanjing Metro","network:wikidata":"Q429366","network:zh":"南京地铁","public_transport":"station","railway":"station","station":"subway","subway":"yes","wheelchair":"yes","wikidata":"Q53634753"}},{"type":"node","id":6469532247,"lat":31.7358248,"lon":118.9844056,"tags":{"description":"南京地铁S7号线","internet_access":"yes","name":"空港新城溧水","name:en":"Konggangxinchenglishui","network":"南京地铁","network:en":"Nanjing Metro","network:wikidata":"Q429366","network:zh":"南京地铁","public_transport":"station","railway":"station","station":"subway","subway":"yes","wheelchair":"yes","wikidata":"Q53635015"}},{"type":"node","id":6469532248,"lat":31.7231852,"lon":119.0090856,"tags":{"description":"南京地铁S7号线","internet_access":"yes","name":"群力","name:en":"Qunli","network":"南京地铁","network:en":"Nanjing Metro","network:wikidata":"Q429366","network:zh":"南京地铁","public_transport":"station","railway":"station","station":"subway","subway":"yes","wheelchair":"yes","wikidata":"Q53806961"}},{"type":"node","id":6469532249,"lat":31.6884014,"lon":119.0379135,"tags":{"description":"南京地铁S7号线","internet_access":"yes","name":"卧龙湖","name:en":"Wolonghu","network":"南京地铁","network:en":"Nanjing Metro","network:wikidata":"Q429366","network:zh":"南京地铁","public_transport":"station","railway":"station","station":"subway","subway":"yes","wheelchair":"yes","wikidata":"Q53806964"}},{"type":"node","id":6469532250,"lat":31.6640068,"lon":119.0392732,"tags":{"description":"南京地铁S7号线","internet_access":"yes","name":"溧水","name:en":"Lishui","network":"南京地铁","network:en":"Nanjing Metro","network:wikidata":"Q429366","network:zh":"南京地铁","public_transport":"station","railway":"station","station":"subway","subway":"yes","wheelchair":"yes"}},{"type":"node","id":6469532251,"lat":31.6487301,"lon":119.0398941,"tags":{"description":"南京地铁S7号线","internet_access":"yes","name":"中山湖","name:en":"Zhongshanhu","network":"南京地铁","network:en":"Nanjing Metro","network:wikidata":"Q429366","network:zh":"南京地铁","public_transport":"station","railway":"station","station":"subway","subway":"yes","wheelchair":"yes","wikidata":"Q53776947"}},{"type":"node","id":6469532252,"lat":31.6264854,"lon":119.0408034,"tags":{"description":"南京地铁S7号线","internet_access":"yes","name":"幸庄","name:en":"Xingzhuang","network":"南京地铁","network:en":"Nanjing Metro","network:wikidata":"Q429366","network:zh":"南京地铁","public_transport":"station","railway":"station","station":"subway","subway":"yes","wheelchair":"yes","wikidata":"Q53806958"}},{"type":"node","id":6469532253,"lat":31.610312,"lon":119.0414505,"tags":{"description":"南京地铁S7号线","internet_access":"yes","name":"无想山","name:en":"Wuxiangshan","network":"南京地铁","network:en":"Nanjing Metro","network:wikidata":"Q429366","network:zh":"南京地铁","public_transport":"station","railway":"station","station":"subway","subway":"yes","wheelchair":"yes","wikidata":"Q53415401"}},{"type":"node","id":6469606313,"lat":31.7325124,"lon":118.8686659,"tags":{"name":"禄口机场","name:en":"Lukou International Airport","name:ko":"루커우 공항","public_transport":"station","railway":"station","station":"subway","subway":"yes"}},{"type":"node","id":7998534650,"lat":32.3616245,"lon":118.8449478,"tags":{"name":"方洲广场","name:en":"Fangzhou Guangchang","network":"南京地铁","public_transport":"station","railway":"station","station":"subway","subway":"yes","wikidata":"Q19852700","wikipedia":"zh:方州广场站"}},{"type":"node","id":7998534655,"lat":32.3491953,"lon":118.8400555,"tags":{"name":"凤凰山公园","name:en":"Fenghuangshan Gongyuan","network":"南京地铁","public_transport":"station","railway":"station","station":"subway","subway":"yes","wikidata":"Q19851914","wikipedia":"zh:凤凰山公园站"}},{"type":"node","id":7998534656,"lat":32.3366468,"lon":118.8316897,"tags":{"name":"雄州","name:en":"Xiongzhou","network":"南京地铁","public_transport":"station","railway":"station","station":"subway","subway":"yes","wikidata":"Q19853994","wikipedia":"zh:雄州站"}},{"type":"node","id":7998554085,"lat":32.3213301,"lon":118.8153309,"tags":{"name":"龙池","name:en":"Longchi","network":"南京地铁","public_transport":"station","railway":"station","station":"subway","subway":"yes","wikidata":"Q19854150","wikipedia":"zh:龙池站"}},{"type":"node","id":7998554087,"lat":32.3073031,"lon":118.8001147,"tags":{"name":"六合开发区","name:en":"Luhe Development Zone","public_transport":"station","railway":"station","station":"subway","subway":"yes","wikidata":"Q19851893","wikipedia":"zh:六合开发区站"}},{"type":"node","id":7998554090,"lat":32.2046696,"lon":118.7217385,"tags":{"name":"信息工程大学","name:en":"NUIST","public_transport":"station","railway":"station","station":"subway","subway":"yes","wikidata":"Q19851855","wikipedia":"zh:信息工程大学站"}},{"type":"node","id":7998554091,"lat":32.1798771,"lon":118.7143859,"tags":{"name":"高新开发区","name:en":"Gaoxin Development Zone","public_transport":"station","railway":"station","station":"subway","subway":"yes","wikidata":"Q19854078","wikipedia":"zh:高新开发区站"}},{"type":"node","id":7998554100,"lat":32.1464757,"lon":118.7109849,"tags":{"name":"泰山新村","name:en":"Taishanxincun","network":"南京地铁","public_transport":"station","railway":"station","station":"subway","subway":"yes","wikidata":"Q19853003","wikipedia":"zh:泰山新村站"}},{"type":"node","id":8001955539,"lat":32.078684,"lon":118.8052423,"tags":{"name":"南京林业大学·新庄","name:en":"NFU - Xinzhuang","network":"南京地铁","public_transport":"station","railway":"station","station":"subway","subway":"yes","wikidata":"Q19851991","wikipedia":"zh:南京林业大学·新庄站"}},{"type":"node","id":8002523279,"lat":32.0799067,"lon":118.9388685,"tags":{"name":"灵山","name:en":"Lingshan","public_transport":"stop_position","railway":"stop","station":"subway","subway":"yes"}},{"type":"node","id":8241001177,"lat":32.3077563,"lon":118.4638133,"tags":{"name":"水口","note":"预留","public_transport":"station","railway":"station","station":"subway","subway":"yes"}},{"type":"node","id":8241001226,"lat":32.3136685,"lon":118.4053236,"tags":{"name":"林楼","name:zh":"林楼","name:zh-Hans":"林楼","name:zh-Hant":"林樓","public_transport":"station","railway":"station","station":"subway","subway":"yes"}},{"type":"node","id":8241001257,"lat":32.2834348,"lon":118.381658,"tags":{"name":"苏滁商务中心","name:zh":"苏滁商务中心","name:zh-Hans":"苏滁商务中心","name:zh-Hant":"蘇滁商務中心","public_transport":"station","railway":"station","station":"subway","subway":"yes"}},{"type":"node","id":8395851375,"lat":32.3097217,"lon":118.3858849,"tags":{"name":"大王郢","name:zh":"大王郢","name:zh-Hans":"大王郢","name:zh-Hant":"大王郢","public_transport":"station","railway":"station","station":"subway","subway":"yes"}},{"type":"node","id":8577198845,"lat":32.0510613,"lon":118.891523,"tags":{"light_rail":"yes","name":"马群","network":"南京有轨电车","public_transport":"station","railway":"station","station":"light_rail"}},{"type":"node","id":8577198846,"lat":32.0489545,"lon":118.9010871,"tags":{"light_rail":"yes","name":"百水桥路","network":"南京有轨电车","public_transport":"station","railway":"station","station":"light_rail"}},{"type":"node","id":8957895490,"lat":32.238504,"lon":118.2978674,"tags":{"name":"花博园","name:zh":"花博园","name:zh-Hans":"花博园","name:zh-Hant":"花博園","public_transport":"station","railway":"station","station":"subway","subway":"yes"}},{"type":"node","id":9085349307,"lat":31.9627704,"lon":118.6960329,"tags":{"name":"螺塘路","name:en":"Luotanglu","public_transport":"stop_position","railway":"stop","station":"subway","subway":"yes"}},{"type":"node","id":9085349312,"lat":31.9643087,"lon":118.6867189,"tags":{"name":"青莲街","name:en":"Qinglainjie","name:zh-Hans":"青莲街","name:zh-Hant":"青蓮街","public_transport":"stop_position","railway":"stop","station":"subway","subway":"yes"}},{"type":"node","id":9085367280,"lat":31.9690087,"lon":118.6646028,"tags":{"name":"鱼嘴","name:en":"Yuzui","name:zh-Hans":"鱼嘴","name:zh-Hant":"魚嘴","public_transport":"stop_position","railway":"stop","station":"subway","subway":"yes"}},{"type":"node","id":9085367287,"lat":31.9678539,"lon":118.674075,"tags":{"name":"天保街","name:en":"Tianbaojie","public_transport":"stop_position","railway":"stop","station":"subway","subway":"yes"}},{"type":"node","id":9163767699,"lat":32.1049091,"lon":118.8044693,"tags":{"name":"迈皋桥","name:en":"Maigaoqiao","public_transport":"station","railway":"station","station":"subway","subway":"yes"}},{"type":"node","id":9163767700,"lat":32.1194643,"lon":118.8135901,"tags":{"name":"晓庄","name:en":"Xiaozhuang","note":"地下三层岛式 长240.3 站台宽12~14 深23.5","public_transport":"station","railway":"station","station":"subway","subway":"yes","wikidata":"Q111225531","wikipedia":"zh:晓庄站"}},{"type":"node","id":9163767703,"lat":32.1165392,"lon":118.793453,"tags":{"name":"幕府山","name:en":"Mufushan","public_transport":"station","railway":"station","station":"subway","subway":"yes","wikidata":"Q111225537","wikipedia":"zh:幕府山站"}},{"type":"node","id":9164163239,"lat":32.097955,"lon":118.796859,"tags":{"name":"红山动物园","name:en":"Hongshan Zoo","public_transport":"station","railway":"station","station":"subway","subway":"yes"}},{"type":"node","id":9164163240,"lat":32.089061,"lon":118.7914145,"tags":{"name":"南京站","public_transport":"station","railway":"station","station":"subway","subway":"yes","wikidata":"Q10906879","wikipedia":"zh:南京站 (地铁)"}},{"type":"node","id":9164163241,"lat":32.0913098,"lon":118.7913519,"tags":{"name":"南京站","network":"南京地铁","public_transport":"station","railway":"station","station":"subway","subway":"yes","wikidata":"Q10906879","wikipedia":"zh:南京站 (地铁)"}},{"type":"node","id":9164163242,"lat":32.0819286,"lon":118.7785505,"tags":{"name":"新模范马路","network":"南京地铁1号线","public_transport":"station","railway":"station","station":"subway","subway":"yes"}},{"type":"node","id":9164163243,"lat":32.0724367,"lon":118.7790054,"tags":{"description":"南京地铁1号线","name":"玄武门","name:zh-Hans":"玄武门","name:zh-Hant":"玄武門","network":"南京地铁","public_transport":"station","railway":"station","station":"subway","subway":"yes"}},{"type":"node","id":9164163244,"lat":32.0607794,"lon":118.778424,"tags":{"name":"鼓楼","name:zh-Hans":"鼓楼","name:zh-Hant":"鼓樓","public_transport":"station","railway":"station","station":"subway","subway":"yes"}},{"type":"node","id":9164163245,"lat":32.0608993,"lon":118.7779653,"tags":{"name":"鼓楼","name:zh-Hans":"鼓楼","name:zh-Hant":"鼓樓","network":"南京地铁4号线","public_transport":"station","railway":"station","station":"subway","subway":"yes"}},{"type":"node","id":9164163246,"lat":32.0530398,"lon":118.7790309,"tags":{"name":"珠江路","network":"南京地铁1号线","public_transport":"station","railway":"station","station":"subway","subway":"yes"}},{"type":"node","id":9164163247,"lat":32.0435852,"lon":118.7789021,"tags":{"name":"新街口","network":"南京地铁","public_transport":"station","railway":"station","station":"subway","subway":"yes","wikidata":"Q6127265","wikipedia":"zh:新街口站 (南京地铁)"}},{"type":"node","id":9164163248,"lat":32.0438326,"lon":118.7786931,"tags":{"name":"新街口","network":"南京地铁","public_transport":"station","railway":"station","station":"subway","subway":"yes","wikidata":"Q6127265","wikipedia":"zh:新街口站 (南京地铁)"}},{"type":"node","id":9164163249,"lat":32.0329227,"lon":118.7786956,"tags":{"name":"张府园","network":"南京地铁1号线","public_transport":"station","railway":"station","station":"subway","subway":"yes"}},{"type":"node","id":9164163250,"lat":32.0250048,"lon":118.7763077,"tags":{"name":"三山街","name:en":"Sanshanjie","network":"南京地铁1号线","public_transport":"station","railway":"station","station":"subway","subway":"yes","wikidata":"Q7418989"}},{"type":"node","id":9164163251,"lat":32.0088699,"lon":118.7692948,"tags":{"name":"中华门","name:en":"Zhonghuamen","network":"南京地铁1号线","public_transport":"station","railway":"station","station":"subway","subway":"yes"}},{"type":"node","id":9164163252,"lat":31.9938186,"lon":118.7565037,"tags":{"name":"安德门","public_transport":"station","railway":"station","station":"subway","subway":"yes"}},{"type":"node","id":9164163253,"lat":31.9928898,"lon":118.7568575,"tags":{"name":"安德门","name:en":"Andemen","name:zh-Latn-pinyin":"Āndémén","network":"南京地铁10号线","public_transport":"station","railway":"station","station":"subway","subway":"yes"}},{"type":"node","id":9164163254,"lat":31.9811497,"lon":118.7579558,"tags":{"name":"天隆寺","network":"南京地铁1号线","public_transport":"station","railway":"station","station":"subway","subway":"yes"}},{"type":"node","id":9164163255,"lat":31.9788199,"lon":118.7693962,"tags":{"name":"软件大道","name:en":"Ruanjiandadao","network":"南京地铁1号线","public_transport":"station","railway":"station","station":"subway","subway":"yes"}},{"type":"node","id":9164163256,"lat":31.9798803,"lon":118.7805078,"tags":{"name":"花神庙","name:en":"Huashenmiao","network":"南京地铁1号线","public_transport":"station","railway":"station","station":"subway","subway":"yes","wheelchair":"limited"}},{"type":"node","id":9164163257,"lat":31.9712115,"lon":118.7927797,"tags":{"name":"南京南站","name:en":"Nanjing South Railway Station","name:zh":"南京南站","name:zh-Latn-pinyin":"Nánjīng Nán Zhàn","network":"南京地铁","public_transport":"station","railway":"station","station":"subway","subway":"yes","wikidata":"Q10906669","wikipedia":"zh:南京南站 (地铁)"}},{"type":"node","id":9164163258,"lat":31.9730213,"lon":118.7915917,"tags":{"name":"南京南站","network":"南京地铁","public_transport":"station","railway":"station","station":"subway","subway":"yes","wikidata":"Q10906669","wikipedia":"zh:南京南站 (地铁)"}},{"type":"node","id":9164163259,"lat":31.9657728,"lon":118.8120023,"tags":{"name":"双龙大道","name:en":"Shuanglongdadao","network":"南京地铁1号线","public_transport":"station","railway":"station","station":"subway","subway":"yes","wikidata":"Q15401801"}},{"type":"node","id":9164163260,"lat":31.9535144,"lon":118.8148,"tags":{"name":"河定桥","name:en":"Hedingqiao","network":"南京地铁1号线","public_transport":"station","railway":"station","station":"subway","subway":"yes"}},{"type":"node","id":9164163261,"lat":31.9458618,"lon":118.8161443,"tags":{"name":"胜太路","name:en":"Shengtailu","network":"南京地铁1号线","public_transport":"station","railway":"station","station":"subway","subway":"yes"}},{"type":"node","id":9164163262,"lat":31.9339985,"lon":118.815732,"tags":{"name":"百家湖","name:en":"Baijiahu","network":"南京地铁1号线","public_transport":"station","railway":"station","station":"subway","subway":"yes"}},{"type":"node","id":9164163263,"lat":31.9318366,"lon":118.8276866,"tags":{"name":"小龙湾","name:en":"Xiaolongwan","public_transport":"station","railway":"station","station":"subway","subway":"yes"}},{"type":"node","id":9164163264,"lat":31.9341566,"lon":118.839448,"tags":{"name":"竹山路","name:en":"Zhushanlu","public_transport":"station","railway":"station","station":"subway","subway":"yes","wikidata":"Q15401806","wikipedia":"en:Zhushanlu station"}},{"type":"node","id":9164163265,"lat":31.93986,"lon":118.8584784,"tags":{"name":"天印大道","name:en":"Tianyindadao","public_transport":"station","railway":"station","station":"subway","subway":"yes"}},{"type":"node","id":9164163266,"lat":31.9421148,"lon":118.8720946,"tags":{"name":"龙眠大道","name:en":"Longmiandadao","public_transport":"station","railway":"station","station":"subway","subway":"yes"}},{"type":"node","id":9164163267,"lat":31.9356843,"lon":118.8852463,"tags":{"name":"南医大·江苏经贸学院","name:en":"NMU-JIETT","public_transport":"station","railway":"station","station":"subway","subway":"yes"}},{"type":"node","id":9164163268,"lat":31.9151265,"lon":118.8998142,"tags":{"name":"南京交院","name:en":"NJCI","public_transport":"station","railway":"station","station":"subway","subway":"yes"}},{"type":"node","id":9164163269,"lat":31.8999023,"lon":118.9089474,"tags":{"name":"中国药科大学","name:en":"China Pharmaceutical University","name:zh-Hans":"中国药科大学","name:zh-Hant":"中國藥科大學","public_transport":"station","railway":"station","short_name:en":"CPU","station":"subway","subway":"yes"}},{"type":"node","id":9164739488,"lat":32.1183241,"lon":118.9714789,"tags":{"name":"经天路","name:en":"Jingtianlu","public_transport":"station","railway":"station","station":"subway","subway":"yes","wikidata":"Q10989153","wikipedia":"zh:经天路站"}},{"type":"node","id":9164739489,"lat":32.1109794,"lon":118.9544479,"tags":{"name":"南大仙林校区","public_transport":"station","railway":"station","station":"subway","subway":"yes","wikidata":"Q10907290","wikipedia":"zh:南大仙林校区站"}},{"type":"node","id":9164739490,"lat":32.1060865,"lon":118.9349953,"tags":{"name":"羊山公园","public_transport":"station","railway":"station","station":"subway","subway":"yes","wikidata":"Q11608638","wikipedia":"zh:羊山公园站"}},{"type":"node","id":9164739491,"lat":32.1009925,"lon":118.9253838,"tags":{"name":"仙林中心","public_transport":"station","railway":"station","station":"subway","subway":"yes","wikidata":"Q10884294","wikipedia":"zh:仙林中心站"}},{"type":"node","id":9164739492,"lat":32.0936278,"lon":118.9117845,"tags":{"name":"学则路","public_transport":"station","railway":"station","station":"subway","subway":"yes","wikidata":"Q8045236","wikipedia":"zh:学则路站"}},{"type":"node","id":9164739493,"lat":32.0872274,"lon":118.8999035,"tags":{"name":"仙鹤门","public_transport":"station","railway":"station","station":"subway","subway":"yes","wikidata":"Q10884376","wikipedia":"zh:仙鹤门站"}},{"type":"node","id":9164739494,"lat":32.0740855,"lon":118.901253,"tags":{"name":"金马路","network":"南京地铁4号线","public_transport":"station","railway":"station","station":"subway","subway":"yes"}},{"type":"node","id":9164739495,"lat":32.0739571,"lon":118.9009017,"tags":{"name":"金马路","public_transport":"station","railway":"station","station":"subway","subway":"yes","wikidata":"Q6202618","wikipedia":"zh:金马路站 (南京地铁)"}},{"type":"node","id":9164739496,"lat":32.0519062,"lon":118.889689,"tags":{"name":"马群","name:en":"Maqun","public_transport":"station","railway":"station","station":"subway","subway":"yes","wikidata":"Q15614537","wikipedia":"zh:马群站"}},{"type":"node","id":9164739497,"lat":32.0515545,"lon":118.8897535,"tags":{"name":"马群","name:en":"Maqun","network":"南京地铁","public_transport":"station","railway":"station","station":"subway","subway":"yes","wikidata":"Q15614537","wikipedia":"zh:马群站"}},{"type":"node","id":9164739498,"lat":32.0416668,"lon":118.8638447,"tags":{"name":"钟灵街","network":"南京地铁","public_transport":"station","railway":"station","station":"subway","subway":"yes","wikidata":"Q15614538","wikipedia":"zh:钟灵街站"}},{"type":"node","id":9164739499,"lat":32.0377237,"lon":118.8527169,"tags":{"name":"孝陵卫","name:en":"Xiaolingwei Station","network":"南京地铁","public_transport":"station","railway":"station","station":"subway","subway":"yes","wikidata":"Q15614539","wikipedia":"en:Xiaolingwei station"}},{"type":"node","id":9164739500,"lat":32.0398762,"lon":118.8433757,"tags":{"name":"下马坊","name:en":"Xiamafang Station","network":"南京地铁2号线","public_transport":"station","railway":"station","station":"subway","subway":"yes","wikidata":"Q15614540","wikipedia":"en:Xiamafang station"}},{"type":"node","id":9164739501,"lat":32.0423793,"lon":118.829969,"tags":{"name":"苜蓿园","network":"南京地铁","public_transport":"station","railway":"station","station":"subway","subway":"yes","wikidata":"Q15614541","wikipedia":"zh:苜蓿园站"}},{"type":"node","id":9164739502,"lat":32.0413753,"lon":118.8144822,"tags":{"air_conditioning":"yes","internet_access":"yes","name":"明故宫","name:zh":"明故宫","name:zh-Hans":"明故宫","name:zh-Hant":"明故宮","network":"南京地铁","public_transport":"station","railway":"station","station":"subway","subway":"yes","wheelchair":"yes","wikidata":"Q15614544","wikipedia":"zh:明故宫站"}},{"type":"node","id":9164739503,"lat":32.0421938,"lon":118.8003896,"tags":{"air_conditioning":"yes","internet_access":"yes","name":"西安门","name:zh":"西安门","name:zh-Hans":"西安门","name:zh-Hant":"西安門","network":"南京地铁","public_transport":"station","railway":"station","station":"subway","subway":"yes","wheelchair":"yes","wikidata":"Q15614546","wikipedia":"zh:西安门站"}},{"type":"node","id":9164739504,"lat":32.0431408,"lon":118.7896339,"tags":{"description":"南京地铁2号线","name":"大行宫","name:zh":"大行宫","name:zh-Hans":"大行宫","name:zh-Hant":"大行宮","network":"南京地铁","public_transport":"station","railway":"station","station":"subway","subway":"yes","wikidata":"Q15614548","wikipedia":"zh:大行宫站"}},{"type":"node","id":9164739505,"lat":32.0441325,"lon":118.789426,"tags":{"air_conditioning":"yes","description":"南京地铁3号线","internet_access":"yes","name":"大行宫","name:zh":"大行宫","name:zh-Hans":"大行宫","name:zh-Hant":"大行宮","network":"南京地铁","public_transport":"station","railway":"station","station":"subway","subway":"yes","wheelchair":"yes","wikidata":"Q15614548","wikipedia":"zh:大行宫站"}},{"type":"node","id":9164739506,"lat":32.0442907,"lon":118.7708082,"tags":{"name":"上海路","name:en":"Shanghailu","network":"南京地铁","public_transport":"station","railway":"station","station":"subway","subway":"yes","wikidata":"Q15614550","wikipedia":"zh:上海路站"}},{"type":"node","id":9164739507,"lat":32.0447812,"lon":118.7618044,"tags":{"name":"汉中门","name:zh-Hans":"汉中门","name:zh-Hant":"漢中門","network":"南京地铁","public_transport":"station","railway":"station","station":"subway","subway":"yes","wikidata":"Q15614551","wikipedia":"zh:汉中门站"}},{"type":"node","id":9164739508,"lat":32.039308,"lon":118.7539956,"tags":{"name":"莫愁湖","name:en":"Mochouhu","network":"南京地铁","public_transport":"station","railway":"station","station":"subway","subway":"yes","wikidata":"Q15614553","wikipedia":"zh:莫愁湖站"}},{"type":"node","id":9164739509,"lat":32.0370213,"lon":118.742365,"tags":{"name":"云锦路","name:zh-Hans":"云锦路","name:zh-Hant":"雲錦路","network":"南京地铁","public_transport":"station","railway":"station","station":"subway","subway":"yes","wikidata":"Q10881327","wikipedia":"zh:云锦路站 (南京地铁)"}},{"type":"node","id":9164739510,"lat":32.0301623,"lon":118.7343538,"tags":{"name":"集庆门大街","name:zh-Hans":"集庆门大街","name:zh-Hant":"集慶門大街","network":"南京地铁","public_transport":"station","railway":"station","station":"subway","subway":"yes","wikidata":"Q15614554","wikipedia":"zh:集庆门大街站"}},{"type":"node","id":9164739511,"lat":32.0173844,"lon":118.7308601,"tags":{"name":"兴隆大街","name:zh-Hans":"兴隆大街","name:zh-Hant":"興隆大街","network":"南京地铁","public_transport":"station","railway":"station","station":"subway","subway":"yes","wikidata":"Q15614555","wikipedia":"zh:兴隆大街站"}},{"type":"node","id":9164739512,"lat":32.0066065,"lon":118.72384,"tags":{"name":"奥体东","name:zh-Hans":"奥体东","name:zh-Hant":"奧體東","network":"南京地铁","public_transport":"station","railway":"station","station":"subway","subway":"yes","wikidata":"Q15614556","wikipedia":"zh:奥体东站"}},{"type":"node","id":9164739513,"lat":31.9977301,"lon":118.7164037,"tags":{"name":"元通","network":"南京地铁","public_transport":"station","railway":"station","station":"subway","subway":"yes","wikidata":"Q338806","wikipedia":"zh:元通站"}},{"type":"node","id":9164739514,"lat":31.9975239,"lon":118.7161581,"tags":{"name":"元通","network":"南京地铁","public_transport":"station","railway":"station","station":"subway","subway":"yes","wikidata":"Q338806","wikipedia":"zh:元通站"}},{"type":"node","id":9164739515,"lat":31.9857207,"lon":118.7174141,"tags":{"name":"雨润大街","name:zh-Hans":"雨润大街","name:zh-Hant":"雨潤大街","network":"南京地铁","public_transport":"station","railway":"station","station":"subway","subway":"yes","wikidata":"Q15614557","wikipedia":"zh:雨润大街站"}},{"type":"node","id":9164739516,"lat":31.9683987,"lon":118.716329,"tags":{"name":"油坊桥","name:zh-Hans":"油坊桥","name:zh-Hant":"油坊橋","network":"南京地铁","public_transport":"station","railway":"station","source":"bing","station":"subway","subway":"yes","wikidata":"Q11142545","wikipedia":"zh:油坊桥站"}},{"type":"node","id":9164762717,"lat":31.9628424,"lon":118.6960464,"tags":{"name":"螺塘路","name:en":"Luotanglu","network":"南京地铁","public_transport":"station","railway":"station","station":"subway","subway":"yes","wikidata":"Q107059789","wikipedia":"zh:螺塘路站"}},{"type":"node","id":9164762718,"lat":31.9643852,"lon":118.6867355,"tags":{"name":"青莲街","name:zh-Hans":"青莲街","name:zh-Hant":"青蓮街","network":"南京地铁","public_transport":"station","railway":"station","station":"subway","subway":"yes","wikidata":"Q107059815","wikipedia":"zh:青莲街站"}},{"type":"node","id":9164762719,"lat":31.9679273,"lon":118.6740914,"tags":{"name":"天保街","name:en":"Tainbaojie","network":"南京地铁","public_transport":"station","railway":"station","station":"subway","subway":"yes","wikidata":"Q107059812","wikipedia":"zh:天保街站"}},{"type":"node","id":9164762720,"lat":31.969025,"lon":118.6646026,"tags":{"name":"鱼嘴","name:en":"Yuzui","name:zh-Hans":"鱼嘴","name:zh-Hant":"魚嘴","network":"南京地铁","public_transport":"station","railway":"station","station":"subway","subway":"yes","wikidata":"Q107059783","wikipedia":"zh:鱼嘴站 (南京地铁)"}},{"type":"node","id":9164878195,"lat":32.165759,"lon":118.6662364,"tags":{"name":"林场","name:zh-Hans":"林场","name:zh-Hant":"林場","public_transport":"station","railway":"station","station":"subway","subway":"yes","wikidata":"Q19852832","wikipedia":"zh:林场站 (南京地铁)"}},{"type":"node","id":9164878196,"lat":32.1594953,"lon":118.691681,"tags":{"name":"星火路","network":"南京地铁","public_transport":"station","railway":"station","station":"subway","subway":"yes","wikidata":"Q19852725","wikipedia":"zh:星火路站"}},{"type":"node","id":9164878197,"lat":32.1584919,"lon":118.7023298,"tags":{"name":"东大成贤学院","name:zh-Hans":"东大成贤学院","name:zh-Hant":"東大成賢學院","network":"南京地铁","public_transport":"station","railway":"station","station":"subway","subway":"yes","wikidata":"Q19851634","wikipedia":"zh:东大成贤学院站"}},{"type":"node","id":9164878198,"lat":32.1558072,"lon":118.7132269,"tags":{"name":"泰冯路","name:zh-Hans":"泰冯路","name:zh-Hant":"泰馮路","network":"南京地铁","public_transport":"station","railway":"station","station":"subway","subway":"yes","wikidata":"Q19853002","wikipedia":"zh:泰冯路站"}},{"type":"node","id":9164878199,"lat":32.1560918,"lon":118.7139967,"tags":{"name":"泰冯路","network":"南京地铁","public_transport":"station","railway":"station","station":"subway","subway":"yes","wikidata":"Q19853002","wikipedia":"zh:泰冯路站"}},{"type":"node","id":9164878200,"lat":32.1530753,"lon":118.7287365,"tags":{"name":"天润城","name:en":"Tianruncheng","network":"南京地铁","public_transport":"station","railway":"station","station":"subway","subway":"yes","wikidata":"Q19852293","wikipedia":"zh:天润城站"}},{"type":"node","id":9164878201,"lat":32.1419357,"lon":118.7410665,"tags":{"name":"柳洲东路","network":"南京地铁","public_transport":"station","railway":"station","station":"subway","subway":"yes","wikidata":"Q19852861","wikipedia":"zh:柳洲东路站"}},{"type":"node","id":9164878204,"lat":32.1175654,"lon":118.7646919,"tags":{"name":"上元门","name:zh-Hans":"上元门","name:zh-Hant":"上元門","network":"南京地铁","public_transport":"station","railway":"station","station":"subway","subway":"yes","wikidata":"Q19851601","wikipedia":"zh:上元门站"}},{"type":"node","id":9164878205,"lat":32.1125773,"lon":118.7725137,"tags":{"name":"五塘广场","name:en":"Wutangguangchang","network":"南京地铁","public_transport":"station","railway":"station","station":"subway","subway":"yes","wikidata":"Q19851799","wikipedia":"zh:五塘广场站"}},{"type":"node","id":9164878206,"lat":32.0970954,"lon":118.7804641,"tags":{"name":"小市","network":"南京地铁","public_transport":"station","railway":"station","station":"subway","subway":"yes","wikidata":"Q19852420","wikipedia":"zh:小市站"}},{"type":"node","id":9164878207,"lat":32.0591776,"lon":118.7927528,"tags":{"description":"南京地铁3号线","name":"鸡鸣寺","name:zh-Hans":"鸡鸣寺","name:zh-Hant":"雞鳴寺","network":"南京地铁","public_transport":"station","railway":"station","station":"subway","subway":"yes","wikidata":"Q15916702","wikipedia":"zh:鸡鸣寺站"}},{"type":"node","id":9164878208,"lat":32.0597171,"lon":118.7921868,"tags":{"description":"南京地铁4号线","name":"鸡鸣寺","name:zh-Hans":"鸡鸣寺","name:zh-Hant":"雞鳴寺","network":"南京地铁","public_transport":"station","railway":"station","station":"subway","subway":"yes","wikidata":"Q15916702","wikipedia":"zh:鸡鸣寺站"}},{"type":"node","id":9164878209,"lat":32.0514183,"lon":118.7910251,"tags":{"name":"浮桥","network":"南京地铁","public_transport":"station","railway":"station","station":"subway","subway":"yes","wikidata":"Q19853022","wikipedia":"zh:浮桥站"}},{"type":"node","id":9164878210,"lat":32.0356111,"lon":118.7870613,"tags":{"name":"常府街","network":"南京地铁","public_transport":"station","railway":"station","station":"subway","subway":"yes","wikidata":"Q19852470","wikipedia":"zh:常府街站"}},{"type":"node","id":9164878211,"lat":32.0262978,"lon":118.7857444,"tags":{"name":"夫子庙","name:en":"Fuzimiao","name:zh":"夫子庙","name:zh-Hans":"夫子庙","name:zh-Hant":"夫子廟","network":"南京地铁","public_transport":"station","railway":"station","station":"subway","subway":"yes","wikidata":"Q17023743"}},{"type":"node","id":9164878212,"lat":32.0156328,"lon":118.7892959,"tags":{"air_conditioning":"yes","internet_access":"yes","name":"武定门","name:en":"Wudingmen","name:zh":"武定门","name:zh-Hans":"武定门","name:zh-Hant":"武定門","network":"南京地铁","public_transport":"station","railway":"station","station":"subway","subway":"yes","wikidata":"Q19852919","wikipedia":"zh:武定门站"}},{"type":"node","id":9164878213,"lat":32.0057781,"lon":118.7873914,"tags":{"name":"雨花门","name:zh":"雨花门","name:zh-Hans":"雨花门","name:zh-Hant":"雨花門","network":"南京地铁","public_transport":"station","railway":"station","station":"subway","subway":"yes","wikidata":"Q19854000","wikipedia":"zh:雨花门站"}},{"type":"node","id":9164878214,"lat":31.9974236,"lon":118.7902427,"tags":{"name":"卡子门","name:zh":"卡子门","name:zh-Hans":"卡子门","name:zh-Hant":"卡子門","network":"南京地铁","public_transport":"station","railway":"station","start_date":"2015-04-01","station":"subway","subway":"yes","wikidata":"Q19852029","wikipedia":"zh:卡子门站"}},{"type":"node","id":9164878215,"lat":31.9880821,"lon":118.7949269,"tags":{"air_conditioning":"yes","name":"大明路","name:zh":"大明路","name:zh-Hans":"大明路","name:zh-Hant":"大明路","network":"南京地铁","public_transport":"station","railway":"station","station":"subway","subway":"yes","wheelchair":"yes","wikidata":"Q19852251","wikipedia":"zh:大明路站"}},{"type":"node","id":9164878216,"lat":31.9792479,"lon":118.7954099,"tags":{"air_conditioning":"yes","name":"明发广场","name:zh":"明发广场","name:zh-Hans":"明发广场","name:zh-Hant":"明發廣場","network":"南京地铁","public_transport":"station","railway":"station","station":"subway","subway":"yes","wheelchair":"yes","wikidata":"Q19852719","wikipedia":"zh:明发广场站"}},{"type":"node","id":9164898217,"lat":31.9611195,"lon":118.7988447,"tags":{"name":"宏运大道","network":"南京地铁","public_transport":"station","railway":"station","station":"subway","subway":"yes","wikidata":"Q19852374","wikipedia":"zh:宏运大道站"}},{"type":"node","id":9164898218,"lat":31.9456746,"lon":118.8022139,"tags":{"name":"胜太西路","network":"南京地铁","public_transport":"station","railway":"station","station":"subway","subway":"yes","wikidata":"Q19853342","wikipedia":"zh:胜太西路站"}},{"type":"node","id":9164898220,"lat":31.9295801,"lon":118.8035437,"tags":{"name":"天元西路","network":"南京地铁","public_transport":"station","railway":"station","station":"subway","subway":"yes","wikidata":"Q19852282","wikipedia":"zh:天元西路站"}},{"type":"node","id":9164898221,"lat":31.9179211,"lon":118.8157324,"tags":{"name":"九龙湖","name:zh-Hans":"九龙湖","name:zh-Hant":"九龍湖","network":"南京地铁","public_transport":"station","railway":"station","station":"subway","subway":"yes","wikidata":"Q19851781","wikipedia":"zh:九龙湖站 (南京地铁)"}},{"type":"node","id":9164898222,"lat":31.9101875,"lon":118.8247793,"tags":{"name":"诚信大道","name:en":"Chengxin­dadao","network":"南京地铁","public_transport":"station","railway":"station","station":"subway","subway":"yes","wikidata":"Q15938149","wikipedia":"zh:诚信大道站"}},{"type":"node","id":9164898223,"lat":31.8979717,"lon":118.8252234,"tags":{"name":"东大九龙湖校区","network":"南京地铁","public_transport":"station","railway":"station","station":"subway","subway":"yes","wikidata":"Q15919659","wikipedia":"zh:东大九龙湖校区站"}},{"type":"node","id":9164898224,"lat":31.8710272,"lon":118.8260728,"tags":{"name":"秣周东路","network":"南京地铁","public_transport":"station","railway":"station","station":"subway","subway":"yes","wikidata":"Q17066738","wikipedia":"zh:秣周东路站"}},{"type":"node","id":9164951623,"lat":32.0601141,"lon":118.7343709,"tags":{"name":"龙江","name:en":"Liongjiang","public_transport":"station","railway":"station","station":"subway","subway":"yes","wikidata":"Q21246005"}},{"type":"node","id":9164951625,"lat":32.0625295,"lon":118.7504441,"tags":{"name":"草场门·南艺·二师","name:en":"Caochangmen","network":"南京地铁4号线","public_transport":"station","railway":"station","station":"subway","subway":"yes"}},{"type":"node","id":9164951626,"lat":32.0612036,"lon":118.7693814,"tags":{"name":"云南路","name:en":"Yunnanlu","public_transport":"station","railway":"station","station":"subway","subway":"yes","wikidata":"Q28418460"}},{"type":"node","id":9164951627,"lat":32.0594559,"lon":118.8007151,"tags":{"name":"九华山","name:zh-Hans":"九华山","name:zh-Hant":"九華山","network":"南京地铁4号线","public_transport":"station","railway":"station","station":"subway","subway":"yes"}},{"type":"node","id":9164951628,"lat":32.0674276,"lon":118.8107755,"tags":{"name":"岗子村","name:en":"Gangzicun","network":"南京地铁4号线","public_transport":"station","railway":"station","station":"subway","subway":"yes"}},{"type":"node","id":9164951629,"lat":32.0797006,"lon":118.82605,"tags":{"name":"蒋王庙","network":"南京地铁4号线","public_transport":"station","railway":"station","station":"subway","subway":"yes"}},{"type":"node","id":9164951630,"lat":32.0875442,"lon":118.8331103,"tags":{"name":"王家湾","network":"南京地铁4号线","public_transport":"station","railway":"station","station":"subway","subway":"yes"}},{"type":"node","id":9164951631,"lat":32.0960929,"lon":118.859754,"tags":{"name":"聚宝山","network":"南京地铁4号线","public_transport":"station","railway":"station","station":"subway","subway":"yes"}},{"type":"node","id":9164951632,"lat":32.0874529,"lon":118.8833105,"tags":{"name":"徐庄·苏宁总部","network":"南京地铁4号线","public_transport":"station","railway":"station","station":"subway","subway":"yes"}},{"type":"node","id":9164951633,"lat":32.0802672,"lon":118.926565,"tags":{"name":"汇通路","network":"南京地铁4号线","public_transport":"station","railway":"station","station":"subway","subway":"yes"}},{"type":"node","id":9164951634,"lat":32.0799685,"lon":118.9388316,"tags":{"name":"灵山","network":"南京地铁4号线","public_transport":"station","railway":"station","station":"subway","subway":"yes"}},{"type":"node","id":9164951635,"lat":32.0793696,"lon":118.9597272,"tags":{"name":"东流","network":"南京地铁4号线","public_transport":"station","railway":"station","station":"subway","subway":"yes"}},{"type":"node","id":9164951636,"lat":32.0865768,"lon":118.9821624,"tags":{"name":"孟北","network":"南京地铁4号线","public_transport":"station","railway":"station","station":"subway","subway":"yes"}},{"type":"node","id":9164951637,"lat":32.1010647,"lon":118.9912473,"tags":{"name":"西岗桦墅","network":"南京地铁4号线","public_transport":"station","railway":"station","station":"subway","subway":"yes"}},{"type":"node","id":9164951638,"lat":32.127572,"lon":118.9873314,"tags":{"name":"仙林湖","name:en":"Xianlinhu","public_transport":"station","railway":"station","station":"subway","subway":"yes","wikidata":"Q28532731","wikipedia":"zh:仙林湖站"}},{"type":"node","id":9165008021,"lat":31.9445295,"lon":118.7796595,"tags":{"name":"翠屏山","name:en":"Cuipingshan","network":"南京地铁","public_transport":"station","railway":"station","station":"subway","subway":"yes","wikidata":"Q17502260","wikipedia":"zh:翠屏山站 (南京地铁)"}},{"type":"node","id":9165008022,"lat":31.9158215,"lon":118.7864188,"tags":{"name":"河海大学·佛城西路","name:en":"Hohai University / Fochengxilu","network":"南京地铁","public_transport":"station","railway":"station","station":"subway","subway":"yes","wikidata":"Q17502420","wikipedia":"zh:河海大学·佛城西路站"}},{"type":"node","id":9165008023,"lat":31.8883918,"lon":118.7901956,"tags":{"name":"吉印大道","name:en":"Jiyindadao","network":"南京地铁","public_transport":"station","railway":"station","station":"subway","subway":"yes","wikidata":"Q17502413","wikipedia":"zh:吉印大道站"}},{"type":"node","id":9165008024,"lat":31.8472088,"lon":118.8006946,"tags":{"name":"正方中路","name:en":"Zhengfang­zhonglu","public_transport":"station","railway":"station","station":"subway","subway":"yes","wikidata":"Q17502397","wikipedia":"zh:正方中路站"}},{"type":"node","id":9165008025,"lat":31.7933017,"lon":118.8163962,"tags":{"name":"翔宇路北","public_transport":"station","railway":"station","station":"subway","subway":"yes","wikidata":"Q17502243","wikipedia":"zh:翔宇路北站"}},{"type":"node","id":9165008026,"lat":31.7569058,"lon":118.8241228,"tags":{"name":"翔宇路南","name:en":"Xiangyulunan","public_transport":"station","railway":"station","station":"subway","subway":"yes","wikidata":"Q17502247","wikipedia":"zh:翔宇路南站"}},{"type":"node","id":9165048003,"lat":31.9644295,"lon":118.7734592,"tags":{"name":"景明佳园","name:en":"Jingmingjiayuan","network":"南京地铁","public_transport":"station","railway":"station","station":"subway","subway":"yes","wikidata":"Q48809507","wikipedia":"zh:景明佳园站"}},{"type":"node","id":9165048004,"lat":31.966511,"lon":118.7590457,"tags":{"name":"铁心桥","name:en":"Tiexinqiao","name:zh-Hans":"铁心桥","name:zh-Hant":"鐵心橋","network":"南京地铁","public_transport":"station","railway":"station","station":"subway","subway":"yes","wikidata":"Q48809511","wikipedia":"zh:铁心桥站"}},{"type":"node","id":9165048005,"lat":31.9645322,"lon":118.7448269,"tags":{"name":"春江路","name:en":"Chunjianglu","network":"南京地铁","public_transport":"station","railway":"station","station":"subway","subway":"yes","wikidata":"Q45145464","wikipedia":"zh:春江路站"}},{"type":"node","id":9165048006,"lat":31.9615803,"lon":118.7275284,"tags":{"name":"贾西","name:en":"Jiaxi","network":"南京地铁","public_transport":"station","railway":"station","station":"subway","subway":"yes","wikidata":"Q48809518","wikipedia":"zh:贾西站"}},{"type":"node","id":9165048007,"lat":31.9677126,"lon":118.7143386,"tags":{"name":"油坊桥","name:zh-Hans":"油坊桥","name:zh-Hant":"油坊橋","network":"南京地铁","public_transport":"station","railway":"station","station":"subway","subway":"yes","wikidata":"Q11142545","wikipedia":"zh:油坊桥站"}},{"type":"node","id":9165048008,"lat":31.9761434,"lon":118.7071017,"tags":{"name":"永初路","name:en":"Yongchulu","network":"南京地铁","public_transport":"station","railway":"station","station":"subway","subway":"yes","wikidata":"Q44890366","wikipedia":"zh:永初路站"}},{"type":"node","id":9165048009,"lat":31.9796722,"lon":118.6974356,"tags":{"name":"平良大街","name:en":"Pingliangdajie","network":"南京地铁","public_transport":"station","railway":"station","station":"subway","subway":"yes","wikidata":"Q48809532","wikipedia":"zh:平良大街站"}},{"type":"node","id":9165048010,"lat":31.9774299,"lon":118.6881754,"tags":{"name":"吴侯街","name:en":"Wuhoujie","network":"南京地铁","public_transport":"station","railway":"station","station":"subway","subway":"yes","wikidata":"Q45145422","wikipedia":"zh:吴侯街站"}},{"type":"node","id":9165048011,"lat":31.9708609,"lon":118.6832782,"tags":{"name":"高庙路","name:en":"Gaomiaolu","network":"南京地铁","public_transport":"station","railway":"station","station":"subway","subway":"yes","wikidata":"Q45145418","wikipedia":"zh:高庙路站"}},{"type":"node","id":9165048012,"lat":31.9552445,"lon":118.672229,"tags":{"name":"天保","name:en":"Tianbao","public_transport":"station","railway":"station","station":"subway","subway":"yes","wikidata":"Q45145143","wikipedia":"zh:天保站"}},{"type":"node","id":9165048013,"lat":31.946438,"lon":118.6599173,"tags":{"name":"刘村","name:en":"Liucun","name:zh-Hans":"刘村","name:zh-Hant":"劉村","network":"南京地铁","public_transport":"station","railway":"station","station":"subway","subway":"yes","wikidata":"Q44890367","wikipedia":"zh:刘村站"}},{"type":"node","id":9165048014,"lat":31.9752803,"lon":118.5833133,"tags":{"name":"马骡圩","name:en":"Maluowei","name:zh-Hans":"马骡圩","name:zh-Hant":"馬騾圩","public_transport":"station","railway":"station","station":"subway","subway":"yes","wikidata":"Q44890351","wikipedia":"zh:马骡圩站"}},{"type":"node","id":9165048015,"lat":31.9603872,"lon":118.5697939,"tags":{"name":"兰花塘","name:en":"Lanhuatang","public_transport":"station","railway":"station","station":"subway","subway":"yes","wikidata":"Q48809589","wikipedia":"zh:兰花塘站"}},{"type":"node","id":9165048016,"lat":31.950407,"lon":118.5624554,"tags":{"name":"双垅","name:en":"Shuanglong","public_transport":"station","railway":"station","station":"subway","subway":"yes","wikidata":"Q45145124","wikipedia":"zh:双垅站"}},{"type":"node","id":9165078117,"lat":31.9401795,"lon":118.5530281,"tags":{"name":"石碛河","name:en":"Shiqihe","public_transport":"station","railway":"station","station":"subway","subway":"yes","wikidata":"Q45145114","wikipedia":"zh:石碛河站"}},{"type":"node","id":9165078118,"lat":31.9320033,"lon":118.5424269,"tags":{"name":"桥林新城","name:en":"Qiaolinxincheng","public_transport":"station","railway":"station","station":"subway","subway":"yes","wikidata":"Q48809603","wikipedia":"zh:桥林新城站"}},{"type":"node","id":9165078119,"lat":31.9209487,"lon":118.5259866,"tags":{"name":"林山","name:en":"Linshan","public_transport":"station","railway":"station","station":"subway","subway":"yes","wikidata":"Q45145101","wikipedia":"zh:林山站"}},{"type":"node","id":9165078120,"lat":31.9111766,"lon":118.5120718,"tags":{"name":"高家冲","name:en":"Gaojiachong","public_transport":"station","railway":"station","station":"subway","subway":"yes","wikidata":"Q44815392","wikipedia":"zh:高家冲站"}},{"type":"node","id":9165103268,"lat":32.0554877,"lon":118.9096918,"tags":{"name":"百水桥","note":"南京地铁","public_transport":"station","railway":"station","station":"subway","subway":"yes","wikidata":"Q107059791","wikipedia":"zh:百水桥站"}},{"type":"node","id":9165103269,"lat":32.0552423,"lon":118.9227839,"tags":{"name":"麒麟门","network":"南京地铁","public_transport":"station","railway":"station","station":"subway","subway":"yes","wikidata":"Q107059792","wikipedia":"zh:麒麟门站"}},{"type":"node","id":9165103270,"lat":32.0539037,"lon":118.9477044,"tags":{"name":"东郊小镇","public_transport":"station","railway":"station","station":"subway","subway":"yes","wikidata":"Q107059793","wikipedia":"zh:东郊小镇站"}},{"type":"node","id":9165103271,"lat":32.0512972,"lon":119.0039055,"tags":{"name":"古泉","public_transport":"station","railway":"station","station":"subway","subway":"yes","wikidata":"Q107059795","wikipedia":"zh:古泉站 (南京地铁)"}},{"type":"node","id":9165103272,"lat":32.0633902,"lon":119.0469393,"tags":{"name":"南京猿人洞","public_transport":"station","railway":"station","station":"subway","subway":"yes","wikidata":"Q107059796","wikipedia":"zh:南京猿人洞站"}},{"type":"node","id":9165103273,"lat":32.0500379,"lon":119.0626857,"tags":{"name":"汤山","network":"南京地铁","public_transport":"station","railway":"station","station":"subway","subway":"yes","wikidata":"Q107059797","wikipedia":"zh:汤山站"}},{"type":"node","id":9165103274,"lat":32.0351254,"lon":119.0467607,"tags":{"name":"泉都大街","network":"南京地铁","public_transport":"station","railway":"station","station":"subway","subway":"yes","wikidata":"Q107059798","wikipedia":"zh:泉都大街站"}},{"type":"node","id":9165103275,"lat":32.0100269,"lon":119.110678,"tags":{"name":"黄梅","public_transport":"station","railway":"station","station":"subway","subway":"yes","wikidata":"Q107059799","wikipedia":"zh:黄梅站 (南京地铁)"}},{"type":"node","id":9165103276,"lat":31.9937393,"lon":119.1584687,"tags":{"name":"童世界","public_transport":"station","railway":"station","station":"subway","subway":"yes","wikidata":"Q107059800","wikipedia":"zh:童世界站"}},{"type":"node","id":9165103277,"lat":31.9744435,"lon":119.1749467,"tags":{"name":"华阳","public_transport":"station","railway":"station","station":"subway","subway":"yes","wikidata":"Q107059801","wikipedia":"zh:华阳站 (南京地铁)"}},{"type":"node","id":9165103278,"lat":31.9449017,"lon":119.1732365,"tags":{"name":"崇明","public_transport":"station","railway":"station","station":"subway","subway":"yes","wikidata":"Q107059803","wikipedia":"zh:崇明站"}},{"type":"node","id":9165103279,"lat":31.9239853,"lon":119.1645253,"tags":{"name":"句容","public_transport":"station","railway":"station","station":"subway","subway":"yes","wikidata":"Q107059804","wikipedia":"zh:句容站 (南京地铁)"}},{"type":"node","id":9165117856,"lat":31.698213,"lon":118.8765414,"tags":{"name":"铜山","name:en":"Tongshan","network":"南京地铁","public_transport":"station","railway":"station","station":"subway","subway":"yes","wikidata":"Q48809640","wikipedia":"zh:铜山站 (南京地铁)"}},{"type":"node","id":9165117857,"lat":31.6425192,"lon":118.9023785,"tags":{"name":"石湫","name:en":"Shiqiu","public_transport":"station","railway":"station","station":"subway","subway":"yes","wikidata":"Q48809644","wikipedia":"zh:石湫站"}},{"type":"node","id":9165117858,"lat":31.5485906,"lon":118.8972273,"tags":{"name":"明觉","name:en":"Mingjue","public_transport":"station","railway":"station","station":"subway","subway":"yes","wikidata":"Q47004881","wikipedia":"zh:明觉站"}},{"type":"node","id":9165153418,"lat":32.2168512,"lon":118.7253749,"tags":{"name":"卸甲甸","name:en":"Xiejiadian","public_transport":"station","railway":"station","station":"subway","subway":"yes","wikidata":"Q19852033","wikipedia":"zh:卸甲甸站"}},{"type":"node","id":9165153419,"lat":32.4022172,"lon":118.8868502,"tags":{"name":"沈桥","name:en":"Shenqiao","public_transport":"station","railway":"station","station":"subway","subway":"yes","wikidata":"Q19852969","wikipedia":"zh:沈桥站"}},{"type":"node","id":9165153420,"lat":32.4293771,"lon":118.9281944,"tags":{"name":"八百桥","name:en":"Babaiqiao","public_transport":"station","railway":"station","station":"subway","subway":"yes","wikidata":"Q19851890","wikipedia":"zh:八百桥站"}},{"type":"node","id":9165153421,"lat":32.4675115,"lon":118.9595048,"tags":{"name":"金牛湖","name:en":"Jinniuhu","public_transport":"station","railway":"station","station":"subway","subway":"yes","wikidata":"Q19853881","wikipedia":"zh:金牛湖站"}},{"type":"node","id":9167211252,"lat":31.984533,"lon":118.7394786,"tags":{"name":"小行","name:en":"Xiaohang","name:zh-Latn-pinyin":"Xiăohàng","network":"南京地铁10号线","public_transport":"station","railway":"station","station":"subway","subway":"yes"}},{"type":"node","id":9167211253,"lat":31.989948,"lon":118.7279492,"tags":{"name":"中胜","name:en":"Zhongsheng","name:zh-Hans":"中胜","name:zh-Hant":"中勝","network":"南京地铁10号线","public_transport":"station","railway":"station","station":"subway","subway":"yes","wikidata":"Q406349","wikipedia":"en:Zhongsheng station"}},{"type":"node","id":9167211254,"lat":32.0112302,"lon":118.7127477,"tags":{"name":"奥体中心","name:zh-Hans":"奥体中心","name:zh-Hant":"奧體中心","network":"南京地铁10号线","public_transport":"station","railway":"station","station":"subway","subway":"yes"}},{"type":"node","id":9167211256,"lat":32.0176917,"lon":118.7166605,"tags":{"name":"梦都大街","network":"南京地铁10号线","public_transport":"station","railway":"station","station":"subway","subway":"yes"}},{"type":"node","id":9167211258,"lat":32.0268513,"lon":118.7102574,"tags":{"name":"绿博园","network":"南京地铁10号线","public_transport":"station","railway":"station","station":"subway","subway":"yes"}},{"type":"node","id":9167211259,"lat":32.0343001,"lon":118.6987035,"tags":{"description":"南京地铁10号线","name":"江心洲","network":"南京地铁10号线","public_transport":"station","railway":"station","station":"subway","subway":"yes"}},{"type":"node","id":9167211260,"lat":32.0595875,"lon":118.66031,"tags":{"description":"南京地铁10号线","name":"临江·青奥体育公园","public_transport":"station","railway":"station","station":"subway","subway":"yes"}},{"type":"node","id":9167211261,"lat":32.0635641,"lon":118.6527451,"tags":{"description":"南京地铁10号线","name":"浦口万汇城","name:zh-Hans":"浦口万汇城","name:zh-Hant":"浦口萬匯城","public_transport":"station","railway":"station","station":"subway","subway":"yes"}},{"type":"node","id":9167211263,"lat":32.0690568,"lon":118.6429929,"tags":{"description":"南京地铁10号线","name":"南京工业大学","public_transport":"station","railway":"station","station":"subway","subway":"yes"}},{"type":"node","id":9167211264,"lat":32.0669159,"lon":118.6301961,"tags":{"name":"龙华路","network":"南京地铁10号线","public_transport":"station","railway":"station","station":"subway","subway":"yes"}},{"type":"node","id":9167211265,"lat":32.0594827,"lon":118.6215806,"tags":{"name":"文德路","network":"南京地铁10号线","public_transport":"station","railway":"station","station":"subway","subway":"yes"}},{"type":"node","id":9167211267,"lat":32.048007,"lon":118.6114681,"tags":{"name":"雨山路","name:en":"Yushanlu","network":"南京地铁10号线","public_transport":"station","railway":"station","station":"subway","subway":"yes"}},{"type":"node","id":9569942166,"lat":32.1682928,"lon":118.6578369,"tags":{"name":"南京北站","public_transport":"station","railway":"station","station":"subway","subway":"yes"}},{"type":"node","id":9569942168,"lat":32.1965048,"lon":118.6475075,"tags":{"name":"盘城","name:zh-Hant":"盤城","public_transport":"station","railway":"station","station":"subway","subway":"yes"}},{"type":"node","id":9569942171,"lat":32.213446,"lon":118.5910187,"tags":{"name":"汊河","name:zh":"汊河","name:zh-Hans":"汊河","name:zh-Hant":"汊河","network":"滁州轨道交通","public_transport":"station","railway":"station","station":"subway","subway":"yes"}},{"type":"node","id":9570067508,"lat":32.1448651,"lon":118.9915725,"tags":{"name":"摄山","public_transport":"station","railway":"station","station":"subway","subway":"yes"}},{"type":"node","id":9570091027,"lat":32.2397342,"lon":118.57933,"tags":{"name":"汊河新城","public_transport":"station","railway":"station","station":"subway","subway":"yes"}},{"type":"node","id":9570091029,"lat":32.2535226,"lon":118.5552377,"tags":{"name":"相官","note":"预留","public_transport":"station","railway":"station","station":"subway","subway":"yes"}},{"type":"node","id":9570091046,"lat":32.2557009,"lon":118.3307334,"tags":{"name":"滁州政务中心","name:zh":"滁州政务中心","name:zh-Hans":"滁州政务中心","name:zh-Hant":"滁州政務中心","public_transport":"station","railway":"station","station":"subway","subway":"yes"}},{"type":"node","id":9570091047,"lat":32.2557154,"lon":118.3030111,"tags":{"name":"琅琊山","public_transport":"station","railway":"station","station":"subway","subway":"yes"}},{"type":"node","id":9570091049,"lat":32.2208959,"lon":118.2971775,"tags":{"name":"腰铺","name:zh":"腰铺","name:zh-Hans":"腰铺","name:zh-Hant":"腰鋪","note":"预留","public_transport":"station","railway":"station","station":"subway","subway":"yes"}},{"type":"node","id":9570091050,"lat":32.2017232,"lon":118.3163095,"tags":{"name":"滁州高铁站","name:zh":"滁州高铁站","name:zh-Hans":"滁州高铁站","name:zh-Hant":"滁州高鐵站","public_transport":"station","railway":"station","station":"subway","subway":"yes"}},{"type":"node","id":9580319898,"lat":32.1646657,"lon":118.6409161,"tags":{"name":"花旗营","public_transport":"station","railway":"station","station":"subway","subway":"yes"}},{"type":"node","id":9680291511,"lat":31.5600961,"lon":118.5194431,"tags":{"name":"姑孰","name:en":"Gushu","name:zh":"姑孰","opening_date":"2026","public_transport":"station","railway":"station","station":"subway","subway":"yes","wikidata":"Q139549902"}},{"type":"node","id":9680291512,"lat":31.6282073,"lon":118.5179608,"tags":{"name":"马鞍山经开区","name:en":"Ma'anshanjingkaiqu","name:zh":"马鞍山经开区","opening_date":"2026","public_transport":"station","railway":"station","station":"subway","subway":"yes","wikidata":"Q139549903"}},{"type":"node","id":9680291513,"lat":31.6522067,"lon":118.5184265,"tags":{"name":"阳湖","name:en":"Yanghu","name:zh":"阳湖","opening_date":"2026","public_transport":"station","railway":"station","station":"subway","subway":"yes","wikidata":"Q139549904"}},{"type":"node","id":9680291514,"lat":31.6732847,"lon":118.5184212,"tags":{"name":"雨山东路","name:en":"Yushandonglu","name:zh":"雨山东路","opening_date":"2026","public_transport":"station","railway":"station","station":"subway","subway":"yes","wikidata":"Q139549906"}},{"type":"node","id":9680291516,"lat":31.6839129,"lon":118.5184646,"tags":{"name":"湖南路・安工大","name:en":"Hunanlu / Angongda","name:zh":"湖南路・安工大","opening_date":"2026","public_transport":"station","railway":"station","station":"subway","subway":"yes","wikidata":"Q139549897"}},{"type":"node","id":9680313118,"lat":31.7019198,"lon":118.5184226,"tags":{"name":"湖北路・二中","name:en":"Hubeilu / Erzhong","name:zh":"湖北路・二中","opening_date":"2026","public_transport":"station","railway":"station","station":"subway","subway":"yes","wikidata":"Q139549871"}},{"type":"node","id":9792508218,"lat":31.7534457,"lon":118.5177961,"tags":{"name":"慈湖高新区","name:en":"Cihugaoxinqu","name:zh":"慈湖高新区","opening_date":"2026","public_transport":"station","railway":"station","station":"subway","subway":"yes"}},{"type":"node","id":9792508219,"lat":31.5270239,"lon":118.5102323,"tags":{"name":"太白","name:en":"Taibai","name:zh":"太白","opening_date":"2026","public_transport":"station","railway":"station","station":"subway","subway":"yes","wikidata":"Q139497981"}},{"type":"node","id":10064297533,"lat":32.1366529,"lon":118.7214178,"tags":{"name":"毛纺厂路","name:zh":"毛纺厂路","name:zh-Hans":"毛纺厂路","name:zh-Hant":"毛紡廠路","network":"南京地铁","public_transport":"station","railway":"station","station":"subway","subway":"yes"}},{"type":"node","id":10064297534,"lat":32.1308294,"lon":118.724651,"tags":{"name":"长江大桥北","name:en":"Changjiangdaqiaobei","name:zh":"长江大桥北","name:zh-Hans":"长江大桥北","name:zh-Hant":"長江大橋北","network":"南京地铁","public_transport":"station","railway":"station","station":"subway","subway":"yes"}},{"type":"node","id":10553755836,"lat":32.1382719,"lon":118.8168,"tags":{"name":"燕子矶","name:en":"Yanziji","public_transport":"station","railway":"station","station":"subway","subway":"yes","wikidata":"Q111225533","wikipedia":"zh:燕子矶站"}},{"type":"node","id":10553755841,"lat":32.1456275,"lon":118.8247189,"tags":{"name":"笆斗山","name:en":"Badoushan","public_transport":"station","railway":"station","station":"subway","subway":"yes","wikidata":"Q111225534","wikipedia":"zh:笆斗山站"}},{"type":"node","id":10553755844,"lat":32.1476796,"lon":118.837368,"tags":{"name":"八卦洲大桥南","name:en":"Baguazhoudaqiaonan","name:zh":"八卦洲大桥南","name:zh-Hans":"八卦洲大桥南","name:zh-Hant":"八卦洲大橋南","public_transport":"station","railway":"station","station":"subway","subway":"yes","wikidata":"Q111225535","wikipedia":"zh:八卦洲大桥南站"}},{"type":"node","id":10566749900,"lat":32.1290428,"lon":118.8903345,"tags":{"name":"仙新路","name:en":"Xianxinlu","public_transport":"station","railway":"station","station":"subway","subway":"yes","wikidata":"Q107037813","wikipedia":"zh:仙新路站"}},{"type":"node","id":10566749905,"lat":32.124713,"lon":118.8826268,"tags":{"name":"尧化门","name:en":"Yaohuamen","public_transport":"station","railway":"station","station":"subway","subway":"yes","wikidata":"Q107038149","wikipedia":"zh:尧化门站 (南京地铁)"}},{"type":"node","id":10566785109,"lat":32.1175252,"lon":118.8706718,"tags":{"name":"尧化新村","name:en":"Yaohuaxincun","public_transport":"station","railway":"station","station":"subway","subway":"yes","wikidata":"Q111225538","wikipedia":"zh:尧化新村站"}},{"type":"node","id":10566785117,"lat":32.1097738,"lon":118.8549628,"tags":{"name":"丁家庄南","name:en":"Dingjiazhuangnan","public_transport":"station","railway":"station","station":"subway","subway":"yes","wikidata":"Q107059821","wikipedia":"zh:丁家庄南站"}},{"type":"node","id":10566785128,"lat":32.1137391,"lon":118.8449143,"tags":{"name":"丁家庄","name:en":"Dingjiazhuang","name:zh":"丁家庄","name:zh-Hans":"丁家庄","name:zh-Hant":"丁家莊","public_transport":"station","railway":"station","station":"subway","subway":"yes","wikidata":"Q62415164","wikipedia":"zh:丁家庄站 (济南地铁)"}},{"type":"node","id":10566785140,"lat":32.1221186,"lon":118.829763,"tags":{"name":"万寿","name:en":"Wanshou","public_transport":"station","railway":"station","station":"subway","subway":"yes","wikidata":"Q97850224","wikipedia":"zh:万寿站 (南京地铁)"}},{"type":"node","id":10566816529,"lat":32.1063273,"lon":118.7651751,"tags":{"name":"幕府西路","name:en":"Mufuxilu","public_transport":"station","railway":"station","station":"subway","subway":"yes","wikidata":"Q111225536","wikipedia":"zh:幕府西路站"}},{"type":"node","id":10865692236,"lat":32.2915379,"lon":118.5036809,"tags":{"name":"十二里半","note":"预留","public_transport":"station","railway":"station","station":"subway","subway":"yes"}},{"type":"node","id":10865692246,"lat":32.2617387,"lon":118.3538012,"tags":{"name":"担子","name:en":"Danzi","note":"预留","public_transport":"station","railway":"station","station":"subway","subway":"yes","wikidata":"Q120089851"}},{"type":"node","id":11048039080,"lat":31.9394435,"lon":118.8583061,"tags":{"public_transport":"station","railway":"station","station":"subway","subway":"yes"}},{"type":"node","id":11089188253,"lat":32.0490431,"lon":118.9096122,"tags":{"light_rail":"yes","name":"马高路","network":"南京有轨电车","public_transport":"station","railway":"station","station":"light_rail"}},{"type":"node","id":11511302598,"lat":32.0185601,"lon":118.7440012,"tags":{"name":"应天大街","name:en":"Yingtiandajie","public_transport":"station","railway":"station","station":"subway","subway":"yes","wikidata":"Q117037947","wikipedia":"zh:应天大街站"}},{"type":"node","id":11511311814,"lat":31.9957566,"lon":118.7328719,"tags":{"name":"新城科技园","name:en":"Xinchengkejiyuan","public_transport":"station","railway":"station","station":"subway","subway":"yes","wikidata":"Q117037928","wikipedia":"zh:新城科技园站"}},{"type":"node","id":11511333765,"lat":32.0059435,"lon":118.741105,"tags":{"name":"梦都大街东","name:en":"Mengdudajiedong","public_transport":"station","railway":"station","station":"subway","subway":"yes","wikidata":"Q117037932","wikipedia":"zh:梦都大街东站"}},{"type":"node","id":11511348406,"lat":31.9687364,"lon":118.6980472,"tags":{"name":"太清路","name:en":"Taiqinglu","public_transport":"station","railway":"station","station":"subway","subway":"yes","wikidata":"Q117037936","wikipedia":"zh:太清路站"}},{"type":"node","id":11511348410,"lat":31.9489641,"lon":118.685694,"tags":{"name":"西善桥","name:en":"Xishanqiao","public_transport":"station","railway":"station","station":"subway","subway":"yes","wikidata":"Q111225540","wikipedia":"zh:西善桥站 (南京地铁)"}},{"type":"node","id":11511349161,"lat":31.9841764,"lon":118.7226136,"tags":{"name":"嘉陵江东街","name:en":"Jialingjiangdongjie","public_transport":"station","railway":"station","station":"subway","subway":"yes","wikidata":"Q117037988","wikipedia":"zh:嘉陵江东街站"}},{"type":"node","id":11774761615,"lat":31.8950406,"lon":118.8047872,"tags":{"name":"九龙湖南","name:en":"Jiulonghunan","public_transport":"station","railway":"station","station":"subway","subway":"yes"}},{"type":"node","id":11774761641,"lat":31.9114073,"lon":118.8264273,"tags":{"name":"诚信大道","name:en":"Chengxin­dadao","network":"南京地铁","public_transport":"station","railway":"station","station":"subway","subway":"yes","wikidata":"Q15938149","wikipedia":"zh:诚信大道站"}},{"type":"node","id":11774761642,"lat":31.9124274,"lon":118.8386716,"tags":{"name":"前庄","name:en":"Qianzhuang","public_transport":"station","railway":"station","station":"subway","subway":"yes"}},{"type":"node","id":11774761658,"lat":31.9263741,"lon":118.8443176,"tags":{"name":"科宁路","name:en":"Keninglu","public_transport":"station","railway":"station","station":"subway","subway":"yes"}},{"type":"node","id":11774761664,"lat":31.9335924,"lon":118.8406027,"tags":{"name":"竹山路","name:en":"Zhushanlu","public_transport":"station","railway":"station","station":"subway","subway":"yes","wikidata":"Q15401806","wikipedia":"en:Zhushanlu station"}},{"type":"node","id":11774792270,"lat":31.9444952,"lon":118.8404472,"tags":{"name":"新亭路","name:en":"Xintinglu","public_transport":"station","railway":"station","station":"subway","subway":"yes"}},{"type":"node","id":11774792277,"lat":31.9556083,"lon":118.8386179,"tags":{"name":"东山","name:en":"Dongshan","public_transport":"station","railway":"station","station":"subway","subway":"yes"}},{"type":"node","id":11774792284,"lat":31.960435,"lon":118.8366458,"tags":{"name":"文靖路","name:en":"Wenjinglu","network":"南京地铁","network:en":"Nanjing Metro","network:wikidata":"Q429366","network:zh":"南京地铁","public_transport":"station","railway":"station","station":"subway","subway":"yes","wikidata":"Q125224451"}},{"type":"node","id":12460759016,"lat":32.0257951,"lon":118.7490228,"tags":{"name":"南湖","name:en":"Nanhu","public_transport":"station","railway":"station","station":"subway","subway":"yes"}},{"type":"node","id":12460759017,"lat":32.0504398,"lon":118.7546967,"tags":{"name":"清凉山","name:en":"Qingliangshan","public_transport":"station","railway":"station","station":"subway","subway":"yes"}},{"type":"node","id":12461754367,"lat":32.0337542,"lon":118.7520871,"tags":{"name":"大士茶亭","name:en":"Dashichating","public_transport":"station","railway":"station","station":"subway","subway":"yes"}},{"type":"node","id":12462545486,"lat":32.07312,"lon":118.7527322,"tags":{"name":"古平岗","name:en":"Gupinggang","public_transport":"station","railway":"station","station":"subway","subway":"yes"}},{"type":"node","id":12462545489,"lat":32.0821298,"lon":118.754266,"tags":{"name":"福建路","name:en":"Fujianlu","public_transport":"station","railway":"station","station":"subway","subway":"yes","wikidata":"Q117037911"}},{"type":"node","id":12462545492,"lat":32.0932355,"lon":118.766433,"tags":{"name":"钟阜路","name:en":"Zhongfulu","public_transport":"station","railway":"station","station":"subway","subway":"yes"}},{"type":"node","id":13057948205,"lat":32.0772134,"lon":118.7599634,"tags":{"name":"虹桥","name:en":"Hongqiao","public_transport":"station","railway":"station","station":"subway","subway":"yes","wikidata":"Q120054180"}},{"type":"node","id":13057948208,"lat":32.0706063,"lon":118.7676754,"tags":{"name":"青春广场","name:en":"Qinchunguangchang","public_transport":"station","railway":"station","station":"subway","subway":"yes","wikidata":"Q132146087"}},{"type":"node","id":13057948212,"lat":31.973829,"lon":118.8342458,"tags":{"name":"东山香樟园","name:en":"Dongshanxiangzhangyuan","network":"南京地铁","network:en":"Nanjing Metro","network:wikidata":"Q429366","network:zh":"南京地铁","public_transport":"station","railway":"station","station":"subway","subway":"yes","wikidata":"Q132146085"}},{"type":"node","id":13057948217,"lat":31.9917304,"lon":118.8196385,"tags":{"name":"神机营","name:en":"Shenjiying","network":"南京地铁","network:en":"Nanjing Metro","network:wikidata":"Q429366","network:zh":"南京地铁","public_transport":"station","railway":"station","station":"subway","subway":"yes","wikidata":"Q132712280"}},{"type":"node","id":13057948220,"lat":32.1064622,"lon":118.7422665,"tags":{"name":"方家营","name:en":"Fangjiaying","network":"南京地铁","network:en":"Nanjing Metro","network:wikidata":"Q429366","network:zh":"南京地铁","public_transport":"station","railway":"station","station":"subway","subway":"yes","wikidata":"Q132146089"}},{"type":"node","id":13059454865,"lat":32.0005677,"lon":118.8176309,"tags":{"name":"大校场","name:en":"Dajiaochang","network":"南京地铁","network:en":"Nanjing Metro","network:wikidata":"Q429366","network:zh":"南京地铁","public_transport":"station","railway":"station","start_date":"2025-08-06","station":"subway","subway":"yes","wikidata":"Q132146082","wikipedia":"zh:大校场站"}},{"type":"node","id":13059454868,"lat":32.0109156,"lon":118.8202145,"tags":{"name":"七桥瓮","name:en":"Qiqiaoweng","network":"南京地铁","network:en":"Nanjing Metro","network:wikidata":"Q429366","network:zh":"南京地铁","public_transport":"station","railway":"station","station":"subway","subway":"yes","wikidata":"Q132712282"}},{"type":"node","id":13059454870,"lat":32.0981768,"lon":118.7362862,"tags":{"name":"南京西站","name:en":"Nanjingxi Railway Station","network":"南京地铁","network:en":"Nanjing Metro","network:wikidata":"Q429366","network:zh":"南京地铁","public_transport":"station","railway":"station","station":"subway","subway":"yes","wikidata":"Q135104968"}},{"type":"node","id":13059454873,"lat":32.0941771,"lon":118.732857,"tags":{"name":"静海寺","name:en":"Jinghaisi","network":"南京地铁","network:en":"Nanjing Metro","network:wikidata":"Q429366","network:zh":"南京地铁","public_transport":"station","railway":"station","station":"subway","subway":"yes","wikidata":"Q132712277"}},{"type":"node","id":13059454876,"lat":32.0876321,"lon":118.7475702,"tags":{"name":"盐仓桥","name:en":"Yancangqiao","network":"南京地铁","network:en":"Nanjing Metro","network:wikidata":"Q429366","network:zh":"南京地铁","public_transport":"station","railway":"station","station":"subway","subway":"yes","wikidata":"Q132146088"}},{"type":"node","id":13059454879,"lat":32.0888899,"lon":118.7364914,"tags":{"name":"下关","name:en":"Xiaguan","network":"南京地铁","network:en":"Nanjing Metro","network:wikidata":"Q429366","network:zh":"南京地铁","public_transport":"station","railway":"station","station":"subway","subway":"yes","wikidata":"Q123748784"}},{"type":"node","id":13059514805,"lat":32.0256074,"lon":118.8096828,"tags":{"name":"光华门","name:en":"Guanghuamen","network":"南京地铁","public_transport":"station","railway":"station","station":"subway","subway":"yes","wikidata":"Q132146081"}},{"type":"node","id":13059514808,"lat":32.0195816,"lon":118.8196412,"tags":{"name":"石门坎","name:en":"Shimenkan","network":"南京地铁","public_transport":"station","railway":"station","station":"subway","subway":"yes","wikidata":"Q132146081"}},{"type":"node","id":13059514811,"lat":32.0277296,"lon":118.7993248,"tags":{"name":"通济门","name:en":"Tongjimen","network":"南京地铁","public_transport":"station","railway":"station","station":"subway","subway":"yes","wikidata":"Q132710188"}},{"type":"node","id":13059514818,"lat":32.0347115,"lon":118.7674333,"tags":{"name":"朝天宫","name:en":"Chaotiangong","network":"南京地铁","public_transport":"station","railway":"station","station":"subway","subway":"yes","wikidata":"Q132146086"}},{"type":"node","id":13059514821,"lat":32.0522202,"lon":118.7713051,"tags":{"name":"五台山","name:en":"Wutaishan","public_transport":"station","railway":"station","station":"subway","subway":"yes","wikidata":"Q132146084"}},{"type":"node","id":13387721994,"lat":32.0074563,"lon":118.8370982,"tags":{"name":"高桥门","name:en":"Gaoqiaomen","name:zh":"高桥门","public_transport":"station","railway":"station","start_date":"2025-12-19","station":"subway","subway":"yes"}},{"type":"node","id":13387721995,"lat":32.0032943,"lon":118.8237744,"tags":{"name":"承天大道","name:en":"Chengtiandadao","name:zh":"承天大道","public_transport":"station","railway":"station","start_date":"2025-12-19","station":"subway","subway":"yes"}},{"type":"node","id":13387721996,"lat":32.0001073,"lon":118.8183395,"tags":{"name":"大校场","name:en":"Dajiaochang","network":"南京地铁","network:en":"Nanjing Metro","network:wikidata":"Q429366","network:zh":"南京地铁","public_transport":"station","railway":"station","start_date":"2025-12-19","station":"subway","subway":"yes","wikidata":"Q132712282"}},{"type":"node","id":13387721997,"lat":31.9942904,"lon":118.808622,"tags":{"name":"机场跑道旧址","name:en":"Jichangpaodaojiuzhi","name:zh":"机场跑道旧址","public_transport":"station","railway":"station","start_date":"2025-12-19","station":"subway","subway":"yes","wikidata":"Q135115994","wikipedia":"zh:机场跑道旧址站"}},{"type":"node","id":13387721998,"lat":31.9968675,"lon":118.791226,"tags":{"name":"卡子门","name:en":"Kazimen","name:zh":"卡子门","name:zh-Hans":"卡子门","name:zh-Hant":"卡子門","network":"南京地铁","public_transport":"station","railway":"station","start_date":"2025-12-19","station":"subway","subway":"yes","wikidata":"Q19852029","wikipedia":"zh:卡子门站"}},{"type":"node","id":13387721999,"lat":31.9947822,"lon":118.7759259,"tags":{"name":"雨花台","name:en":"Yuhuatai","name:zh":"雨花台","public_transport":"station","railway":"station","start_date":"2025-12-19","station":"subway","subway":"yes","wikidata":"Q132146078"}},{"type":"node","id":13387722000,"lat":31.9955899,"lon":118.7689084,"tags":{"name":"共青团路","name:en":"Gongqingtuanlu","name:zh":"共青团路","public_transport":"station","railway":"station","start_date":"2025-12-19","station":"subway","subway":"yes"}},{"type":"node","id":13387744853,"lat":32.0074608,"lon":118.8691568,"tags":{"name":"石杨路","name:en":"Shiyanglu","name:zh":"石杨路","public_transport":"station","railway":"station","start_date":"2025-12-19","station":"subway","subway":"yes","wikidata":"Q112411696","wikipedia":"zh:石杨路站"}},{"type":"node","id":13387744882,"lat":32.0088326,"lon":118.8576705,"tags":{"name":"杨庄","name:en":"Yangzhuang","name:zh":"杨庄","public_transport":"station","railway":"station","start_date":"2025-12-19","station":"subway","subway":"yes"}},{"type":"node","id":13387744886,"lat":32.0015699,"lon":118.8837783,"tags":{"name":"东麒路","name:en":"Dongqilu","name:zh":"东麒路","public_transport":"station","railway":"station","start_date":"2025-12-19","station":"subway","subway":"yes","wikidata":"Q132146080","wikipedia":"zh:东麒路站"}},{"type":"node","id":13387798996,"lat":31.8520943,"lon":118.8312935,"tags":{"name":"上秦淮西","name:en":"Shangqinhuaixi","name:zh":"上秦淮西","public_transport":"station","railway":"station","start_date":"2025-12-19","station":"subway","subway":"yes","wikidata":"Q132146119","wikipedia":"zh:上秦淮西站"}},{"type":"node","id":13387798999,"lat":31.8431987,"lon":118.8300031,"tags":{"name":"秣陵","name:en":"Moling","name:zh":"秣陵","public_transport":"station","railway":"station","start_date":"2025-12-19","station":"subway","subway":"yes","wikidata":"Q17040300","wikipedia":"zh:秣陵站"}},{"type":"node","id":13388500483,"lat":31.8090326,"lon":118.550202,"tags":{"name":"铜井","name:en":"Tongjing","name:zh":"铜井","opening_date":"2026-03","public_transport":"station","railway":"station","station":"subway","subway":"yes","wikidata":"Q132146122"}},{"type":"node","id":13388500484,"lat":31.8422219,"lon":118.573376,"tags":{"name":"牧龙","name:en":"Mulong","name:zh":"牧龙","opening_date":"2026-03","public_transport":"station","railway":"station","station":"subway","subway":"yes"}},{"type":"node","id":13388500485,"lat":31.8577466,"lon":118.5859471,"tags":{"name":"江宁滨江开发区","name:en":"Jiangning Binjiang Development Zone","name:zh":"江宁滨江开发区","opening_date":"2026-03","public_transport":"station","railway":"station","station":"subway","subway":"yes","wikidata":"Q132146100"}},{"type":"node","id":13388500486,"lat":31.8795366,"lon":118.6022978,"tags":{"name":"江宁镇","name:en":"Jiangningzhen","name:zh":"江宁镇","opening_date":"2026-03","public_transport":"station","railway":"station","station":"subway","subway":"yes","wikidata":"Q132146109"}},{"type":"node","id":13388500487,"lat":31.8928506,"lon":118.6184299,"tags":{"name":"板桥南","name:en":"Banqiaonan","name:zh":"板桥南","opening_date":"2026-03","public_transport":"station","railway":"station","station":"subway","subway":"yes","wikidata":"Q132146111"}},{"type":"node","id":13388500488,"lat":31.9097358,"lon":118.6354405,"tags":{"name":"板桥","name:en":"Banqiao","name:zh":"板桥","name:zh-Hans":"板橋","name:zh-Hant":"板橋","opening_date":"2026-03","public_transport":"station","railway":"station","station":"subway","subway":"yes","wikidata":"Q132146120"}},{"type":"node","id":13388500489,"lat":31.9297211,"lon":118.6612856,"tags":{"name":"雨花经济开发区","name:en":"Yuhua Jingji Development Zone","name:zh":"雨花经济开发区","opening_date":"2026-03","public_transport":"station","railway":"station","station":"subway","subway":"yes","wikidata":"Q132146099"}},{"type":"node","id":13397732223,"lat":31.9732839,"lon":118.7924231,"tags":{"name":"南京南站","name:en":"Nanjing South Railway Station","name:zh-Latn-pinyin":"Nánjīng Nán Zhàn","public_transport":"stop_position","railway":"stop","station":"subway","subway":"yes"}},{"type":"node","id":13397737005,"lat":31.9731855,"lon":118.7924888,"tags":{"name":"南京南站","name:en":"Nanjing South Railway Station","name:zh-Latn-pinyin":"Nánjīng Nán Zhàn","public_transport":"stop_position","railway":"stop","station":"subway","subway":"yes"}},{"type":"node","id":13505925913,"lat":31.97323,"lon":118.7921018,"tags":{"name":"南京南站","name:en":"Nanjing South Railway Station","name:zh-Latn-pinyin":"Nánjīng Nán Zhàn","public_transport":"stop_position","railway":"stop","station":"subway","subway":"yes"}},{"type":"node","id":13720096297,"lat":31.9257687,"lon":118.8442694,"tags":{"name":"科宁路地铁站3号口","public_transport":"station","railway":"station","station":"subway","subway":"yes"}},{"type":"node","id":13720096298,"lat":31.9258735,"lon":118.8447909,"tags":{"name":"科宁路地铁站1号口","public_transport":"station","railway":"station","station":"subway","subway":"yes"}},{"type":"node","id":13720096299,"lat":31.9266829,"lon":118.8443821,"tags":{"name":"科宁路地铁站2号口","public_transport":"station","railway":"station","station":"subway","subway":"yes"}},{"type":"way","id":810034052,"center":{"lat":32.0088374,"lon":118.7693642},"nodes":[7573207957,7573207967,7573207958,7573207964,7573207959,7573207960,7573207966,7573207957],"tags":{"building":"yes","layer":"1","name":"中华门","network":"南京地铁1号线","public_transport":"station","railway":"station","station":"subway","subway":"yes"}},{"type":"way","id":857738601,"center":{"lat":32.0979173,"lon":118.7968421},"nodes":[7996685218,7996685219,5492523474,7996685220,7996685221,7996685222,5492523473,7996685218],"tags":{"building":"yes","name":"红山动物园","network":"南京地铁1号线","public_transport":"station","railway":"station","station":"subway","subway":"yes"}},{"type":"way","id":857774678,"center":{"lat":31.9318294,"lon":118.8276706},"nodes":[7996982582,7996982583,7996982584,7996982591,7996982590,8025764484,7996982585,7996982582],"tags":{"building":"yes","name":"小龙湾","network":"南京地铁1号线","public_transport":"station","railway":"station","station":"subway","subway":"yes","wikidata":"Q15401805"}},{"type":"way","id":857774684,"center":{"lat":31.9341539,"lon":118.8394018},"nodes":[7996982594,8025764492,7996982601,7996982602,8025764494,7996982609,7996982594],"tags":{"building":"yes","layer":"-1","name":"竹山路","network":"南京地铁1号线","public_transport":"station","railway":"station","station":"subway","subway":"yes","wikidata":"Q15401806"}},{"type":"way","id":857774687,"center":{"lat":31.9398416,"lon":118.858449},"nodes":[7996982641,8025764495,7996982646,7996982647,8025764498,7996982654,7996982641],"tags":{"building":"yes","layer":"1","name":"天印大道","network":"南京地铁1号线","public_transport":"station","railway":"station","station":"subway","subway":"yes","wikidata":"Q15401807"}},{"type":"way","id":857774688,"center":{"lat":31.9421122,"lon":118.8720768},"nodes":[7996982657,8025764500,7996982662,7996982663,8025764499,7996982668,7996982657],"tags":{"building":"yes","layer":"0","name":"龙眠大道","network":"南京地铁1号线","public_transport":"station","railway":"station","station":"subway","subway":"yes","wikidata":"Q15401808"}},{"type":"way","id":857774696,"center":{"lat":31.9356739,"lon":118.8852701},"nodes":[7996982716,8025764502,7996982723,7996982724,8025764504,7996982731,7996982716],"tags":{"building":"yes","layer":"1","name":"南医大·江苏经贸学院","network":"南京地铁1号线","public_transport":"station","railway":"station","station":"subway","subway":"yes","wikidata":"Q15401809"}},{"type":"way","id":857774703,"center":{"lat":31.9151181,"lon":118.8998438},"nodes":[7996982855,8025764506,7996982862,7996982863,8025764508,7996982870,7996982855],"tags":{"building":"yes","layer":"1","name":"南京交院","network":"南医大·江苏经贸学院","public_transport":"station","railway":"station","station":"subway","subway":"yes","wikidata":"Q15401810"}},{"type":"way","id":857774704,"center":{"lat":31.8998896,"lon":118.9089727},"nodes":[7996982873,8025764510,7996982880,7996982881,8025764511,7996982888,7996982873],"tags":{"building":"yes","layer":"1","name":"中国药科大学","network":"南京地铁1号线","public_transport":"station","railway":"station","station":"subway","subway":"yes","wikidata":"Q15401811"}},{"type":"way","id":923996656,"center":{"lat":32.0510193,"lon":118.8915245},"nodes":[8577198844,8577198833,13829969967,8577198843,8577198842,8577198841,8577198844],"tags":{"building":"yes","layer":"1","light_rail":"yes","note":"麒麟有轨电车","public_transport":"station","railway":"station","station":"light_rail"}},{"type":"way","id":995812191,"center":{"lat":32.1064619,"lon":118.7422468},"nodes":[9195315335,9195315332,9195315333,9195315334,9195315335],"tags":{"building":"transportation","layer":"-2","public_transport":"station","railway":"station","station":"subway","subway":"yes"}},{"type":"way","id":1035238990,"center":{"lat":31.973883,"lon":118.8342517},"nodes":[9536058697,9536058694,9711173421,9711173420,9536058695,9536058696,9711173418,9711173419,9536058697],"tags":{"building":"train_station","layer":"-2","public_transport":"station","railway":"station","station":"subway","subway":"yes"}},{"type":"way","id":1044465708,"center":{"lat":31.934002,"lon":118.8406426},"nodes":[9610731397,9711173504,9610731396,9711173491,9711173490,9711173489,9711173488,9711173492,9711173493,9610731395,9610731394,9610731397],"tags":{"building":"construction","layer":"-3","public_transport":"station","railway":"station","station":"subway","subway":"yes","wikidata":"Q15401806"}},{"type":"way","id":1056855641,"center":{"lat":31.9917218,"lon":118.8196428},"nodes":[9711173379,9711173380,9711173381,9711173382,9711173379],"tags":{"building":"construction","layer":"2","public_transport":"station","railway":"station","station":"subway","subway":"yes"}},{"type":"way","id":1056855649,"center":{"lat":31.9550943,"lon":118.8388396},"nodes":[9711173464,9711173465,9711173467,9711173466,9711173454,9711173464],"tags":{"building":"construction","public_transport":"station","railway":"station","station":"subway","subway":"yes"}},{"type":"way","id":1056855653,"center":{"lat":31.9264291,"lon":118.8443842},"nodes":[9711173505,9711173506,9711173507,9711173508,9711173505],"tags":{"building":"construction","public_transport":"station","railway":"station","station":"subway","subway":"yes"}},{"type":"way","id":1056855654,"center":{"lat":31.9239971,"lon":118.8456513},"nodes":[9711173509,9711173510,9711173527,9711173511,9711173512,9711173509],"tags":{"building":"construction","public_transport":"station","railway":"station","station":"subway","subway":"yes"}},{"type":"way","id":1056875981,"center":{"lat":31.7588651,"lon":118.9328759},"nodes":[9711361376,9711361377,9711361378,9711361379,9711361376],"tags":{"building":"yes","name":"柘塘","network":"南京地铁S7号线","public_transport":"station","railway":"station","station":"subway","subway":"yes"}},{"type":"way","id":1056875982,"center":{"lat":31.735856,"lon":118.9839744},"nodes":[9711361380,9711361381,9711361382,9711361383,9711361384,9711361385,9711361380],"tags":{"building":"yes","layer":"1","name":"空港新城溧水","network":"南京地铁S7号线","public_transport":"station","railway":"station","station":"subway","subway":"yes"}},{"type":"way","id":1056875983,"center":{"lat":31.7228509,"lon":119.0090977},"nodes":[9711361386,9711361387,9711361388,9711361389,9711361386],"tags":{"building":"yes","name":"群力","network":"南京地铁S7号线","public_transport":"station","railway":"station","station":"subway","subway":"yes"}},{"type":"way","id":1057055130,"center":{"lat":32.1067414,"lon":118.7655089},"nodes":[9712898524,9712898525,9712898526,9712898527,9712898524],"tags":{"building":"yes","layer":"-1","public_transport":"station","railway":"station","station":"subway","subway":"yes"}}]}