{"version":0.6,"generator":"Overpass API 0.7.62.11 87bfad18","osm3s":{"timestamp_osm_base":"2026-07-10T13:02:00Z","copyright":"The data included in this document is from www.openstreetmap.org. The data is made available under ODbL."},"elements":[{"type":"node","id":60634870,"lat":-23.5156407,"lon":-46.6251282,"tags":{"name":"Portuguesa - Tietê","public_transport":"stop_position","railway":"stop","ref":"TTE","station":"subway","subway":"yes"}},{"type":"node","id":176004373,"lat":-23.5549556,"lon":-46.6357176,"tags":{"name":"Japão - Liberdade","old_name":"Liberdade","public_transport":"stop_position","railway":"stop","ref":"LIB","station":"subway","subway":"yes"}},{"type":"node","id":605663613,"lat":-23.5464956,"lon":-46.6911243,"tags":{"name":"Vila Madalena","operator":"Metropolitano de São Paulo","public_transport":"station","railway":"station","ref":"VMD","station":"subway","subway":"yes","wikidata":"Q5244825","wikimedia_commons":"Category:Vila Madalena (São Paulo Metro)","wikipedia":"pt:Estação Vila Madalena"}},{"type":"node","id":1658464892,"lat":-23.5370674,"lon":-46.6336146,"tags":{"name":"Luz","public_transport":"stop_position","railway":"stop","ref":"LUZ","station":"subway","subway":"yes","wikidata":"Q15243160","wikimedia_commons":"Category:Luz (São Paulo Metro)","wikipedia":"pt:Estação Luz"}},{"type":"node","id":2380750804,"lat":-23.5977998,"lon":-46.6523004,"tags":{"name":"AACD – Servidor","public_transport":"stop_position","railway":"stop","start_date":"2018-08-31","station":"subway","subway":"yes","wikidata":"Q5908613","wikimedia_commons":"Category:AACD - Servidor (São Paulo Metro)","wikipedia":"pt:Estação AACD-Servidor"}},{"type":"node","id":3511781364,"lat":-23.5477693,"lon":-46.6393237,"tags":{"name":"Anhangabaú","operator":"Metropolitano de São Paulo","public_transport":"station","railway":"station","ref":"GBU","station":"subway","subway":"yes","website":"http://www.metro.sp.gov.br/redes/vermelha/teanhangabau.shtml","wheelchair":"yes","wikidata":"Q4764340","wikimedia_commons":"Category:Anhangabaú (São Paulo Metro)","wikipedia":"pt:Estação Anhangabaú"}},{"type":"node","id":4117565742,"lat":-23.5478581,"lon":-46.6159196,"tags":{"name":"Brás","operator":"Metropolitano de São Paulo","public_transport":"station","railway":"station","ref":"BAS","station":"subway","subway":"yes","wikidata":"Q9295692","wikimedia_commons":"Category:Brás train station","wikipedia":"pt:Estação Brás"}},{"type":"node","id":4117571828,"lat":-23.5496994,"lon":-46.6259819,"tags":{"name":"Pedro II","operator":"Metropolitano de São Paulo","public_transport":"station","railway":"station","ref":"PDS","station":"subway","subway":"yes","wikidata":"Q7159656","wikimedia_commons":"Category:Pedro II (São Paulo Metro)","wikipedia":"pt:Estação Pedro II"}},{"type":"node","id":4119710093,"lat":-23.5927867,"lon":-46.5895167,"tags":{"name":"Tamanduateí","operator":"Metropolitano de São Paulo","public_transport":"station","railway":"station","ref":"TTI","station":"subway","subway":"yes","wikidata":"Q85805078","wikimedia_commons":"Category:Tamanduateí (São Paulo Metro)","wikipedia":"en:Tamanduateí (São Paulo Metro)"}},{"type":"node","id":4143583173,"lat":-23.6556547,"lon":-46.7209734,"tags":{"name":"Santo Amaro","operator":"ViaMobilidade Linhas 5 e 17","public_transport":"station","railway":"station","ref":"STA","station":"subway","subway":"yes","wikidata":"Q5244808"}},{"type":"node","id":4170379232,"lat":-23.6402476,"lon":-46.7457694,"tags":{"name":"Vila das Belezas","operator":"ViaMobilidade Linhas 5 e 17","public_transport":"station","railway":"station","ref":"VBE","station":"subway","subway":"yes","wikidata":"Q5845376"}},{"type":"node","id":4311073828,"lat":-23.5504428,"lon":-46.6334463,"tags":{"name":"Sé","name:ja":"セー","name:pt":"Sé","operator":"Metropolitano de São Paulo","public_transport":"station","railway":"station","ref":"PSE","station":"subway","subway":"yes","train":"no","wikidata":"Q3132156","wikimedia_commons":"Category:Sé (São Paulo Metro)","wikipedia":"pt:Estação Sé (Metrô de São Paulo)"}},{"type":"node","id":4311953410,"lat":-23.5440945,"lon":-46.642665,"tags":{"name":"República","operator":"ViaQuatro","public_transport":"station","railway":"station","ref":"REP","station":"subway","subway":"yes","train":"no","wikidata":"Q7314773","wikimedia_commons":"Category:República (São Paulo Metro)","wikipedia":"pt:Estação República (Metrô de São Paulo)"}},{"type":"node","id":4424425022,"lat":-23.5402524,"lon":-46.5766424,"tags":{"name":"Tatuapé","operator":"Metropolitano de São Paulo","public_transport":"station","railway":"station","ref":"TAT","station":"subway","subway":"yes","train":"yes","wikidata":"Q7688505","wikimedia_commons":"Category:Tatuapé (São Paulo Metro, CPTM)","wikipedia":"pt:Estação Tatuapé"}},{"type":"node","id":4425010407,"lat":-23.567249,"lon":-46.7019515,"tags":{"name":"Pinheiros","operator":"ViaQuatro","public_transport":"station","railway":"station","ref":"PIN","station":"subway","subway":"yes","wheelchair":"yes","wikidata":"Q7195875","wikimedia_commons":"Category:Pinheiros (São Paulo Metro)","wikipedia":"pt:Terminal Intermodal Pinheiros"}},{"type":"node","id":4432647540,"lat":-23.6012824,"lon":-46.6025552,"tags":{"name":"Sacomã","operator":"Metropolitano de São Paulo","public_transport":"station","railway":"station","ref":"SAC","station":"subway","subway":"yes","wheelchair":"limited","wikidata":"Q7396901","wikimedia_commons":"Category:Sacomã (São Paulo Metro)","wikipedia":"pt:Terminal Intermodal Sacomã"}},{"type":"node","id":4438460892,"lat":-23.6544576,"lon":-46.7101664,"tags":{"name":"Largo Treze","network":"Metroviária","operator":"ViaMobilidade Linhas 5 e 17","operator:wikidata":"Q55962686","public_transport":"station","railway":"station","ref":"LTR","station":"subway","subway":"yes"}},{"type":"node","id":4443122951,"lat":-23.6022366,"lon":-46.6124857,"tags":{"name":"Alto do Ipiranga","operator":"Metropolitano de São Paulo","public_transport":"station","railway":"station","ref":"AIP","station":"subway","subway":"yes","wikidata":"Q4736839","wikimedia_commons":"Category:Alto do Ipiranga (São Paulo Metro)","wikipedia":"pt:Estação Alto do Ipiranga"}},{"type":"node","id":4593556119,"lat":-23.5259743,"lon":-46.6674683,"tags":{"name":"Palmeiras - Barra Funda","old_name":"Barra Funda","operator":"Metropolitano de São Paulo","public_transport":"station","railway":"station","ref":"BFU","station":"subway","subway":"yes","wikidata":"Q15265202","wikimedia_commons":"Category:Palmeiras–Barra Funda (São Paulo Metro)","wikipedia":"en:Palmeiras–Barra Funda (São Paulo Metro)"}},{"type":"node","id":4861900294,"lat":-23.5753859,"lon":-46.6409603,"tags":{"name":"Paraíso","operator":"Metropolitano de São Paulo","public_transport":"station","railway":"station","ref":"PSO","station":"subway","subway":"yes","wikidata":"Q5244701","wikimedia_commons":"Category:Paraíso (São Paulo Metro)","wikipedia":"pt:Estação Paraíso (Metrô de São Paulo)"}},{"type":"node","id":4897835958,"lat":-23.5685349,"lon":-46.6399175,"tags":{"name":"Vergueiro","name:etymology:wikidata":"Q18482978","operator":"Metropolitano de São Paulo","public_transport":"station","railway":"station","ref":"VGO","start_date":"1975","station":"subway","subway":"yes","wheelchair":"yes","wikidata":"Q7921287","wikimedia_commons":"Category:Vergueiro (São Paulo Metro)","wikipedia":"pt:Estação Vergueiro"}},{"type":"node","id":4922664269,"lat":-23.6350111,"lon":-46.641295,"tags":{"name":"Conceição","operator":"Metropolitano de São Paulo","public_transport":"station","railway":"station","ref":"CON","station":"subway","subway":"yes","wikidata":"Q5158299"}},{"type":"node","id":4923069358,"lat":-23.5926813,"lon":-46.6306807,"tags":{"name":"Chácara Klabin","operator":"Metropolitano de São Paulo;ViaMobilidade Linhas 5 e 17","public_transport":"station","railway":"station","ref":"CKB","start_date":"2006","station":"subway","subway":"yes","wheelchair":"yes","wikidata":"Q5118642","wikimedia_commons":"Category:Chácara Klabin (São Paulo Metro)","wikipedia":"pt:Estação Chácara Klabin"}},{"type":"node","id":4924414397,"lat":-23.6500726,"lon":-46.7042057,"tags":{"name":"Adolfo Pinheiro","network":"Metroviária","operator":"ViaMobilidade Linhas 5 e 17","operator:wikidata":"Q55962686","public_transport":"station","railway":"station","ref":"ADP","start_date":"2014-02-12","station":"subway","subway":"yes","wheelchair":"yes","wikidata":"Q4684268","wikimedia_commons":"Category:Adolfo Pinheiro (São Paulo Metro)","wikipedia":"pt:Estação Adolfo Pinheiro"}},{"type":"node","id":4924472501,"lat":-23.4800747,"lon":-46.6032701,"tags":{"name":"Tucuruvi","operator":"Metropolitano de São Paulo","public_transport":"station","railway":"station","ref":"TUC","station":"subway","subway":"yes","wikidata":"Q3309828"}},{"type":"node","id":4924478010,"lat":-23.5814424,"lon":-46.638379,"tags":{"name":"Ana Rosa","operator":"Metropolitano de São Paulo","public_transport":"station","railway":"station","ref":"ANR","station":"subway","subway":"yes","wheelchair":"yes","wikidata":"Q4750505","wikimedia_commons":"Category:Ana Rosa (São Paulo Metro)","wikipedia":"pt:Estação Ana Rosa"}},{"type":"node","id":4924500191,"lat":-23.584427,"lon":-46.581938,"tags":{"name":"Vila Prudente","operator":"Metropolitano de São Paulo","public_transport":"station","railway":"station","ref":"VPT","station":"subway","subway":"yes","wikidata":"Q5692522","wikimedia_commons":"Category:Vila Prudente (São Paulo Metro)","wikipedia":"pt:Terminal Intermodal Vila Prudente"}},{"type":"node","id":4962873828,"lat":-23.568589,"lon":-46.6477629,"tags":{"name":"Brigadeiro","operator":"Metropolitano de São Paulo","public_transport":"station","railway":"station","ref":"BGD","station":"subway","subway":"yes","wikidata":"Q2925324","wikimedia_commons":"Category:Brigadeiro (São Paulo Metro)","wikipedia":"pt:Estação Brigadeiro"}},{"type":"node","id":4962907887,"lat":-23.6463382,"lon":-46.6410462,"tags":{"name":"Jabaquara","operator":"Metropolitano de São Paulo","public_transport":"station","railway":"station","ref":"JAB","station":"subway","subway":"yes","wikidata":"Q5244789","wikipedia":"pt:Terminal Intermodal Jabaquara"}},{"type":"node","id":4964592035,"lat":-23.5891527,"lon":-46.6346643,"tags":{"internet_access":"wlan","name":"Vila Mariana","operator":"Metropolitano de São Paulo","public_transport":"station","railway":"station","ref":"VMN","station":"subway","subway":"yes","website":"https://en.wikipedia.org/wiki/Vila_Mariana_(S%C3%A3o_Paulo_Metro)","wheelchair":"no","wikidata":"Q5686126","wikimedia_commons":"Category:Vila Mariana (São Paulo Metro)","wikipedia":"pt:Estação Vila Mariana"}},{"type":"node","id":4964617785,"lat":-23.4924029,"lon":-46.6170103,"tags":{"name":"Jardim São Paulo - Ayrton Senna","operator":"Metropolitano de São Paulo","public_transport":"station","railway":"station","ref":"JPA","station":"subway","subway":"yes","wheelchair":"yes","wikidata":"Q5244694","wikimedia_commons":"Category:Jardim São Paulo-Ayrton Senna (São Paulo Metro)","wikipedia":"pt:Estação Jardim São Paulo-Ayrton Senna"}},{"type":"node","id":5086228508,"lat":-23.5978465,"lon":-46.65231,"tags":{"name":"AACD – Servidor","public_transport":"stop_position","railway":"stop","start_date":"2018-08-31","station":"subway","subway":"yes","wikidata":"Q5908613","wikimedia_commons":"Category:AACD - Servidor (São Paulo Metro)","wikipedia":"pt:Estação AACD-Servidor"}},{"type":"node","id":5109491581,"lat":-23.6416337,"lon":-46.6994196,"tags":{"name":"Alto da Boa Vista","operator":"ViaMobilidade Linhas 5 e 17","public_transport":"station","railway":"station","ref":"ABA","start_date":"2017-09-06","station":"subway","subway":"yes","wheelchair":"yes","wikidata":"Q2883491","wikipedia":"pt:Estação Alto da Boa Vista"}},{"type":"node","id":5109495595,"lat":-23.6268017,"lon":-46.6881279,"tags":{"name":"Brooklin","operator":"ViaMobilidade Linhas 5 e 17","public_transport":"station","railway":"station","ref":"BCB","start_date":"2017-09-06","station":"subway","subway":"yes","wheelchair":"yes","wikidata":"Q4974689","wikimedia_commons":"Category:Brooklin (São Paulo Metro)","wikipedia":"pt:Estação Brooklin"}},{"type":"node","id":5109495596,"lat":-23.6334661,"lon":-46.6928675,"tags":{"name":"Borba Gato","operator":"ViaMobilidade Linhas 5 e 17","public_transport":"station","railway":"station","ref":"BGT","start_date":"2017-09-06","station":"subway","subway":"yes","wheelchair":"yes","wikidata":"Q4944343","wikipedia":"pt:Estação Borba Gato"}},{"type":"node","id":5148119198,"lat":-23.5662284,"lon":-46.6841386,"tags":{"name":"Fradique Coutinho","operator":"ViaQuatro","public_transport":"station","railway":"station","ref":"FRA","station":"subway","subway":"yes","wheelchair":"yes","wikidata":"Q5477606","wikimedia_commons":"Category:Fradique Coutinho (São Paulo Metro)","wikipedia":"pt:Estação Fradique Coutinho"}},{"type":"node","id":5148131318,"lat":-23.555315,"lon":-46.6619477,"tags":{"alt_name":"Paulista;Paulista do metrô","bicycle":"yes","name":"Paulista - Pernambucanas","name:ja":"パウリスタ","operator":"ViaQuatro","public_transport":"station","railway":"station","ref":"PTA","station":"subway","subway":"yes","wheelchair":"yes","wikidata":"Q8779085","wikimedia_commons":"Category:Paulista (São Paulo Metro)","wikipedia":"pt:Estação Paulista"}},{"type":"node","id":5153819541,"lat":-23.5309113,"lon":-46.6325376,"tags":{"addr:city":"São Paulo","addr:housenumber":"551","addr:postcode":"01101-010","addr:street":"Avenida Tiradentes","addr:suburb":"Bom Retiro","name":"Tiradentes","network":"Linha 1","operator":"Metropolitano de São Paulo","public_transport":"station","railway":"station","ref":"TRD","station":"subway","subway":"yes","website":"http://www.metro.sp.gov.br/sua-viagem/linha-1-azul/estacao-tiradentes.aspx","wikidata":"Q7809083","wikimedia_commons":"Category:Tiradentes (São Paulo Metro)","wikipedia":"pt:Estação Tiradentes"}},{"type":"node","id":5153855592,"lat":-23.6255838,"lon":-46.6408171,"tags":{"name":"São Judas","operator":"Metropolitano de São Paulo","public_transport":"station","railway":"station","ref":"JUD","station":"subway","subway":"yes","wheelchair":"yes","wikidata":"Q7665592","wikimedia_commons":"Category:São Judas (São Paulo Metro)","wikipedia":"pt:Estação São Judas"}},{"type":"node","id":5153861350,"lat":-23.6184261,"lon":-46.639204,"tags":{"alt_name":"Estação Saúde;Estação Saúde Ultrafarma","name":"Saúde – Ultrafarma","official_name":"Saúde","operator":"Metropolitano de São Paulo","public_transport":"station","railway":"station","ref":"SAU","station":"subway","subway":"yes","wikidata":"Q5244817","wikimedia_commons":"Category:Saúde (São Paulo Metro)","wikipedia":"pt:Estação Saúde"}},{"type":"node","id":5153861800,"lat":-23.6105685,"lon":-46.6378999,"tags":{"name":"Praça da Árvore","operator":"Metropolitano de São Paulo","public_transport":"station","railway":"station","ref":"ARV","station":"subway","subway":"yes","wikidata":"Q7239119","wikimedia_commons":"Category:Praça da Árvore (São Paulo Metro)","wikipedia":"pt:Estação Praça da Árvore"}},{"type":"node","id":5153871131,"lat":-23.5990348,"lon":-46.6366748,"tags":{"name":"Santa Cruz","operator":"Metropolitano de São Paulo","public_transport":"station","railway":"station","ref":"SCZ","station":"subway","subway":"yes","wikidata":"Q7419392","wikimedia_commons":"Category:Santa Cruz (São Paulo Metro)","wikipedia":"pt:Estação Santa Cruz (Metrô de São Paulo)"}},{"type":"node","id":5153876863,"lat":-23.5672551,"lon":-46.6939585,"tags":{"name":"Faria Lima","operator":"ViaQuatro","public_transport":"station","railway":"station","ref":"FAL","station":"subway","subway":"yes","wikidata":"Q5435213","wikimedia_commons":"Category:Faria Lima (São Paulo Metro)","wikipedia":"pt:Estação Faria Lima"}},{"type":"node","id":5159984416,"lat":-23.557818,"lon":-46.6605373,"tags":{"name":"Consolação","operator":"Metropolitano de São Paulo","public_transport":"station","railway":"station","ref":"CNS","station":"subway","subway":"yes","wikidata":"Q2994646","wikimedia_commons":"Category:Consolação (São Paulo Metro)","wikipedia":"pt:Estação Consolação"}},{"type":"node","id":5159984781,"lat":-23.5633121,"lon":-46.6542028,"tags":{"name":"Trianon-Masp","old_name":"Trianon","operator":"Metropolitano de São Paulo","public_transport":"station","railway":"station","ref":"TRI","station":"subway","subway":"yes","wheelchair":"yes","wikidata":"Q3071513","wikimedia_commons":"Category:Trianon-Masp (São Paulo Metro)","wikipedia":"pt:Estação Trianon-Masp"}},{"type":"node","id":5316930424,"lat":-23.554051,"lon":-46.6708841,"tags":{"name":"Clínicas","operator":"Metropolitano de São Paulo","public_transport":"station","railway":"station","ref":"CLI","station":"subway","subway":"yes","train":"yes","wheelchair":"yes","wikidata":"Q5137302","wikimedia_commons":"Category:Clínicas (São Paulo Metro)","wikipedia":"pt:Estação Clínicas"}},{"type":"node","id":5356426230,"lat":-23.5489592,"lon":-46.6523049,"tags":{"name":"Higienópolis-Mackenzie","operator":"ViaQuatro","public_transport":"station","railway":"station","ref":"HIG","short_name":"Higienópolis","start_date":"2018-01-23","station":"subway","subway":"yes","wheelchair":"yes","wikidata":"Q8779002","wikimedia_commons":"Category:Higienópolis-Mackenzie (São Paulo Metro)","wikipedia":"pt:Estação Higienópolis–Mackenzie"}},{"type":"node","id":5368610130,"lat":-23.6439301,"lon":-46.7339828,"tags":{"name":"Giovanni Gronchi","operator":"ViaMobilidade Linhas 5 e 17","public_transport":"station","railway":"station","ref":"GGR","station":"subway","subway":"yes","wikidata":"Q5563882"}},{"type":"node","id":5368613746,"lat":-23.6591689,"lon":-46.7680006,"tags":{"name":"Capão Redondo","operator":"ViaMobilidade Linhas 5 e 17","public_transport":"station","railway":"station","ref":"CPR","station":"subway","subway":"yes","wikidata":"Q5037175"}},{"type":"node","id":5368617428,"lat":-23.5718995,"lon":-46.7080896,"tags":{"name":"Butantã","operator":"ViaQuatro","public_transport":"station","railway":"station","ref":"BUT","station":"subway","subway":"yes","wikidata":"Q5002360","wikimedia_commons":"Category:Butantã (São Paulo Metro)","wikipedia":"pt:Estação Butantã"}},{"type":"node","id":5368625730,"lat":-23.5339809,"lon":-46.6558993,"tags":{"name":"Marechal Deodoro","operator":"Metropolitano de São Paulo","public_transport":"station","railway":"station","ref":"DEO","station":"subway","subway":"yes","wikidata":"Q6758759","wikimedia_commons":"Category:Marechal Deodoro (São Paulo Metro)","wikipedia":"pt:Estação Marechal Deodoro"}},{"type":"node","id":5368635708,"lat":-23.5510281,"lon":-46.6775867,"tags":{"name":"Santuário Nossa Senhora de Fátima - Sumaré","old_name":"Sumaré","operator":"Metropolitano de São Paulo","public_transport":"station","railway":"station","ref":"SUM","station":"subway","subway":"yes","wheelchair":"yes","wikidata":"Q3065820","wikimedia_commons":"Category:Santuário Nossa Senhora de Fátima-Sumaré (São Paulo Metro)","wikipedia":"pt:Estação Santuário Nossa Senhora de Fátima-Sumaré"}},{"type":"node","id":5368677484,"lat":-23.5353887,"lon":-46.6344383,"tags":{"name":"Luz","operator":"ViaQuatro","public_transport":"station","railway":"station","ref":"LUZ","station":"subway","subway":"yes","train":"yes"}},{"type":"node","id":5369261562,"lat":-23.5428718,"lon":-46.589615,"tags":{"name":"Belém","operator":"Metropolitano de São Paulo","public_transport":"station","railway":"station","ref":"BEL","station":"subway","subway":"yes","wikidata":"Q4884965","wikimedia_commons":"Category:Belém (São Paulo Metro)","wikipedia":"pt:Estação Belém"}},{"type":"node","id":5369262558,"lat":-23.546504,"lon":-46.6069301,"tags":{"name":"Bresser-Mooca","old_name":"Bresser","operator":"Metropolitano de São Paulo","public_transport":"station","railway":"station","ref":"BRE","station":"subway","subway":"yes","wikidata":"Q4961886","wikimedia_commons":"Category:Bresser–Mooca (São Paulo Metro)","wikipedia":"pt:Estação Bresser-Mooca"}},{"type":"node","id":5369269022,"lat":-23.5393238,"lon":-46.6489566,"tags":{"name":"Santa Cecília","operator":"Metropolitano de São Paulo","public_transport":"station","railway":"station","ref":"CEC","station":"subway","subway":"yes","wikidata":"Q7419299","wikimedia_commons":"Category:Santa Cecília (São Paulo Metro)","wikipedia":"pt:Estação Santa Cecília"}},{"type":"node","id":5369270072,"lat":-23.5402438,"lon":-46.4847063,"tags":{"name":"Artur Alvim","operator":"Metropolitano de São Paulo","public_transport":"station","railway":"station","ref":"ART","station":"subway","subway":"yes","wikidata":"Q4801591"}},{"type":"node","id":5369270115,"lat":-23.5334949,"lon":-46.5426688,"tags":{"name":"Penha - Lojas Besni","official_name":"Penha","operator":"Metropolitano de São Paulo","public_transport":"station","railway":"station","ref":"PEN","station":"subway","subway":"yes","wikidata":"Q7162810"}},{"type":"node","id":5369273626,"lat":-23.5319166,"lon":-46.5308731,"tags":{"name":"Vila Matilde","operator":"Metropolitano de São Paulo","public_transport":"station","railway":"station","ref":"VTD","station":"subway","subway":"yes","wikidata":"Q7929998"}},{"type":"node","id":5369273978,"lat":-23.5293046,"lon":-46.5166401,"tags":{"name":"Guilhermina-Esperança","old_name":"Rincão;Vila Esperança","operator":"Metropolitano de São Paulo","public_transport":"station","railway":"station","ref":"VPA","station":"subway","subway":"yes","wikidata":"Q5615996"}},{"type":"node","id":5369274765,"lat":-23.5310464,"lon":-46.5015767,"tags":{"name":"Patriarca • Vila Ré","old_name":"Patriarca","operator":"Metropolitano de São Paulo","public_transport":"station","railway":"station","ref":"PCA","station":"subway","subway":"yes","wikidata":"Q7145249","wikipedia":"pt:Estação Patriarca - Vila Ré"}},{"type":"node","id":5369277070,"lat":-23.5551768,"lon":-46.6356017,"tags":{"name":"Japão - Liberdade","old_name":"Liberdade","operator":"Metropolitano de São Paulo","public_transport":"station","railway":"station","ref":"LIB","station":"subway","subway":"yes","wikidata":"Q6541063","wikimedia_commons":"Category:Japão-Liberdade (São Paulo Metro)","wikipedia":"pt:Estação Japão-Liberdade"}},{"type":"node","id":5369277944,"lat":-23.5440359,"lon":-46.6343167,"tags":{"name":"São Bento","operator":"Metropolitano de São Paulo","public_transport":"station","railway":"station","ref":"BTO","station":"subway","subway":"yes","wikidata":"Q7665407","wikimedia_commons":"Category:São Bento (São Paulo Metro)","wikipedia":"pt:Estação São Bento (Metrô de São Paulo)"}},{"type":"node","id":5369281661,"lat":-23.5378874,"lon":-46.5642624,"tags":{"addr:city":"São Paulo","alt_name":"Estação Carrão;Estação Carrão Assaí Atacadista;Metrô Carrão","name":"Carrão – Assaí Atacadista","official_name":"Carrão","operator":"Metropolitano de São Paulo","public_transport":"station","railway":"station","ref":"CAR","station":"subway","subway":"yes","wikidata":"Q5046842","wikimedia_commons":"Category:Carrão (São Paulo Metro)","wikipedia":"pt:Estação Carrão"}},{"type":"node","id":5370729520,"lat":-23.5422994,"lon":-46.4712065,"tags":{"name":"Corinthians-Itaquera","network":"CPTM;Metrô","old_name":"Corinthians Paulista;Itaquera","operator":"Metropolitano de São Paulo","public_transport":"station","railway":"station","ref":"ITQ","station":"subway","subway":"yes","train":"yes","wikidata":"Q5170696"}},{"type":"node","id":5942913082,"lat":-23.5861368,"lon":-46.7239121,"tags":{"alt_name":"São Paulo-Morumbi","name":"São Paulo – Morumbi","old_name":"Morumbi","operator":"ViaQuatro","public_transport":"station","railway":"station","ref":"MBI","start_date":"2018-10-27","station":"subway","subway":"yes","wikidata":"Q9290828","wikimedia_commons":"Category:São Paulo–Morumbi (São Paulo Metro)","wikipedia":"pt:Estação São Paulo-Morumbi"}},{"type":"node","id":7717276955,"lat":-23.5615965,"lon":-46.6386084,"tags":{"name":"São Joaquim","operator":"Metropolitano de São Paulo","public_transport":"station","railway":"station","ref":"JQM","station":"subway","subway":"yes","wikidata":"Q7665498","wikimedia_commons":"Category:São Joaquim (São Paulo Metro)","wikipedia":"pt:Estação São Joaquim"}},{"type":"node","id":8000500360,"lat":-23.6492871,"lon":-46.7589484,"tags":{"name":"Campo Limpo","operator":"ViaMobilidade Linhas 5 e 17","public_transport":"station","railway":"station","ref":"CPL","station":"subway","subway":"yes","wikidata":"Q5028448"}},{"type":"node","id":9346910951,"lat":-23.5934343,"lon":-46.734809,"tags":{"name":"Vila Sônia - Professora Elizabeth Tenreiro","old_name":"Vila Sônia","operator":"ViaQuatro","public_transport":"station","railway":"station","ref":"VSO","start_date":"2021-12-17","station":"subway","subway":"yes","wikidata":"Q7930027","wikimedia_commons":"Category:Vila Sônia (São Paulo Metro)","wikipedia":"pt:Terminal Intermodal Vila Sônia"}},{"type":"node","id":11984377967,"lat":-23.6017052,"lon":-46.7431515,"tags":{"name":"futura Estação Chácara do Jockey","planned":"station","railway":"planned","station":"subway","wikidata":"Q126734956","wikipedia":"pt:Estação Chácara do Jockey"}},{"type":"node","id":11992868871,"lat":-23.6076115,"lon":-46.7595544,"tags":{"name":"futura Estação Taboão da Serra","planned":"station","railway":"planned","station":"subway","wikidata":"Q126709764","wikimedia_commons":"Category:Taboão da Serra (São Paulo Metro)","wikipedia":"pt:Terminal Intermodal Taboão da Serra"}},{"type":"node","id":13633997395,"lat":-23.663829,"lon":-46.7702936,"tags":{"name":"Estação de Metrô Capão Redondo","operator":"ViaMobilidade Linhas 5 e 17","public_transport":"station","railway":"station","station":"subway","subway":"yes"}},{"type":"node","id":13645261006,"lat":-23.5251483,"lon":-46.6288763,"tags":{"addr:city":"São Paulo","addr:street":"Rua Pedro Vicente","addr:suburb":"Luz","name":"Armênia","network":"Linha 1","operator":"Metropolitano de São Paulo","public_transport":"station","railway":"station","station":"subway","subway":"yes"}},{"type":"node","id":13645331212,"lat":-23.5162359,"lon":-46.6254001,"tags":{"addr:city":"São Paulo","addr:street":"Avenida Cruzeiro do Sul","addr:suburb":"Santana","name":"Portuguesa-Tietê","network":"Linha 1","operator":"Metropolitano de São Paulo","public_transport":"station","railway":"station","station":"subway","subway":"yes","website":"http://www.metro.sp.gov.br/sua-viagem/linha-1-azul/estacao-portuguesa-tiete.aspx"}},{"type":"node","id":13645331213,"lat":-23.5091285,"lon":-46.6252025,"tags":{"addr:city":"São Paulo","addr:street":"Avenida Cruzeiro do Sul","addr:suburb":"Santana","name":"Carandiru","network":"Linha 1","operator":"Metropolitano de São Paulo","public_transport":"station","railway":"station","station":"subway","subway":"yes"}},{"type":"node","id":13645331214,"lat":-23.5024374,"lon":-46.6250887,"tags":{"addr:city":"São Paulo","addr:street":"Avenida Cruzeiro do Sul","addr:suburb":"Santana","name":"Santana","network":"Linha 1","operator":"Metropolitano de São Paulo","public_transport":"station","railway":"station","station":"subway","subway":"yes"}},{"type":"node","id":13645331215,"lat":-23.4870228,"lon":-46.6089306,"tags":{"addr:city":"São Paulo","addr:street":"Avenida Luiz Dumont Villares","addr:suburb":"Parada Inglesa","name":"Parada Inglesa","network":"Linha 1","operator":"Metropolitano de São Paulo","public_transport":"station","railway":"station","station":"subway","subway":"yes"}},{"type":"node","id":13987752500,"lat":-23.5205416,"lon":-46.688145,"tags":{"name":"Água Branca","operator":"LinhaUni","public_transport":"station","railway":"station","station":"subway","subway":"yes","wikidata":"Q85817186","wikimedia_commons":"Category:Água Branca (São Paulo Metro)","wikipedia":"en:Água Branca (São Paulo Metro)"}},{"type":"node","id":13987758801,"lat":-23.5320875,"lon":-46.676615,"tags":{"name":"Perdizes","note":"Linha em teste operacional, operando Seg.-Sex., de 9h-15h, exceto feriados. Passagem gratuita (exclusivamente na Linha 6).","opening_hours":"Mo-Fr 10:00-15:00","operator":"LinhaUni","public_transport":"station","railway":"station","start_date":"2026-07-02","station":"subway","subway":"yes","website":"https://www.linhauni.com.br/linha-6-laranja?unidade-construtiva=estacao-joao-paulo-i#obras","wheelchair":"yes","wikidata":"Q30926628","wikimedia_commons":"File:Estação Perdizes • Linha 6 Laranja • Metrô de São Paulo • construção em julho 2022 • 5.jpg","wikipedia":"pt:Estação Perdizes"}},{"type":"node","id":13987758802,"lat":-23.5272813,"lon":-46.683261,"tags":{"name":"SESC-Pompeia","operator":"LinhaUni","public_transport":"station","railway":"station","station":"subway","subway":"yes","wikidata":"Q28679219","wikimedia_commons":"Category:SESC-Pompeia (São Paulo Metro)","wikipedia":"pt:Estação Sesc-Pompeia"}},{"type":"node","id":13989593566,"lat":-23.5140753,"lon":-46.6916734,"tags":{"name":"Santa Marina","note":"Linha em teste operacional, operando Seg.-Sex., de 9h-15h, exceto feriados. Passagem gratuita (exclusivamente na Linha 6).","opening_hours":"Mo-Fr 10:00-15:00","operator":"LinhaUni","public_transport":"station","railway":"station","start_date":"2026-07-02","station":"subway","subway":"yes","wheelchair":"yes","wikidata":"Q41344200","wikimedia_commons":"Category:Santa Marina (São Paulo Metro)","wikipedia":"pt:Estação Santa Marina"}},{"type":"node","id":13989593567,"lat":-23.4935942,"lon":-46.6914202,"tags":{"name":"João Paulo I","note":"Linha em teste operacional, operando Seg.-Sex., de 9h-15h, exceto feriados. Passagem gratuita (exclusivamente na Linha 6).","opening_hours":"Mo-Fr 10:00-15:00","public_transport":"station","railway":"station","start_date":"2026-07-02","station":"subway","subway":"yes","wheelchair":"yes","wikidata":"Q26257444","wikimedia_commons":"Category:João Paulo I (São Paulo Metro)","wikipedia":"pt:Estação João Paulo I"}},{"type":"node","id":13989593568,"lat":-23.5017452,"lon":-46.6936516,"tags":{"name":"Freguesia do Ó","note":"Linha em teste operacional, operando Seg.-Sex., de 9h-15h, exceto feriados. Passagem gratuita (exclusivamente na Linha 6).","opening_hours":"Mo-Fr 10:00-15:00","operator":"LinhaUni","public_transport":"station","railway":"station","start_date":"2026-07-02","station":"subway","subway":"yes","website":"https://www.linhauni.com.br/linha-6-laranja?unidade-construtiva=estacao-joao-paulo-i#obras","wheelchair":"yes","wikidata":"Q25448241","wikipedia":"pt:Estação Freguesia do Ó"}},{"type":"way","id":16644515,"center":{"lat":-23.5092685,"lon":-46.6249658},"nodes":[171937910,171937911,171937912,171937913,171937914,171937915,171937916,6316644537,11207988285,171937917,171937918,6316644536,171937920,171937921,171937922,171937910],"tags":{"addr:city":"São Paulo","addr:country":"BR","addr:housenumber":"2487","addr:postcode":"02031-000","addr:street":"Avenida Cruzeiro do Sul","addr:suburb":"Carandiru","bench":"yes","building":"transportation","layer":"3","lit":"yes","name":"Carandiru","opening_hours":"Mo-Fr 00:00-00:26,04:40-24:00; Sa 04:40-24:00; Su 00:00-01:00,04:00-24:00","operator":"Metropolitano de São Paulo","public_transport":"station","railway":"station","ref":"CDU","shelter":"yes","source":"survey","start_date":"1975","station":"subway","subway":"yes","surface":"concrete","toilets":"no","wheelchair":"limited","wheelchair:description":"Elevador de acesso para pessoas portadoras de deficiência,idosos,gestantes","wikidata":"Q5037696"}},{"type":"way","id":16644748,"center":{"lat":-23.4870243,"lon":-46.6088445},"nodes":[6739544882,1715123248,1715123213,171942726,171942724,1715123205,1715123186,1715123123,1715123133,171942723,171942727,1715123152,1715123160,6739544881,6739544882],"tags":{"building":"roof","height":"15.79","layer":"2","name":"Parada Inglesa","operator":"Metropolitano de São Paulo","public_transport":"station","railway":"station","ref":"PIG","source":"pmsp","station":"subway","subway":"yes","wikidata":"Q5244856"}},{"type":"way","id":16645299,"center":{"lat":-23.5254015,"lon":-46.6292477},"nodes":[4501416333,1955040010,4501416332,4501416331,4501416330,4501416329,4501416328,4501416327,4501416326,4501416325,4230266401,4501416324,4356708653,4501416323,4501416322,4501416321,171949189,4501416320,4501416319,4501416318,4501416317,4501416316,4501416315,171949187,4501416333],"tags":{"addr:city":"São Paulo","addr:country":"BR","addr:housenumber":"47","addr:state":"São Paulo","addr:street":"Rua Pedro Vicente","building":"transportation","contact:facebook":"https://www.facebook.com/metrosp","contact:flickr":"https://www.flickr.com/photos/metrosp_oficial/","contact:instagram":"https://www.instagram.com/metrospoficial/","contact:phone":"0800 770 7722","contact:twitter":"@metrosp_oficial","contact:website":"http://www.metro.sp.gov.br/sua-viagem/linha-1-azul/estacao-armenia.aspx","contact:youtube":"https://www.youtube.com/user/MetrospOficial","height":"11.47","layer":"2","min_height":"4.85","name":"Armênia","old_name":"Ponte Pequena","opening_hours":"Mo-Fr 00:00-00:26,04:40-24:00; Sa 04:40-24:00; Su 00:00-01:00,04:00-24:00","operator":"Metropolitano de São Paulo","public_transport":"station","railway":"station","ref":"PPQ","source":"pmsp","start_date":"1975-09-26","station":"subway","subway":"yes","toilets":"yes","wheelchair":"limited","wheelchair:description:pt":"Elevador de acesso para pessoas portadoras de deficiência.","wikidata":"Q5244779"}},{"type":"way","id":16945503,"center":{"lat":-23.5429192,"lon":-46.5898246},"nodes":[4594978016,647099556,175679057,175679055,175679054,175679052,2367751382,175679067,175679064,4594978057,9011219851,4594978058,175679060,175679062,2367751359,175679061,175679058,4594978011,4594978012,4594978015,4594978016],"tags":{"building":"transportation","height":"12.324","layer":"1","name":"Belém","operator":"Metropolitano de São Paulo","public_transport":"station","railway":"station","source":"pmsp","station":"subway","subway":"yes","wikidata":"Q4884965","wikipedia":"pt:Estação Belém"}},{"type":"way","id":283273122,"center":{"lat":-23.5959089,"lon":-46.6207145},"nodes":[5368628878,2871605902,5022184037,2871605903,2757588019,11698107581,5368628878],"tags":{"building":"transportation","name":"Santos - Imigrantes","old_name":"Imigrantes","operator":"Metropolitano de São Paulo","public_transport":"station","railway":"station","ref":"IMG","station":"subway","subway":"yes","website":"http://www.metro.sp.gov.br/","wheelchair":"yes","wikidata":"Q7420602"}},{"type":"way","id":494225774,"center":{"lat":-23.5979993,"lon":-46.6370577},"nodes":[5951581006,6900264574,6900264573,6078849450,4860140559,6900266374,6900266381,6900266383,6900266384,6900266385,6900266396,6900266377,6900266388,6900266379,6900266378,6900266375,6900266376,6900266428,6900266420,6900266416,6900266426,6900266419,6900266427,6900266425,6900266431,6900266424,6900266430,6900266423,6900266429,6900266422,6900266421,5851875089,6900266432,6900266418,6900266415,5951581006],"tags":{"addr:city":"São Paulo","addr:housenumber":"2564","addr:street":"Rua Domingos de Morais","addr:suburb":"Vila Mariana","building":"transportation","internet_access":"no","name":"Santa Cruz","network":"Linha 5 Lilás;Linha 1 Azul","operator":"Via Mobilidade;Metrô","public_transport":"station","railway":"station","ref":"SCZ","start_date":"2018-09-28","station":"subway","subway":"yes","wheelchair":"yes","wikimedia_commons":"Category:Santa Cruz (São Paulo Metro)"}},{"type":"way","id":494225775,"center":{"lat":-23.5985094,"lon":-46.6455799},"nodes":[5930317872,8638040902,4860140564,8638040900,8638040903,8638040904,4860140563,4860140562,5951581005,5930317872],"tags":{"addr:city":"São Paulo","addr:street":"Rua Pedro de Toledo","addr:suburb":"Vila Clementino","building":"transportation","name":"Estação Hospital São Paulo","network":"Linha 5 Lilás","opening_hours":"Mo-Su 04:40-00:00","operator":"ViaMobilidade Linhas 5 e 17","public_transport":"station","railway":"station","ref":"HSP","start_date":"2018-09-28","station":"subway","subway":"yes","website":"https://trilhos.motiva.com.br/viamobilidade5/linha-5---lilas/hospital-sao-paulo/","wikidata":"Q7929982","wikimedia_commons":"Category:Hospital São Paulo (São Paulo Metro)"}},{"type":"way","id":529088943,"center":{"lat":-23.4937587,"lon":-46.6914454},"nodes":[5140390295,6558198692,5140390288,5140390289,5140390290,5140390291,5140390292,5140390296,5140390295],"tags":{"addr:city":"São Paulo","addr:housenumber":"1180","addr:suburb":"Freguesia do Ó","name":"Estação João Paulo II","network":"Linha 6-Laranja","note":"Linha em teste operacional, operando Seg.-Sex., de 9h-15h, exceto feriados. Passagem gratuita (exclusivamente na Linha 6).","opening_hours":"Mo-Fr 10:00-15:00","public_transport":"station","railway":"station","source":"Esri","start_date":"2026-07-02","station":"subway","subway":"yes","wheelchair":"yes","wikidata":"Q26257444","wikipedia":"pt:Estação João Paulo I"}},{"type":"way","id":529093495,"center":{"lat":-23.5321708,"lon":-46.6765208},"nodes":[5140436879,9896139302,9896139301,9785565609,9896139300,5140436878,5140436877,9896139296,9896139295,9896139294,12803385991,9896139293,9896139292,9896139291,9896139290,9896139297,9896139298,5140436875,9856351316,5140436879],"tags":{"addr:city":"São Paulo","addr:housenumber":"48","addr:street":"Rua Apiacás","addr:suburb":"Perdizes","building":"transportation","name":"Estação Perdizes","network":"Linha 6-Laranja","note":"Linha em teste operacional, operando Seg.-Sex., de 9h-15h, exceto feriados. Passagem gratuita (exclusivamente na Linha 6).","opening_hours":"Mo-Fr 10:00-15:00","operator":"LinhaUni","public_transport":"station","railway":"station","source":"Esri","start_date":"2026-07-02","station":"subway","subway":"yes","website":"https://www.linhauni.com.br/linha-6-laranja?unidade-construtiva=estacao-joao-paulo-i#obras","wheelchair":"yes","wikidata":"Q30926628","wikimedia_commons":"File:Estação Perdizes • Linha 6 Laranja • Metrô de São Paulo • construção em julho 2022 • 5.jpg","wikipedia":"pt:Estação Perdizes"}},{"type":"way","id":651946183,"center":{"lat":-23.5608907,"lon":-46.6719349},"nodes":[6112884121,12255264325,5538960005,6112884122,6112884123,6112884124,3572968201,6112884125,12255264332,12255264333,6112884126,12255264324,12255264321,6112884121],"tags":{"building":"transportation","height":"8","name":"Oscar Freire","operator":"ViaQuatro","public_transport":"station","railway":"station","ref":"FRE","start_date":"2018-04-04","station":"subway","subway":"yes","wikidata":"Q8779071","wikipedia":"pt:Estação Oscar Freire"}},{"type":"way","id":698759069,"center":{"lat":-23.6186,"lon":-46.6822652},"nodes":[6390726996,6561562036,6561562037,11433149339,6561562038,6561562059,6561562058,6561562039,11433149342,6561582004,6561582005,6390726996],"tags":{"addr:city":"São Paulo","addr:street":"Avenida Santo Amaro","alt_name":"Estação Campo Belo","building":"transportation","name":"Campo Belo","network":"Linha 5 - Lilás","operator":"ViaMobilidade Linhas 5 e 17","public_transport":"station","railway":"station","ref":"CPB","start_date":"2019-04-08","station":"subway","subway":"yes","wheelchair":"yes","wikidata":"Q8076578","wikimedia_commons":"Category:Campo Belo (São Paulo Metro)","wikipedia":"pt:Estação Campo Belo"}},{"type":"way","id":826549219,"center":{"lat":-23.5271056,"lon":-46.6834384},"nodes":[13984352122,13984352123,5067764386,9715442671,9715442672,7717251175,13984352121,13984352122],"tags":{"addr:city":"São Paulo","addr:housenumber":"242","addr:street":"Avenida Pompeia","addr:suburb":"Vila Pompeia","building":"transportation","name":"Estação SESC-Pompeia","network":"Linha 6-Laranja","note":"Linha em teste operacional, operando Seg.-Sex., de 9h-15h, exceto feriados. Passagem gratuita (exclusivamente na Linha 6).","opening_hours":"Mo-Fr 10:00-15:00","operator":"LinhaUni","public_transport":"station","railway":"station","source":"Esri","start_date":"2026-07-02","station":"subway","subway":"yes","website":"https://www.linhauni.com.br/linha-6-laranja?unidade-construtiva=estacao-joao-paulo-i#obras","wheelchair":"yes","wikidata":"Q28679219","wikimedia_commons":"Category:SESC-Pompeia (São Paulo Metro)","wikipedia":"pt:Estação Sesc-Pompeia"}},{"type":"way","id":1217375312,"center":{"lat":-23.5486096,"lon":-46.6523142},"nodes":[4200613552,11279786942,11279786941,11279786943,4200614869,4200614640,4200614647,4200614636,4200613552],"tags":{"name":"Estação Higienópolis-Mackenzie","operator":"ViaQuatro","public_transport":"station","railway":"station","station":"subway","subway":"yes","wheelchair":"yes","wikidata":"Q8779002","wikipedia":"pt:Estação Higienópolis–Mackenzie"}},{"type":"way","id":1233223262,"center":{"lat":-23.5161299,"lon":-46.6250956},"nodes":[5842758404,5842758405,5842758421,5842758422,5842758388,5842758389,5842758390,5842758391,4479243253,5842758393,5842758394,60634947,13451078259,4512627809,13458625671,5151542922,2390116081,13456959018,2390116095,632017992,5842758425,13451078250,2390116124,5842804390,5842804393,60634946,60634950,2826764634,13451078248,5842804397,5842804399,5842804400,5842804401,5842804402,5842804403,5842804404,5842804405,5842804407,60634951,5842804379,5842804380,5842804381,10975933528,10975933525,60634952,5842804383,5842804384,5842804385,13451078249,13456959019,60634953,60634949,4377375873,5842804388,2826764632,13451078251,5842758417,5842758413,5842758414,10975933526,5842758415,13458625697,5151542921,461995024,13451078260,13451210005,5842758404],"tags":{"addr:city":"São Paulo","addr:country":"BR","addr:housenumber":"1777","addr:postcode":"02031-000","addr:street":"Avenida Cruzeiro do Sul","addr:suburb":"Santana","name":"Portuguesa - Tietê","old_name":"Tietê","opening_hours":"Mo-Su 00:00-00:30,04:30-24:00; Sa 00:00-01:00,04:30-24:00","operator":"Metropolitano de São Paulo","public_transport":"station","railway":"station","ref":"TTE","source":"survey","station":"subway","subway":"yes","toilets":"yes","website":"http://www.metro.sp.gov.br/sua-viagem/linha-1-azul/estacao-portuguesa-tiete.aspx","wheelchair":"yes","wikidata":"Q7232599"}},{"type":"way","id":1327186590,"center":{"lat":-23.4295164,"lon":-46.4902116},"nodes":[12278201720,12278220413,12705295797,12705295787,12705334908,12278201721,12278201722,12278220414,12278201723,12278201720],"tags":{"addr:city":"Guarulhos","addr:street":"Corredor de Veículos Particulares do Terminal 1","alt_name":"Estação Terminal 1","building":"transportation","light_rail":"yes","name":"Estação TPS1","network":"Aeromóvel GRU","nohousenumber":"yes","note":"Operando ainda em fase de testes. Frequência atual de aproximadamente 20 minutos.\n------------\nStill in the testing phase. Current frequency of approximately 20 minutes.","opening_hours":"Mo-Su 16:00-00:00","operator":"GRU Airport","public_transport":"station","railway":"station","station":"light_rail","website":"https://www.aerogru.com.br/"}},{"type":"way","id":1327187939,"center":{"lat":-23.422846,"lon":-46.4770815},"nodes":[4639838330,12278220420,12278220418,12278220419,12278220421,4639838335,4639838330],"tags":{"addr:city":"Guarulhos","addr:street":"Acesso de Embarque a Veículos Leves do Terminal 3 do Aeroporto Internacional de Cumbica","alt_name":"Estação Terminal 3","building":"transportation","light_rail":"yes","name":"Estação TPS3","network":"Aeromóvel GRU","nohousenumber":"yes","note":"Operando ainda em fase de testes. Frequência atual de aproximadamente 20 minutos.\n------------\nStill in the testing phase. Current frequency of approximately 20 minutes.","opening_hours":"Mo-Su 16:00-00:00","operator":"GRU Airport","public_transport":"station","railway":"station","station":"light_rail","website":"https://www.aerogru.com.br/"}},{"type":"way","id":1372115437,"center":{"lat":-23.4259014,"lon":-46.4817504},"nodes":[12705334912,12705334913,9718893200,12705334914,12705334915,12705334916,12705334922,12705334917,12705334918,12705334919,12278214661,12705334920,12705334921,12705334912],"tags":{"addr:city":"Guarulhos","addr:street":"Acesso de Embarque do Terminal 2 do Aeroporto Internacional de Cumbica","alt_name":"Estação Terminal 2","building":"transportation","layer":"2","light_rail":"yes","name":"Estação TPS2","network":"Aeromóvel GRU","nohousenumber":"yes","note":"Operando ainda em fase de testes. Frequência atual de aproximadamente 20 minutos.\n------------\nStill in the testing phase. Current frequency of approximately 20 minutes.","opening_hours":"Mo-Su 16:00-00:00","operator":"GRU Airport","public_transport":"station","railway":"station","station":"light_rail","website":"https://www.aerogru.com.br/"}},{"type":"way","id":1372115444,"center":{"lat":-23.4326423,"lon":-46.4924233},"nodes":[12705334926,12705334936,12705334937,12705334938,12705334939,12705334940,5759556626,12705334941,12705334942,12705334943,12705334926],"tags":{"addr:city":"Guarulhos","addr:place":"Aeroporto Internacional Governador André Franco Montoro","alt_name":"Transfer Aeroporto-CPTM","building":"transportation","light_rail":"yes","name":"Estação GRU CPTM","network":"Aeromóvel GRU","nohousenumber":"yes","note":"Operando ainda em fase de testes. Frequência atual de aproximadamente 20 minutos.\n------------\nStill in the testing phase. Current frequency of approximately 20 minutes.","opening_hours":"Mo-Su 16:00-00:00","operator":"GRU Airport","public_transport":"station","railway":"station","station":"light_rail","website":"https://www.aerogru.com.br/"}},{"type":"way","id":1396243234,"center":{"lat":-23.655728,"lon":-46.7209562},"nodes":[12923346294,12923346295,12923346296,12923346297,12923346294],"tags":{"addr:city":"São Paulo","building":"transportation","layer":"1","operator":"ViaMobilidade Linhas 5 e 17","public_transport":"station","railway":"station","station":"subway","subway":"yes","wikidata":"Q5244808","wikipedia":"pt:Estação Santo Amaro"}},{"type":"way","id":1444023097,"center":{"lat":-23.5688095,"lon":-46.6397066},"nodes":[13250602024,13250602025,13250602026,4306258877,4306258879,4306258838,13250602024],"tags":{"operator":"Metropolitano de São Paulo","public_transport":"station","railway":"station","station":"subway","subway":"yes","wikidata":"Q7921287","wikipedia":"pt:Estação Vergueiro"}}]}