{"elements":[{"type":"node","id":26212864,"lat":52.2361357,"lon":9.8584129,"tags":{"man_made":"surveillance","name":"Sarstedt","network":"Großraum-Verkehr Hannover","operator":"infra Infrastrukturgesellschaft Region Hannover","operator:wikidata":"Q1122564","public_transport":"stop_position","railway":"tram_stop","ref_name":"Sarstedt (GVH-Endpunkt), Sarstedt","surveillance":"outdoor","tram":"yes","wheelchair":"yes","wikidata":"Q63344387"}},{"type":"node","id":26212871,"lat":52.236131,"lon":9.8578346,"tags":{"man_made":"surveillance","name":"Sarstedt","network":"Großraum-Verkehr Hannover","operator":"infra Infrastrukturgesellschaft Region Hannover","operator:wikidata":"Q1122564","public_transport":"stop_position","railway":"tram_stop","ref_name":"Sarstedt (GVH-Endpunkt), Sarstedt","surveillance":"outdoor","tram":"yes","wheelchair":"no","wikidata":"Q63344387"}},{"type":"node","id":26264810,"lat":52.273767,"lon":9.8393218,"tags":{"name":"Gleidingen/Thorstraße","network":"Großraum-Verkehr Hannover","network:short":"GVH","network:wikidata":"Q1549516","network:wikipedia":"de:Großraum-Verkehr Hannover","operator":"Überlandwerke und Straßenbahnen Hannover","operator:short":"ÜSTRA","operator:wikidata":"Q265625","operator:wikipedia":"de:Üstra Hannoversche Verkehrsbetriebe","public_transport":"stop_position","railway":"tram_stop","ref:IFOPT":"de:03241:1665:1:1665","tram":"yes","wheelchair":"no","wikidata":"Q63345099"}},{"type":"node","id":26879632,"lat":52.2431944,"lon":9.8566891,"tags":{"name":"Sarstedt/Röntgenstraße","network":"Großraum-Verkehr Hannover","network:short_name":"GVH","network:wikidata":"Q1549516","network:wikipedia":"de:Großraum-Verkehr Hannover","operator":"Überlandwerke und Straßenbahnen Hannover","operator:short_name":"ÜSTRA","operator:wikidata":"Q265625","operator:wikipedia":"de:Üstra Hannoversche Verkehrsbetriebe","public_transport":"stop_position","railway":"tram_stop","tram":"yes","wheelchair":"no","wikidata":"Q63345147"}},{"type":"node","id":26879634,"lat":52.2484139,"lon":9.8567693,"tags":{"name":"Sarstedt/Am Boksberg","network":"Großraum-Verkehr Hannover","network:short":"GVH","network:wikidata":"Q1549516","network:wikipedia":"de:Großraum-Verkehr Hannover","operator":"Überlandwerke und Straßenbahnen Hannover","operator:short":"ÜSTRA","operator:wikidata":"Q265625","operator:wikipedia":"de:Üstra Hannoversche Verkehrsbetriebe","public_transport":"stop_position","railway":"tram_stop","tram":"yes","wikidata":"Q63345131"}},{"type":"node","id":28419228,"lat":52.3616295,"lon":9.8273013,"tags":{"name":"Großer Hillen","network":"Großraum-Verkehr Hannover","network:short":"GVH","network:wikidata":"Q1549516","operator":"ÜSTRA","operator:short":"ÜSTRA","operator:wikidata":"Q265625","public_transport":"stop_position","railway":"tram_stop","ref:IFOPT":"de:03241:3071:1:3071","tram":"yes","wheelchair":"yes"}},{"type":"node","id":29364195,"lat":52.2579418,"lon":9.855806,"tags":{"name":"Heisede/Langer Kamp","network":"Großraum-Verkehr Hannover","network:short":"GVH","network:wikidata":"Q1549516","network:wikipedia":"de:Großraum-Verkehr Hannover","operator":"Überlandwerke und Straßenbahnen Hannover","operator:short":"ÜSTRA","operator:wikidata":"Q265625","operator:wikipedia":"de:Üstra Hannoversche Verkehrsbetriebe","public_transport":"stop_position","railway":"tram_stop","tram":"yes","wheelchair":"no","wikidata":"Q63345110"}},{"type":"node","id":29364202,"lat":52.2599316,"lon":9.8503949,"tags":{"name":"Heisede/Marienburger Straße","network":"Großraum-Verkehr Hannover","network:short":"GVH","network:wikidata":"Q1549516","network:wikipedia":"de:Großraum-Verkehr Hannover","operator":"Überlandwerke und Straßenbahnen Hannover","operator:short":"ÜSTRA","operator:wikidata":"Q265625","operator:wikipedia":"de:Üstra Hannoversche Verkehrsbetriebe","public_transport":"stop_position","railway":"tram_stop","tram":"yes","wikidata":"Q63345128"}},{"type":"node","id":29364212,"lat":52.2701323,"lon":9.8408023,"tags":{"name":"Gleidingen/Am Leinkamp","network":"Großraum-Verkehr Hannover","network:short":"GVH","network:wikidata":"Q1549516","network:wikipedia":"de:Großraum-Verkehr Hannover","operator":"Überlandwerke und Straßenbahnen Hannover","operator:short":"ÜSTRA","operator:wikidata":"Q265625","operator:wikipedia":"de:Üstra Hannoversche Verkehrsbetriebe","public_transport":"stop_position","railway":"tram_stop","ref:IFOPT":"de:03241:1671:1:1671","tram":"yes","wheelchair":"no","wikidata":"Q63345108"}},{"type":"node","id":29364435,"lat":52.375219,"lon":9.6950869,"tags":{"bench":"yes","bin":"yes","name":"Wunstorfer Straße","network":"Großraum-Verkehr Hannover","network:short":"GVH","network:wikidata":"Q1549516","operator":"Überlandwerke und Straßenbahnen Hannover","operator:short":"ÜSTRA","operator:wikidata":"Q265625","public_transport":"stop_position","railway":"tram_stop","ref:IFOPT":"de:03241:485","shelter":"yes","tram":"yes","wheelchair":"yes"}},{"type":"node","id":29364467,"lat":52.3756537,"lon":9.7316469,"tags":{"name":"Steintor","network":"Großraum-Verkehr Hannover","network:short":"GVH","network:wikidata":"Q1549516","operator":"Überlandwerke und Straßenbahnen Hannover","operator:short":"ÜSTRA","operator:wikidata":"Q265625","public_transport":"stop_position","railway":"tram_stop","ref:IFOPT":"de:03241:121:2:122","ref_name":"Steintor, Hannover","tram":"yes","wheelchair":"yes"}},{"type":"node","id":29366399,"lat":52.4337424,"lon":9.7314437,"tags":{"name":"Langenhagen/Angerstraße","network":"Großraum-Verkehr Hannover","network:short":"GVH","network:wikidata":"Q1549516","network:wikipedia":"de:Großraum-Verkehr Hannover","operator":"ÜSTRA","operator:short":"ÜSTRA","operator:wikidata":"Q265625","operator:wikipedia":"de:Üstra Hannoversche Verkehrsbetriebe","public_transport":"stop_position","railway":"tram_stop","ref:IFOPT":"de:03241:2901:3:2902","tactile_paving":"no","tram":"yes","wheelchair":"no","wheelchair:description":"Tiefbahnsteig"}},{"type":"node","id":29366402,"lat":52.4303004,"lon":9.7317453,"tags":{"name":"Berliner Platz","network":"Großraum-Verkehr Hannover","network:short":"GVH","network:wikidata":"Q1549516","operator":"ÜSTRA","operator:short":"ÜSTRA","operator:wikidata":"Q265625","public_transport":"stop_position","railway":"tram_stop","ref:IFOPT":"de:03241:6000:3:6000","tactile_paving":"no","tram":"yes","wheelchair":"no","wheelchair:description":"Tiefbahnsteig"}},{"type":"node","id":29366409,"lat":52.4230363,"lon":9.7328376,"tags":{"light_rail":"yes","name":"Wiesenau","network":"Großraum-Verkehr Hannover","network:short":"GVH","network:wikidata":"Q1549516","operator":"ÜSTRA","operator:short":"ÜSTRA","operator:wikidata":"Q265625","public_transport":"stop_position","railway":"tram_stop","ref:IFOPT":"de:03241:2551:3:2552","shelter":"yes","tactile_paving":"yes","tram":"no","wheelchair":"yes","wheelchair:description":"Tiefbahnsteig","wikidata":"Q63344822"}},{"type":"node","id":29366414,"lat":52.4164987,"lon":9.7337957,"tags":{"name":"Alter Flughafen","network":"Großraum-Verkehr Hannover","network:short":"GVH","network:wikidata":"Q1549516","old_name":"Wasserturm","operator":"Überlandwerke und Straßenbahnen Hannover","operator:short":"ÜSTRA","operator:wikidata":"Q265625","public_transport":"stop_position","railway":"tram_stop","ref":"2542","ref:IFOPT":"de:03241:2541:3:2542","tactile_paving":"no","tram":"yes","wheelchair":"yes","wheelchair:description":"Tiefbahnsteig","wikidata":"Q63344832"}},{"type":"node","id":29366417,"lat":52.4118411,"lon":9.7343168,"tags":{"name":"Kabelkamp","network":"Großraum-Verkehr Hannover","network:short":"GVH","network:wikidata":"Q1549516","operator":"Überlandwerke und Straßenbahnen Hannover","operator:short":"ÜSTRA","operator:wikidata":"Q265625","public_transport":"stop_position","railway":"tram_stop","ref":"2532","ref:IFOPT":"de:03241:2531:3:2532","tactile_paving":"no","tram":"yes","wheelchair":"no","wheelchair:description":"Tiefbahnsteig","wikidata":"Q63344858"}},{"type":"node","id":29366420,"lat":52.4077682,"lon":9.7349098,"tags":{"name":"Windausstraße","network":"Großraum-Verkehr Hannover","network:short":"GVH","network:wikidata":"Q1549516","old_name":"Kanalbrücke","operator":"Überlandwerke und Straßenbahnen Hannover","operator:short":"ÜSTRA","operator:wikidata":"Q265625","public_transport":"stop_position","railway":"tram_stop","ref":"2522","ref:IFOPT":"de:03241:2521:2:2522","tactile_paving":"no","tram":"yes","wheelchair":"no","wheelchair:description":"Tiefbahnsteig","wikidata":"Q63344863"}},{"type":"node","id":29366425,"lat":52.4026216,"lon":9.7355221,"tags":{"name":"Büttnerstraße","network":"Großraum-Verkehr Hannover","network:short":"GVH","network:wikidata":"Q1549516","operator":"Überlandwerke und Straßenbahnen Hannover","operator:short":"ÜSTRA","operator:wikidata":"Q265625","public_transport":"stop_position","railway":"tram_stop","ref:IFOPT":"de:03241:2511:2:2512","tactile_paving":"yes","tram":"yes","wheelchair":"yes","wheelchair:description":"Hochbahnsteig"}},{"type":"node","id":29366426,"lat":52.3986332,"lon":9.7360964,"tags":{"name":"Niedersachsenring","network":"Großraum-Verkehr Hannover","network:short":"GVH","network:wikidata":"Q1549516","operator":"Überlandwerke und Straßenbahnen Hannover","operator:short":"ÜSTRA","operator:wikidata":"Q265625","public_transport":"stop_position","railway":"tram_stop","ref:IFOPT":"de:03241:371:5:372","tactile_paving":"yes","tram":"yes","wheelchair":"yes","wheelchair:description":"Hochbahnsteig"}},{"type":"node","id":29366428,"lat":52.3940257,"lon":9.7353184,"tags":{"name":"Dragonerstraße","network":"Großraum-Verkehr Hannover","network:short":"GVH","network:wikidata":"Q1549516","operator":"Überlandwerke und Straßenbahnen Hannover","operator:short":"ÜSTRA","operator:wikidata":"Q265625","public_transport":"stop_position","railway":"tram_stop","ref:IFOPT":"de:03241:361:7:362","tactile_paving":"yes","tram":"yes","wheelchair":"yes","wheelchair:description":"Hochbahnsteig"}},{"type":"node","id":29366432,"lat":52.3901397,"lon":9.8190928,"tags":{"name":"Roderbruch","network":"Großraum-Verkehr Hannover","network:short":"GVH","network:wikidata":"Q1549516","operator":"ÜSTRA","operator:short":"ÜSTRA","operator:wikidata":"Q265625","public_transport":"stop_position","railway":"tram_stop","ref:IFOPT":"de:03241:2881:1:2881","ref_name":"Roderbruch","tram":"yes","wheelchair":"yes"}},{"type":"node","id":29366433,"lat":52.388677,"lon":9.8133979,"tags":{"name":"Roderbruchmarkt","network":"Großraum-Verkehr Hannover","network:short":"GVH","network:wikidata":"Q1549516","operator":"ÜSTRA","operator:short":"ÜSTRA","operator:wikidata":"Q265625","public_transport":"stop_position","railway":"tram_stop","ref:IFOPT":"de:03241:2871:1:2871","toilets:wheelchair":"yes","tram":"yes","wheelchair":"yes"}},{"type":"node","id":29366440,"lat":52.3841336,"lon":9.8085778,"tags":{"name":"Medizinische Hochschule","network":"Großraum-Verkehr Hannover","network:short":"GVH","network:wikidata":"Q1549516","operator":"ÜSTRA","operator:short":"ÜSTRA","operator:wikidata":"Q265625","public_transport":"stop_position","railway":"tram_stop","ref:IFOPT":"de:03241:2461:1:2461","tactile_paving":"yes","tram":"yes","wheelchair":"yes"}},{"type":"node","id":29366447,"lat":52.3790965,"lon":9.8088463,"tags":{"name":"Misburger Straße","network":"Großraum-Verkehr Hannover","network:short":"GVH","network:wikidata":"Q1549516","operator":"ÜSTRA","operator:short":"ÜSTRA","operator:wikidata":"Q265625","public_transport":"stop_position","railway":"tram_stop","ref:IFOPT":"de:03241:3221:1:3221","tactile_paving":"yes","tram":"yes","wheelchair":"yes"}},{"type":"node","id":29366454,"lat":52.3751035,"lon":9.807928,"tags":{"name":"Bahnhof Karl-Wiechert-Allee","network":"Großraum-Verkehr Hannover","network:short":"GVH","network:wikidata":"Q1549516","old_name":"Karl-Wiechert-Allee","operator":"ÜSTRA","operator:short":"ÜSTRA","operator:wikidata":"Q265625","public_transport":"stop_position","railway":"tram_stop","ref:IFOPT":"de:03241:3017:1:3017","tram":"yes","wheelchair":"yes"}},{"type":"node","id":29366475,"lat":52.3715981,"lon":9.7929568,"tags":{"name":"Uhlhornstraße","network":"Großraum-Verkehr Hannover","network:short":"GVH","network:wikidata":"Q1549516","operator":"ÜSTRA","operator:short":"ÜSTRA","operator:wikidata":"Q265625","public_transport":"stop_position","railway":"tram_stop","ref:IFOPT":"de:03241:3001:1:3002","ref_name":"Uhlhornstraße, Hannover","tactile_paving":"yes","tram":"yes","wheelchair":"yes","wheelchair:description":"Hochbahnsteig"}},{"type":"node","id":29366477,"lat":52.3722816,"lon":9.7860224,"tags":{"name":"Kantplatz","network":"Großraum-Verkehr Hannover","network:short":"GVH","network:wikidata":"Q1549516","operator":"ÜSTRA","operator:short":"ÜSTRA","operator:wikidata":"Q265625","public_transport":"stop_position","railway":"tram_stop","ref:IFOPT":"de:03241:2851:1:2852","ref_name":"Kantplatz, Hannover","tactile_paving":"yes","tram":"yes","wheelchair":"yes","wheelchair:description":"Hochbahnsteig"}},{"type":"node","id":29366795,"lat":52.2858333,"lon":9.8210288,"tags":{"name":"Rethen/Bahnhof","network":"Großraum-Verkehr Hannover","network:short":"GVH","network:wikidata":"Q1549516","operator":"Überlandwerke und Straßenbahnen Hannover","operator:short":"ÜSTRA","operator:wikidata":"Q265625","public_transport":"stop_position","railway":"tram_stop","ref:IFOPT":"de:03241:1641:2:1641","tram":"yes","wheelchair":"yes"}},{"type":"node","id":29366873,"lat":52.3066125,"lon":9.8095674,"tags":{"name":"Laatzen/Zentrum","network":"Großraum-Verkehr Hannover","network:short":"GVH","network:wikidata":"Q1549516","network:wikipedia":"de:Großraum-Verkehr Hannover","operator":"Überlandwerke und Straßenbahnen Hannover","operator:short":"ÜSTRA","operator:wikidata":"Q265625","public_transport":"stop_position","railway":"tram_stop","ref:IFOPT":"de:03241:1601:1:1601","tram":"yes","wheelchair":"yes"}},{"type":"node","id":29366967,"lat":52.3110834,"lon":9.8026913,"tags":{"name":"Laatzen/Park der Sinne","network":"Großraum-Verkehr Hannover","network:short":"GVH","network:wikidata":"Q1549516","network:wikipedia":"de:Großraum-Verkehr Hannover","operator":"Überlandwerke und Straßenbahnen Hannover","operator:short":"ÜSTRA","operator:wikidata":"Q265625","operator:wikipedia":"de:Üstra Hannoversche Verkehrsbetriebe","public_transport":"stop_position","railway":"tram_stop","ref:IFOPT":"de:03241:1561:1:1561","tactile_paving":"no","tram":"yes","wheelchair":"no"}},{"type":"node","id":29366979,"lat":52.3146952,"lon":9.7921909,"tags":{"name":"Laatzen/Eichstraße","network":"Großraum-Verkehr Hannover","network:short":"GVH","network:wikidata":"Q1549516","operator":"Überlandwerke und Straßenbahnen Hannover","operator:short":"ÜSTRA","operator:wikidata":"Q265625","public_transport":"stop_position","railway":"tram_stop","ref:IFOPT":"de:03241:1471:5:1472","tram":"yes","wheelchair":"yes"}},{"type":"node","id":29367399,"lat":52.3192276,"lon":9.786942,"tags":{"name":"Laatzen/Birkenstraße","network":"Großraum-Verkehr Hannover","network:short":"GVH","network:wikidata":"Q1549516","network:wikipedia":"de:Großraum-Verkehr Hannover","operator":"Überlandwerke und Straßenbahnen Hannover","operator:short":"ÜSTRA","operator:wikidata":"Q265625","operator:wikipedia":"de:Üstra Hannoversche Verkehrsbetriebe","public_transport":"stop_position","railway":"tram_stop","ref:IFOPT":"de:03241:1451:5:1452","tram":"yes","wheelchair":"yes"}},{"type":"node","id":29367411,"lat":52.3237482,"lon":9.7831223,"tags":{"name":"Am Brabrinke","network":"Großraum-Verkehr Hannover","network:short":"GVH","network:wikidata":"Q1549516","operator":"Überlandwerke und Straßenbahnen Hannover","operator:short":"ÜSTRA","operator:wikidata":"Q265625","public_transport":"stop_position","railway":"tram_stop","ref:IFOPT":"de:03241:1441:5:1442","tram":"yes","wheelchair":"yes"}},{"type":"node","id":29367425,"lat":52.3375292,"lon":9.7691479,"tags":{"name":"Peiner Straße","network":"Großraum-Verkehr Hannover","network:short":"GVH","network:wikidata":"Q1549516","network:wikipedia":"de:Großraum-Verkehr Hannover","operator":"ÜSTRA","operator:short":"ÜSTRA","operator:wikidata":"Q265625","operator:wikipedia":"de:Üstra Hannoversche Verkehrsbetriebe","public_transport":"stop_position","railway":"tram_stop","ref:IFOPT":"de:03241:1381:1:1381","tram":"yes","wheelchair":"yes"}},{"type":"node","id":29367426,"lat":52.3411364,"lon":9.7659979,"tags":{"name":"Fiedelerstraße","network":"Großraum-Verkehr Hannover","network:short":"GVH","network:wikidata":"Q1549516","operator":"ÜSTRA","operator:short":"ÜSTRA","operator:wikidata":"Q265625","public_transport":"stop_position","railway":"tram_stop","ref:IFOPT":"de:03241:1361:1:1371","tram":"yes","wheelchair":"yes"}},{"type":"node","id":29367427,"lat":52.3452859,"lon":9.7621614,"tags":{"name":"Döhrener Turm","network":"Großraum-Verkehr Hannover","network:short":"GVH","network:wikidata":"Q1549516","operator":"ÜSTRA","operator:short":"ÜSTRA","operator:wikidata":"Q265625","public_transport":"stop_position","railway":"tram_stop","ref:IFOPT":"de:03241:1351:1:1351","tram":"yes","wheelchair":"yes"}},{"type":"node","id":32637867,"lat":52.4132689,"lon":9.648135,"tags":{"name":"Auf der Klappenburg","network":"Großraum-Verkehr Hannover","network:short":"GVH","network:wikidata":"Q1549516","operator":"Überlandwerke und Straßenbahnen Hannover","operator:short":"ÜSTRA","operator:wikidata":"Q265625","public_transport":"stop_position","railway":"tram_stop","ref:IFOPT":"de:03241:4395:5:4396","tram":"yes","wheelchair":"yes"}},{"type":"node","id":32689836,"lat":52.392185,"lon":9.6941421,"tags":{"name":"Schaumburgstraße","network":"Großraum-Verkehr Hannover","network:short":"GVH","network:wikidata":"Q1549516","operator":"ÜSTRA","operator:short":"ÜSTRA","operator:wikidata":"Q265625","public_transport":"stop_position","railway":"tram_stop","ref":"4311;4312","ref:IFOPT":"de:03241:4311:1:4311","tram":"yes","wheelchair":"yes","wikidata":"Q63364169"}},{"type":"node","id":32689838,"lat":52.3914545,"lon":9.7000305,"tags":{"name":"Herrenhäuser Gärten","network":"Großraum-Verkehr Hannover","network:short":"GVH","network:wikidata":"Q1549516","operator":"Überlandwerke und Straßenbahnen Hannover","operator:short":"ÜSTRA","operator:wikidata":"Q265625","public_transport":"stop_position","railway":"tram_stop","ref:IFOPT":"de:03241:201:1:201","tram":"yes","wheelchair":"yes"}},{"type":"node","id":32689845,"lat":52.385161,"lon":9.7122319,"tags":{"name":"Schneiderberg / Wilhelm-Busch-Museum","network":"Großraum-Verkehr Hannover","network:short":"GVH","network:wikidata":"Q1549516","operator":"Überlandwerke und Straßenbahnen Hannover","operator:short":"ÜSTRA","operator:wikidata":"Q265625","public_transport":"stop_position","railway":"tram_stop","ref:IFOPT":"de:03241:181:2:182","tram":"yes","wheelchair":"yes"}},{"type":"node","id":32689849,"lat":52.381282,"lon":9.7178122,"tags":{"name":"Leibniz Universität","network":"Großraum-Verkehr Hannover","network:short":"GVH","network:wikidata":"Q1549516","operator":"Überlandwerke und Straßenbahnen Hannover","operator:short":"ÜSTRA","operator:wikidata":"Q265625","public_transport":"stop_position","railway":"tram_stop","ref:IFOPT":"de:03241:171:1:171","tactile_paving":"no","tram":"yes","wheelchair":"yes","wheelchair:note":"Hochbahnsteig"}},{"type":"node","id":32893592,"lat":52.4157002,"lon":9.6429099,"tags":{"name":"Jädekamp","network":"Großraum-Verkehr Hannover","network:short":"GVH","network:wikidata":"Q1549516","operator":"ÜSTRA","operator:wikidata":"Q265625","public_transport":"stop_position","railway":"tram_stop","ref:IFOPT":"de:03241:4397:5:4398","tram":"yes","wheelchair":"yes"}},{"type":"node","id":32893602,"lat":52.4003247,"lon":9.66903,"tags":{"name":"Stadtfriedhof Stöcken","network":"Großraum-Verkehr Hannover","network:short":"GVH","network:wikidata":"Q1549516","operator":"ÜSTRA","operator:wikidata":"Q265625","public_transport":"stop_position","railway":"tram_stop","ref:IFOPT":"de:03241:4341:4:4342","tram":"yes","wheelchair":"yes"}},{"type":"node","id":59952784,"lat":52.3758039,"lon":9.7326886,"tags":{"name":"Steintor","network":"Großraum-Verkehr Hannover","operator":"infra Infrastrukturgesellschaft Region Hannover","operator:wikidata":"Q1122564","public_transport":"stop_position","railway":"stop","ref:IFOPT":"de:03241:121:9:124","ref_name":"Steintor (U), Hannover","subway":"yes","surveillance":"indoor","wheelchair":"yes"}},{"type":"node","id":59952787,"lat":52.3738655,"lon":9.7383552,"tags":{"name":"Kröpcke","network":"Großraum-Verkehr Hannover","operator":"infra Infrastrukturgesellschaft Region Hannover","operator:wikidata":"Q1122564","public_transport":"stop_position","railway":"stop","ref:IFOPT":"de:03241:11:1:12","ref_name":"Kröpcke (U), Hannover","subway":"yes","surveillance":"indoor","tactile_paving":"yes","wheelchair":"yes"}},{"type":"node","id":59952788,"lat":52.3699546,"lon":9.7531673,"tags":{"name":"Marienstraße","network":"Großraum-Verkehr Hannover","operator":"infra Infrastrukturgesellschaft Region Hannover","operator:wikidata":"Q1122564","public_transport":"stop_position","railway":"stop","ref:IFOPT":"de:03241:1041:8:1050","ref_name":"Marienstraße (U), Hannover","subway":"yes","surveillance":"indoor","wheelchair":"yes"}},{"type":"node","id":59952792,"lat":52.3704867,"lon":9.7620461,"tags":{"level":"-2","name":"Braunschweiger Platz","network":"Großraum-Verkehr Hannover","operator":"infra Infrastrukturgesellschaft Region Hannover","operator:wikidata":"Q1122564","public_transport":"stop_position","railway":"stop","ref:IFOPT":"de:03241:1073:2:1076","ref_name":"Braunschweiger Platz (U), Hannover","subway":"yes","surveillance":"indoor","wheelchair":"yes"}},{"type":"node","id":59952793,"lat":52.3782405,"lon":9.7228618,"tags":{"name":"Königsworther Platz","network":"Großraum-Verkehr Hannover","operator":"infra Infrastrukturgesellschaft Region Hannover","operator:wikidata":"Q1122564","public_transport":"stop_position","railway":"stop","ref:IFOPT":"de:03241:161:6:162","subway":"yes","surveillance":"indoor","wheelchair":"yes"}},{"type":"node","id":60406297,"lat":52.4117695,"lon":9.7061838,"tags":{"name":"Friedenauer Straße","network":"Großraum-Verkehr Hannover","network:short":"GVH","network:wikidata":"Q1549516","operator":"ÜSTRA","operator:short":"ÜSTRA","operator:wikidata":"Q265625","public_transport":"stop_position","railway":"tram_stop","ref:IFOPT":"de:03241:4021:3:4022","tram":"yes","wheelchair":"yes"}},{"type":"node","id":61093964,"lat":52.3930802,"lon":9.7134465,"tags":{"name":"Haltenhoffstraße","network":"Großraum-Verkehr Hannover","network:short":"GVH","network:wikidata":"Q1549516","operator":"Überlandwerke und Straßenbahnen Hannover","operator:short":"ÜSTRA","operator:wikidata":"Q265625","public_transport":"stop_position","railway":"tram_stop","ref:IFOPT":"de:03241:261:1:262","ref_name":"Haltenhoffstraße, Hannover","tram":"yes","wheelchair":"yes","wheelchair:description":"Hochbahnsteig"}},{"type":"node","id":61093971,"lat":52.3865828,"lon":9.7238006,"tags":{"name":"Kopernikusstraße","network":"Großraum-Verkehr Hannover","operator":"infra Infrastrukturgesellschaft Region Hannover","operator:wikidata":"Q1122564","public_transport":"stop_position","railway":"stop","ref:IFOPT":"de:03241:221","ref_name":"Kopernikusstraße (U), Hannover","subway":"yes","surveillance":"indoor","wheelchair":"yes","wikidata":"Q15089810"}},{"type":"node","id":61093979,"lat":52.3818377,"lon":9.7257573,"tags":{"name":"Christuskirche","network":"Großraum-Verkehr Hannover","operator":"infra Infrastrukturgesellschaft Region Hannover","operator:wikidata":"Q1122564","public_transport":"stop_position","railway":"stop","ref:IFOPT":"de:03241:211:1:218","ref_name":"Christuskirche (U), Hannover","subway":"yes","surveillance":"indoor","wheelchair":"yes"}},{"type":"node","id":78565933,"lat":52.3902073,"lon":9.7061337,"tags":{"name":"Appelstraße","network":"Großraum-Verkehr Hannover","network:short":"GVH","network:wikidata":"Q1549516","old_name":"Parkhaus","operator":"Überlandwerke und Straßenbahnen Hannover","operator:short":"ÜSTRA","operator:wikidata":"Q265625","public_transport":"stop_position","railway":"tram_stop","ref:IFOPT":"de:03241:191:1:191","tram":"yes","wheelchair":"yes"}},{"type":"node","id":82473067,"lat":52.3783875,"lon":9.7429529,"tags":{"name":"Hauptbahnhof","network":"Großraum-Verkehr Hannover","operator":"infra Infrastrukturgesellschaft Region Hannover","operator:wikidata":"Q1122564","public_transport":"stop_position","railway":"stop","ref:IFOPT":"de:03241:31:4:22","ref_name":"Hauptbahnhof (U), Hannover","subway":"yes","surveillance":"indoor","tactile_paving":"yes","wheelchair":"yes"}},{"type":"node","id":82473919,"lat":52.364299,"lon":9.747333,"tags":{"name":"Schlägerstraße","network":"Großraum-Verkehr Hannover","operator":"infra Infrastrukturgesellschaft Region Hannover","operator:wikidata":"Q1122564","public_transport":"stop_position","railway":"stop","ref:IFOPT":"de:03241:1301:6:1302","ref_name":"Schlägerstraße (U), Hannover","subway":"yes","surveillance":"indoor","tactile_paving":"yes","wheelchair":"yes"}},{"type":"node","id":96716127,"lat":52.3549022,"lon":9.7545919,"tags":{"level":"-2","name":"Altenbekener Damm","network":"Großraum-Verkehr Hannover","operator":"infra Infrastrukturgesellschaft Region Hannover","operator:wikidata":"Q1122564","public_transport":"stop_position","railway":"stop","ref:IFOPT":"de:03241:1331:11:1332","subway":"yes","surveillance":"indoor","tactile_paving":"yes","wheelchair":"yes"}},{"type":"node","id":96718949,"lat":52.3599951,"lon":9.7506276,"tags":{"level":"-2","name":"Geibelstraße","network":"Großraum-Verkehr Hannover","operator":"infra Infrastrukturgesellschaft Region Hannover","operator:wikidata":"Q1122564","public_transport":"stop_position","railway":"stop","ref:IFOPT":"de:03241:1321:6:1322","subway":"yes","surveillance":"indoor","tactile_paving":"yes","wheelchair":"limited"}},{"type":"node","id":100173825,"lat":52.3576656,"lon":9.7228379,"tags":{"name":"Stadionbrücke","network":"Großraum-Verkehr Hannover","network:short":"GVH","network:wikidata":"Q1549516","operator":"ÜSTRA","operator:short":"ÜSTRA","operator:wikidata":"Q265625","public_transport":"stop_position","railway":"tram_stop","ref:IFOPT":"de:03241:881:1:882","shelter":"yes","tactile_paving":"yes","tram":"yes","wheelchair":"yes"}},{"type":"node","id":102068193,"lat":52.3439242,"lon":9.667168,"tags":{"name":"Empelde","network":"Großraum-Verkehr Hannover","network:short":"GVH","network:wikidata":"Q1549516","operator":"Überlandwerke und Straßenbahnen Hannover","operator:short":"ÜSTRA","operator:wikidata":"Q265625","public_transport":"stop_position","railway":"tram_stop","ref:IFOPT":"de:03241:5001","tactile_paving":"yes","tram":"yes","wheelchair":"yes"}},{"type":"node","id":102068215,"lat":52.3512888,"lon":9.6693813,"tags":{"name":"Safariweg","network":"Großraum-Verkehr Hannover","network:short":"GVH","network:wikidata":"Q1549516","operator":"Überlandwerke und Straßenbahnen Hannover","operator:short":"ÜSTRA","operator:wikidata":"Q265625","public_transport":"stop_position","railway":"tram_stop","ref:IFOPT":"de:03241:701:2","tram":"yes","wheelchair":"no","wheelchair:description":"Tiefbahnsteig"}},{"type":"node","id":102068218,"lat":52.3577944,"lon":9.677137,"tags":{"bus":"no","name":"Am Soltekampe","network":"Großraum-Verkehr Hannover","network:short":"GVH","network:wikidata":"Q1549516","operator":"ÜSTRA","operator:short":"ÜSTRA","operator:wikidata":"Q265625","public_transport":"stop_position","railway":"tram_stop","ref:IFOPT":"de:03241:671:3:672","tram":"yes","wheelchair":"yes","wheelchair:description":"Hochbahnsteig"}},{"type":"node","id":102068232,"lat":52.3648167,"lon":9.6932933,"tags":{"name":"Am Lindener Hafen","network":"Großraum-Verkehr Hannover","network:short":"GVH","network:wikidata":"Q1549516","operator":"Überlandwerke und Straßenbahnen Hannover","operator:short":"ÜSTRA","operator:wikidata":"Q265625","public_transport":"stop_position","railway":"tram_stop","ref:IFOPT":"de:03241:641","tram":"yes","wheelchair":"no","wheelchair:description":"Tiefbahnsteig"}},{"type":"node","id":102068237,"lat":52.3661952,"lon":9.6997912,"tags":{"bus":"yes","highway":"bus_stop","name":"Bernhard-Caspar-Straße","network":"Großraum-Verkehr Hannover","network:short":"GVH","network:wikidata":"Q1549516","operator":"Überlandwerke und Straßenbahnen Hannover","operator:short":"ÜSTRA","operator:wikidata":"Q265625","public_transport":"stop_position","railway":"tram_stop","ref:IFOPT":"de:03241:631:5","tactile_paving":"no","tram":"yes","wheelchair":"no","wheelchair:description":"Tiefbahnsteig"}},{"type":"node","id":102068244,"lat":52.3672032,"lon":9.7093523,"tags":{"bus":"yes","highway":"bus_stop","name":"Nieschlagstraße","network":"Großraum-Verkehr Hannover","network:short":"GVH","network:wikidata":"Q1549516","network:wikipedia":"de:Großraum-Verkehr Hannover","operator":"Überlandwerke und Straßenbahnen Hannover","operator:short":"ÜSTRA","operator:wikidata":"Q265625","public_transport":"stop_position","railway":"tram_stop","ref:IFOPT":"de:03241:623:1","tram":"yes","wheelchair":"no","wheelchair:description":"Tiefbahnsteig"}},{"type":"node","id":105475161,"lat":52.3704425,"lon":9.7232041,"tags":{"name":"Humboldtstraße","network":"Großraum-Verkehr Hannover","network:short":"GVH","network:wikidata":"Q1549516","operator":"ÜSTRA","operator:short":"ÜSTRA","operator:wikidata":"Q265625","public_transport":"stop_position","railway":"tram_stop","ref:IFOPT":"de:03241:431:1:434","tram":"yes","wheelchair":"yes","wheelchair:description":"Hochbahnsteig"}},{"type":"node","id":130553985,"lat":52.4028066,"lon":9.7909397,"tags":{"name":"Klingerstraße","network":"Großraum-Verkehr Hannover","network:short":"GVH","network:wikidata":"Q1549516","operator":"ÜSTRA","operator:short":"ÜSTRA","operator:wikidata":"Q265625","public_transport":"stop_position","railway":"tram_stop","ref:IFOPT":"de:03241:2161:3:2162","tram":"yes","wheelchair":"yes"}},{"type":"node","id":130554048,"lat":52.408871,"lon":9.8083561,"tags":{"name":"In den Sieben Stücken","network":"Großraum-Verkehr Hannover","network:short":"GVH","network:wikidata":"Q1549516","operator":"ÜSTRA","operator:short":"ÜSTRA","operator:wikidata":"Q265625","public_transport":"stop_position","railway":"tram_stop","ref:IFOPT":"de:03241:2231:1:2231","tram":"yes","wheelchair":"yes"}},{"type":"node","id":130554129,"lat":52.4139918,"lon":9.8244318,"tags":{"name":"Stadtfriedhof Lahe","network":"Großraum-Verkehr Hannover","network:short":"GVH","network:wikidata":"Q1549516","operator":"ÜSTRA","operator:short":"ÜSTRA","operator:wikidata":"Q265625","public_transport":"stop_position","railway":"tram_stop","ref:IFOPT":"de:03241:2321:1:2321","tram":"yes","wheelchair":"yes"}},{"type":"node","id":130554148,"lat":52.4059101,"lon":9.7994387,"tags":{"name":"Noltemeyerbrücke","network":"Großraum-Verkehr Hannover","network:short":"GVH","network:wikidata":"Q1549516","operator":"ÜSTRA","operator:short":"ÜSTRA","operator:wikidata":"Q265625","public_transport":"stop_position","railway":"tram_stop","ref:IFOPT":"de:03241:2171:5:2172","tram":"yes","wheelchair":"limited"}},{"type":"node","id":130554165,"lat":52.4003189,"lon":9.7819852,"tags":{"name":"Spannhagengarten","network":"Großraum-Verkehr Hannover","network:short":"GVH","network:wikidata":"Q1549516","operator":"ÜSTRA","operator:short":"ÜSTRA","operator:wikidata":"Q265625","public_transport":"stop_position","railway":"tram_stop","ref:IFOPT":"de:03241:2151:4:2152","tram":"yes","wheelchair":"yes"}},{"type":"node","id":130554168,"lat":52.4092084,"lon":9.8167563,"tags":{"name":"Paracelsusweg","network":"Großraum-Verkehr Hannover","network:short":"GVH","network:wikidata":"Q1549516","old_name":"Lahe","operator":"ÜSTRA","operator:short":"ÜSTRA","operator:wikidata":"Q265625","public_transport":"stop_position","railway":"tram_stop","ref:IFOPT":"de:03241:2301:1:2301","tram":"yes","wheelchair":"yes"}},{"type":"node","id":131992780,"lat":52.3977174,"lon":9.7723344,"tags":{"name":"Pelikanstraße","network":"Großraum-Verkehr Hannover","network:short":"GVH","network:wikidata":"Q1549516","operator":"ÜSTRA","operator:short":"ÜSTRA","operator:wikidata":"Q265625","public_transport":"stop_position","railway":"tram_stop","ref:IFOPT":"de:03241:2141:1:2142","tram":"yes","wheelchair":"yes"}},{"type":"node","id":131992798,"lat":52.3954323,"lon":9.7638029,"tags":{"name":"Vier Grenzen","network":"Großraum-Verkehr Hannover","network:short":"GVH","network:wikidata":"Q1549516","operator":"ÜSTRA","operator:short":"ÜSTRA","operator:wikidata":"Q265625","public_transport":"stop_position","railway":"tram_stop","ref:IFOPT":"de:03241:2131:7:2132","route_ref":"3,7,9","surveillance":"outdoor","tram":"yes","wheelchair":"yes"}},{"type":"node","id":131999658,"lat":52.392787,"lon":9.7580877,"tags":{"name":"Lortzingstraße","network":"Großraum-Verkehr Hannover","network:short":"GVH","network:wikidata":"Q1549516","operator":"ÜSTRA","operator:short":"ÜSTRA","operator:wikidata":"Q265625","public_transport":"stop_position","railway":"tram_stop","ref:IFOPT":"de:03241:2121:6:2122","tram":"yes","wheelchair":"yes"}},{"type":"node","id":132026193,"lat":52.3891689,"lon":9.7514011,"tags":{"name":"Lister Platz","network":"Großraum-Verkehr Hannover","operator":"infra Infrastrukturgesellschaft Region Hannover","operator:wikidata":"Q1122564","public_transport":"stop_position","railway":"stop","ref:IFOPT":"de:03241:2021:2:2022","subway":"yes","surveillance":"indoor","wheelchair":"yes"}},{"type":"node","id":132121375,"lat":52.4151955,"lon":9.7960672,"tags":{"name":"Bothfeld","network":"Großraum-Verkehr Hannover","network:short":"GVH","network:wikidata":"Q1549516","operator":"Überlandwerke und Straßenbahnen Hannover","operator:short":"ÜSTRA","operator:wikidata":"Q265625","public_transport":"stop_position","railway":"tram_stop","ref:IFOPT":"de:03241:2191:1:2191","tactile_paving":"no","tram":"yes","wheelchair":"limited"}},{"type":"node","id":132679970,"lat":52.3839352,"lon":9.7464285,"tags":{"name":"Sedanstraße/Lister Meile","network":"Großraum-Verkehr Hannover","operator":"infra Infrastrukturgesellschaft Region Hannover","operator:wikidata":"Q1122564","public_transport":"stop_position","ref:IFOPT":"de:03241:2001:3:2002","subway":"yes","surveillance":"indoor","tactile_paving":"yes","wheelchair":"yes"}},{"type":"node","id":132693642,"lat":52.3708584,"lon":9.7362366,"tags":{"level":"-2","name":"Markthalle/Landtag (U)","network":"Großraum-Verkehr Hannover","network:short":"GVH","operator":"infra Infrastrukturgesellschaft Region Hannover","operator:wikidata":"Q1122564","public_transport":"stop_position","railway":"stop","ref:IFOPT":"de:03241:91:1:91","subway":"yes","surveillance":"indoor","tactile_paving":"yes","wheelchair":"yes"}},{"type":"node","id":132699818,"lat":52.3680475,"lon":9.7296964,"tags":{"name":"Waterloo","network":"Großraum-Verkehr Hannover","operator":"infra Infrastrukturgesellschaft Region Hannover","operator:wikidata":"Q1122564","public_transport":"stop_position","railway":"stop","ref:IFOPT":"de:03241:451:2:452","subway":"yes","surveillance":"indoor","tactile_paving":"yes","wheelchair":"yes"}},{"type":"node","id":135600425,"lat":52.3694348,"lon":9.7717911,"tags":{"name":"Freundallee","network":"Großraum-Verkehr Hannover","network:short":"GVH","network:wikidata":"Q1549516","operator":"ÜSTRA","operator:short":"ÜSTRA","operator:wikidata":"Q265625","public_transport":"stop_position","railway":"tram_stop","ref:IFOPT":"de:03241:1078:1:1079","tram":"yes","wheelchair":"yes"}},{"type":"node","id":137703451,"lat":52.3811781,"lon":9.7667066,"tags":{"name":"Zoo","network":"Großraum-Verkehr Hannover","network:short":"GVH","network:wikidata":"Q1549516","operator":"ÜSTRA","operator:short":"ÜSTRA","operator:wikidata":"Q265625","public_transport":"stop_position","railway":"tram_stop","ref:IFOPT":"de:03241:2821:1:2821","ref_name":"Zoo, Hannover","tram":"yes","wheelchair":"yes","wheelchair:description":"Hochbahnsteig"}},{"type":"node","id":137951752,"lat":52.3878531,"lon":9.734183,"tags":{"name":"Werderstraße","network":"Großraum-Verkehr Hannover","operator":"infra Infrastrukturgesellschaft Region Hannover","operator:wikidata":"Q1122564","public_transport":"stop_position","ref:IFOPT":"de:03241:331:5:332","subway":"yes","surveillance":"indoor","tactile_paving":"no","wheelchair":"yes"}},{"type":"node","id":140379513,"lat":52.3773201,"lon":9.7691802,"tags":{"name":"Hannover Congress Centrum","network":"Großraum-Verkehr Hannover","network:short":"GVH","network:wikidata":"Q1549516","operator":"ÜSTRA","operator:short":"ÜSTRA","operator:wikidata":"Q265625","public_transport":"stop_position","railway":"tram_stop","ref:IFOPT":"de:03241:2830:1:2832","ref_name":"Congress Centrum, Hannover","shelter":"yes","tactile_paving":"no","tram":"yes","wheelchair":"yes","wikidata":"Q63351180"}},{"type":"node","id":140398222,"lat":52.4310943,"lon":9.8462963,"tags":{"name":"Altwarmbüchen / Zentrum","network":"Großraum-Verkehr Hannover","network:short":"GVH","network:wikidata":"Q1549516","operator":"Überlandwerke und Straßenbahnen Hannover","operator:short":"ÜSTRA","operator:wikidata":"Q265625","public_transport":"stop_position","railway":"tram_stop","ref:IFOPT":"de:03241:6637:1:6637","short_name":"Awb./Zentrum","tram":"yes","wheelchair":"yes"}},{"type":"node","id":140398246,"lat":52.4377783,"lon":9.8474104,"tags":{"name":"Altwarmbüchen","network":"Großraum-Verkehr Hannover","network:short":"GVH","network:wikidata":"Q1549516","operator":"ÜSTRA","operator:short":"ÜSTRA","operator:wikidata":"Q265625","public_transport":"stop_position","railway":"tram_stop","ref:IFOPT":"de:03241:6641:1:6641","tram":"yes","wheelchair":"yes"}},{"type":"node","id":140400651,"lat":52.4264539,"lon":9.8462978,"tags":{"name":"Altwarmbüchen/Ernst-Grote-Straße","network":"Großraum-Verkehr Hannover","network:short":"GVH","network:wikidata":"Q1549516","operator":"ÜSTRA","operator:short":"ÜSTRA","operator:wikidata":"Q265625","public_transport":"stop_position","railway":"tram_stop","ref:IFOPT":"de:03241:6689:1:6689","short_name":"Awb./Ernst-Grote-Straße","tram":"yes","wheelchair":"yes"}},{"type":"node","id":142400255,"lat":52.4170614,"lon":9.8297911,"tags":{"name":"Oldenburger Allee","network":"Großraum-Verkehr Hannover","network:short":"GVH","network:wikidata":"Q1549516","operator":"ÜSTRA","operator:short":"ÜSTRA","operator:wikidata":"Q265625","public_transport":"stop_position","railway":"tram_stop","ref:IFOPT":"de:03241:2325:1:2325","tram":"yes","wheelchair":"no"}},{"type":"node","id":142455005,"lat":52.4170479,"lon":9.7726454,"tags":{"name":"Bahnstrift","network":"Großraum-Verkehr Hannover","network:short":"GVH","network:wikidata":"Q1549516","operator":"Überlandwerke und Straßenbahnen Hannover","operator:short":"ÜSTRA","operator:wikidata":"Q265625","public_transport":"stop_position","railway":"tram_stop","ref:IFOPT":"de:03241:2631:5:2632","tram":"yes","wheelchair":"yes"}},{"type":"node","id":142455032,"lat":52.4184978,"lon":9.764848,"tags":{"name":"Tempelhofweg","network":"Großraum-Verkehr Hannover","network:short":"GVH","network:wikidata":"Q1549516","operator":"Überlandwerke und Straßenbahnen Hannover","operator:short":"ÜSTRA","operator:wikidata":"Q265625","public_transport":"stop_position","railway":"tram_stop","ref:IFOPT":"de:03241:2621:6:2622","tram":"yes","wheelchair":"yes"}},{"type":"node","id":142455093,"lat":52.4111048,"lon":9.7432475,"tags":{"name":"Reiterstadion","network":"Großraum-Verkehr Hannover","network:short":"GVH","network:wikidata":"Q1549516","operator":"Überlandwerke und Straßenbahnen Hannover","operator:short":"ÜSTRA","operator:wikidata":"Q265625","public_transport":"stop_position","railway":"tram_stop","ref:IFOPT":"de:03241:2581:5:2582","survey:date":"2023-09-09","tram":"yes","wheelchair":"yes","wheelchair:description":"Hochbahnsteig"}},{"type":"node","id":243056167,"lat":52.3644713,"lon":9.7730571,"tags":{"name":"Kerstingstraße","network":"Großraum-Verkehr Hannover","network:short":"GVH","network:wikidata":"Q1549516","operator":"ÜSTRA","operator:short":"ÜSTRA","operator:wikidata":"Q265625","public_transport":"stop_position","railway":"tram_stop","ref:IFOPT":"de:03241:1091:1:1093","tram":"yes","wheelchair":"yes"}},{"type":"node","id":243056169,"lat":52.3626206,"lon":9.7774876,"tags":{"name":"Kinderkrankenhaus auf der Bult","network":"Großraum-Verkehr Hannover","network:short":"GVH","network:wikidata":"Q1549516","operator":"ÜSTRA","operator:short":"ÜSTRA","operator:wikidata":"Q265625","public_transport":"stop_position","railway":"tram_stop","ref:IFOPT":"de:03241:1761:1:1763","tram":"yes","wheelchair":"yes"}},{"type":"node","id":243056543,"lat":52.3568231,"lon":9.792595,"tags":{"name":"Zuschlagstraße","network":"Großraum-Verkehr Hannover","network:short":"GVH","network:wikidata":"Q1549516","operator":"ÜSTRA","operator:short":"ÜSTRA","operator:wikidata":"Q265625","public_transport":"stop_position","railway":"tram_stop","ref:IFOPT":"de:03241:3800:5:1772","tram":"yes","wheelchair":"yes"}},{"type":"node","id":243058062,"lat":52.3541282,"lon":9.7967896,"tags":{"name":"Bünteweg/Tierärztliche Hochschule","network":"Großraum-Verkehr Hannover","network:short":"GVH","network:wikidata":"Q1549516","operator":"ÜSTRA","operator:short":"ÜSTRA","operator:wikidata":"Q265625","public_transport":"stop_position","railway":"tram_stop","ref:IFOPT":"de:03241:3741:5:1776","tram":"yes","wheelchair":"yes"}},{"type":"node","id":243058065,"lat":52.3506022,"lon":9.8048019,"tags":{"name":"August-Madsack-Straße","network":"Großraum-Verkehr Hannover","network:short":"GVH","network:wikidata":"Q1549516","operator":"ÜSTRA","operator:short":"ÜSTRA","operator:wikidata":"Q265625","public_transport":"stop_position","railway":"tram_stop","ref:IFOPT":"de:03241:1779:4:1780","tram":"yes","wheelchair":"yes"}},{"type":"node","id":247080322,"lat":52.4145033,"lon":9.7024408,"tags":{"name":"Beneckeallee","network":"Großraum-Verkehr Hannover","network:short":"GVH","network:wikidata":"Q1549516","operator":"Überlandwerke und Straßenbahnen Hannover","operator:short":"ÜSTRA","operator:wikidata":"Q265625","public_transport":"stop_position","railway":"tram_stop","ref:IFOPT":"de:03241:4061:4:4062","tram":"yes","wheelchair":"yes"}},{"type":"node","id":247080937,"lat":52.4197613,"lon":9.694165,"tags":{"name":"Mecklenheidestraße","network":"Großraum-Verkehr Hannover","network:short":"GVH","network:wikidata":"Q1549516","operator":"Überlandwerke und Straßenbahnen Hannover","operator:short":"ÜSTRA","operator:wikidata":"Q265625","public_transport":"stop_position","railway":"tram_stop","ref:IFOPT":"de:03241:4091:5:4092","tram":"yes","wheelchair":"yes"}},{"type":"node","id":247081101,"lat":52.4223987,"lon":9.6900553,"tags":{"name":"Nordhafen","network":"Großraum-Verkehr Hannover","network:short":"GVH","network:wikidata":"Q1549516","operator":"ÜSTRA","operator:short":"ÜSTRA","operator:wikidata":"Q265625","public_transport":"stop_position","railway":"tram_stop","ref:IFOPT":"de:03241:4101:7:4102","tram":"yes","wheelchair":"yes"}},{"type":"node","id":248004234,"lat":52.419669,"lon":9.7586298,"tags":{"name":"Zehlendorfweg","network":"Großraum-Verkehr Hannover","network:short":"GVH","network:wikidata":"Q1549516","operator":"Überlandwerke und Straßenbahnen Hannover","operator:short":"ÜSTRA","operator:wikidata":"Q265625","public_transport":"stop_position","railway":"tram_stop","ref:IFOPT":"de:03241:2611:4:2612","tram":"yes","wheelchair":"yes"}},{"type":"node","id":251113071,"lat":52.3364345,"lon":9.6905377,"tags":{"name":"Tresckowstraße","network":"Großraum-Verkehr Hannover","network:short":"GVH","network:wikidata":"Q1549516","operator":"Überlandwerke und Straßenbahnen Hannover","operator:short":"ÜSTRA","operator:wikidata":"Q265625","public_transport":"stop_position","railway":"tram_stop","ref:IFOPT":"de:03241:5177:1:5177","tram":"yes","wheelchair":"yes"}},{"type":"node","id":251113082,"lat":52.340865,"lon":9.6929822,"tags":{"name":"Mühlenberger Markt","network":"Großraum-Verkehr Hannover","old_name":"Mühlenberg","operator":"infra Infrastrukturgesellschaft Region Hannover","operator:wikidata":"Q1122564","public_transport":"stop_position","railway":"stop","ref:IFOPT":"de:03241:1001:7:1002","subway":"yes","tactile_paving":"yes","wheelchair":"yes"}},{"type":"node","id":251113084,"lat":52.3419922,"lon":9.7183932,"tags":{"name":"Wallensteinstraße","network":"Großraum-Verkehr Hannover","network:short":"GVH","network:wikidata":"Q1549516","operator":"Überlandwerke und Straßenbahnen Hannover","operator:short":"ÜSTRA","operator:wikidata":"Q265625","public_transport":"stop_position","railway":"tram_stop","ref:IFOPT":"de:03241:971:5:972","tactile_paving":"yes","tram":"yes","wheelchair":"yes"}},{"type":"node","id":251113101,"lat":52.4149165,"lon":9.7520291,"tags":{"name":"Papenwinkel","network":"Großraum-Verkehr Hannover","network:short":"GVH","network:wikidata":"Q1549516","operator":"Überlandwerke und Straßenbahnen Hannover","operator:short":"ÜSTRA","operator:wikidata":"Q265625","public_transport":"stop_position","railway":"tram_stop","ref:IFOPT":"de:03241:2601:3:2602","tactile_paving":"yes","tram":"yes","wheelchair":"yes","wheelchair:description":"Hochbahnsteig"}},{"type":"node","id":252850676,"lat":52.3770793,"lon":9.6897188,"tags":{"name":"Harenberger Straße","network":"Großraum-Verkehr Hannover","network:short":"GVH","network:wikidata":"Q1549516","operator":"Überlandwerke und Straßenbahnen Hannover","operator:short":"ÜSTRA","operator:wikidata":"Q265625","public_transport":"stop_position","railway":"tram_stop","ref:IFOPT":"de:03241:521","shelter":"yes","tactile_paving":"no","tram":"yes","wheelchair":"no","wheelchair:description":"Tiefbahnsteig"}},{"type":"node","id":252973791,"lat":52.3609113,"lon":9.6928463,"tags":{"name":"Bauweg","network":"Großraum-Verkehr Hannover","network:short":"GVH","network:wikidata":"Q1549516","operator":"Überlandwerke und Straßenbahnen Hannover","operator:short":"ÜSTRA","operator:wikidata":"Q265625","public_transport":"stop_position","railway":"tram_stop","ref:IFOPT":"de:03241:651:4:652","tram":"yes","wheelchair":"yes","wheelchair:description":"Hochbahnsteig"}},{"type":"node","id":252973802,"lat":52.360181,"lon":9.6860499,"tags":{"name":"Körtingsdorfer Weg","network":"Großraum-Verkehr Hannover","network:short":"GVH","network:wikidata":"Q1549516","operator":"Überlandwerke und Straßenbahnen Hannover","operator:short":"ÜSTRA","operator:wikidata":"Q265625","public_transport":"stop_position","railway":"tram_stop","ref:IFOPT":"de:03241:661:4:662","tram":"yes","wheelchair":"yes","wheelchair:description":"Hochbahnsteig"}},{"type":"node","id":253336329,"lat":52.3695409,"lon":9.8080071,"tags":{"name":"Annastift","network":"Großraum-Verkehr Hannover","network:short":"GVH","network:wikidata":"Q1549516","operator":"ÜSTRA","operator:short":"ÜSTRA","operator:wikidata":"Q265625","public_transport":"stop_position","railway":"tram_stop","ref:IFOPT":"de:03241:3023:1:3023","tactile_paving":"yes","tram":"yes","wheelchair":"yes"}},{"type":"node","id":253338049,"lat":52.3656013,"lon":9.8131973,"tags":{"name":"Bleekstraße","network":"Großraum-Verkehr Hannover","network:short":"GVH","network:wikidata":"Q1549516","operator":"ÜSTRA","operator:short":"ÜSTRA","operator:wikidata":"Q265625","public_transport":"stop_position","railway":"tram_stop","ref:IFOPT":"de:03241:3033:1","tram":"yes","wheelchair":"yes"}},{"type":"node","id":253339004,"lat":52.3605508,"lon":9.8443911,"tags":{"name":"Ostfeldstraße","network":"Großraum-Verkehr Hannover","network:short":"GVH","network:wikidata":"Q1549516","operator":"ÜSTRA","operator:short":"ÜSTRA","operator:wikidata":"Q265625","public_transport":"stop_position","railway":"tram_stop","ref:IFOPT":"de:03241:3091:1:3092","ref_name":"Hannover, Ostfeldstr.","tram":"yes","wheelchair":"yes"}},{"type":"node","id":253339391,"lat":52.3594633,"lon":9.8515476,"tags":{"designation":"Linie 5","name":"Königsberger Ring","network":"Großraum-Verkehr Hannover","network:short":"GVH","network:wikidata":"Q1549516","operator":"ÜSTRA","operator:short":"ÜSTRA","operator:wikidata":"Q265625","public_transport":"stop_position","railway":"tram_stop","ref:IFOPT":"de:03241:3471:1:3474","tactile_paving":"yes","tram":"yes","wheelchair":"yes"}},{"type":"node","id":253348397,"lat":52.3477625,"lon":9.8121045,"tags":{"name":"Seelhorster Allee","network":"Großraum-Verkehr Hannover","network:short":"GVH","network:wikidata":"Q1549516","operator":"ÜSTRA","operator:short":"ÜSTRA","operator:wikidata":"Q265625","public_transport":"stop_position","railway":"tram_stop","ref:IFOPT":"de:03241:1783:4:1784","tram":"yes","wheelchair":"yes"}},{"type":"node","id":253348400,"lat":52.3456238,"lon":9.8201855,"tags":{"name":"Emslandstraße","network":"Großraum-Verkehr Hannover","network:short":"GVH","network:wikidata":"Q1549516","operator":"ÜSTRA","operator:short":"ÜSTRA","operator:wikidata":"Q265625","public_transport":"stop_position","railway":"tram_stop","ref:IFOPT":"de:03241:1787:5:1788","tram":"yes","wheelchair":"yes"}},{"type":"node","id":253348552,"lat":52.3445398,"lon":9.827915,"tags":{"image":"http://commons.wikimedia.org/wiki/Category:U-Bahn-Station_Brabeckstra%C3%9Fe","name":"Brabeckstraße","network":"GVH","operator":"infra Infrastrukturgesellschaft Region Hannover","operator:wikidata":"Q1122564","public_transport":"stop_position","railway":"stop","ref:IFOPT":"de:03241:1791:1:1791","subway":"yes","wheelchair":"yes"}},{"type":"node","id":253348634,"lat":52.3421724,"lon":9.8361974,"tags":{"name":"Feldbuschwende","network":"Großraum-Verkehr Hannover","network:short":"GVH","network:wikidata":"Q1549516","operator":"ÜSTRA","operator:short":"ÜSTRA","operator:wikidata":"Q265625","public_transport":"stop_position","railway":"tram_stop","ref:IFOPT":"de:03241:1795:1:1795","tram":"yes","wheelchair":"yes"}},{"type":"node","id":253349368,"lat":52.3387008,"lon":9.8334018,"tags":{"name":"Kronsberg","network":"Großraum-Verkehr Hannover","network:short":"GVH","network:wikidata":"Q1549516","operator":"ÜSTRA","operator:short":"ÜSTRA","operator:wikidata":"Q265625","public_transport":"stop_position","railway":"tram_stop","ref:IFOPT":"de:03241:3818:1:1799","tram":"yes","wheelchair":"yes"}},{"type":"node","id":253349369,"lat":52.3342611,"lon":9.829959,"tags":{"name":"Krügerskamp","network":"Großraum-Verkehr Hannover","network:short":"GVH","network:wikidata":"Q1549516","operator":"ÜSTRA","operator:short":"ÜSTRA","operator:wikidata":"Q265625","public_transport":"stop_position","railway":"tram_stop","ref:IFOPT":"de:03241:1803:1:1803","tram":"yes","wheelchair":"yes"}},{"type":"node","id":253349373,"lat":52.3269091,"lon":9.8246889,"tags":{"name":"Stockholmer Allee","network":"Großraum-Verkehr Hannover","network:short":"GVH","network:wikidata":"Q1549516","operator":"Überlandwerke und Straßenbahnen Hannover","operator:short":"ÜSTRA","operator:wikidata":"Q265625","public_transport":"stop_position","railway":"tram_stop","ref:IFOPT":"de:03241:1807:1:1807","tram":"yes","wheelchair":"yes","wikidata":"Q63351210"}},{"type":"node","id":253349377,"lat":52.3220622,"lon":9.8218079,"tags":{"name":"Messe/Ost (EXPO-Plaza)","network":"Großraum-Verkehr Hannover","network:short":"GVH","network:wikidata":"Q1549516","operator":"Überlandwerke und Straßenbahnen Hannover","operator:short":"ÜSTRA","operator:wikidata":"Q265625","public_transport":"stop_position","railway":"tram_stop","ref:IFOPT":"de:03241:1811:1:1811","tram":"yes","wheelchair":"yes"}},{"type":"node","id":255320650,"lat":52.3420271,"lon":9.7100686,"tags":{"name":"Bartold-Knaust-Straße","network":"Großraum-Verkehr Hannover","network:short":"GVH","network:wikidata":"Q1549516","operator":"ÜSTRA","operator:short":"ÜSTRA","operator:wikidata":"Q265625","public_transport":"stop_position","railway":"tram_stop","ref:IFOPT":"de:03241:981:3:982","tram":"yes","wheelchair":"yes"}},{"type":"node","id":255541134,"lat":52.3469798,"lon":9.6695979,"tags":{"name":"Hermann-Ehlers-Allee","network":"Großraum-Verkehr Hannover","network:short":"GVH","network:wikidata":"Q1549516","operator":"Überlandwerke und Straßenbahnen Hannover","operator:short":"ÜSTRA","operator:wikidata":"Q265625","public_transport":"stop_position","railway":"tram_stop","ref:IFOPT":"de:03241:711:1:711","tram":"yes","wheelchair":"no","wheelchair:description":"Tiefbahnsteig"}},{"type":"node","id":256838758,"lat":52.3522946,"lon":9.7223481,"tags":{"name":"Bahnhof Linden/Fischerhof","network":"Großraum-Verkehr Hannover","network:short":"GVH","network:wikidata":"Q1549516","operator":"Überlandwerke und Straßenbahnen Hannover","operator:short":"ÜSTRA","operator:wikidata":"Q265625","public_transport":"stop_position","railway":"tram_stop","ref:IFOPT":"de:03241:841:2:844","tactile_paving":"yes","tram":"yes","wheelchair":"yes"}},{"type":"node","id":256872003,"lat":52.3665511,"lon":9.7143055,"tags":{"name":"Lindener Marktplatz","network":"Großraum-Verkehr Hannover","network:short":"GVH","network:wikidata":"Q1549516","operator":"Überlandwerke und Straßenbahnen Hannover","operator:short":"ÜSTRA","operator:wikidata":"Q265625","public_transport":"stop_position","railway":"tram_stop","ref:IFOPT":"de:03241:571:4:572","tactile_paving":"no","tram":"yes","wheelchair":"no"}},{"type":"node","id":258646609,"lat":52.3277889,"lon":9.8045,"tags":{"name":"Messe / Nord","network":"Großraum-Verkehr Hannover","network:short":"GVH","network:wikidata":"Q1549516","operator":"Überlandwerke und Straßenbahnen Hannover","operator:short":"ÜSTRA","operator:wikidata":"Q265625","public_transport":"stop_position","railway":"tram_stop","ref:IFOPT":"de:03241:1421:1:1421","tram":"yes","wheelchair":"yes","wikidata":"Q63345434"}},{"type":"node","id":258646697,"lat":52.3351857,"lon":9.7915229,"tags":{"name":"Stadtfriedhof Seelhorst","network":"Großraum-Verkehr Hannover","network:short":"GVH","network:wikidata":"Q1549516","operator":"Überlandwerke und Straßenbahnen Hannover","operator:short":"ÜSTRA","operator:wikidata":"Q265625","public_transport":"stop_position","railway":"tram_stop","ref:IFOPT":"de:03241:1401:5:1402","tram":"yes","wheelchair":"limited","wikidata":"Q63345420"}},{"type":"node","id":258646701,"lat":52.3348746,"lon":9.7974362,"tags":{"name":"Am Mittelfelde","network":"Großraum-Verkehr Hannover","network:short":"GVH","network:wikidata":"Q1549516","operator":"Überlandwerke und Straßenbahnen Hannover","operator:short":"ÜSTRA","operator:wikidata":"Q265625","public_transport":"stop_position","railway":"tram_stop","ref:IFOPT":"de:03241:1411:6:1412","tram":"yes","wheelchair":"limited","wikidata":"Q63345433"}},{"type":"node","id":259032026,"lat":52.3111055,"lon":9.7965918,"tags":{"name":"Laatzen/aquaLaatzium","network":"Großraum-Verkehr Hannover","network:short":"GVH","network:wikidata":"Q1549516","operator":"Überlandwerke und Straßenbahnen Hannover","operator:short":"ÜSTRA","operator:wikidata":"Q265625","public_transport":"stop_position","railway":"tram_stop","ref:IFOPT":"de:03241:1501:1:1502","tram":"yes","wheelchair":"yes"}},{"type":"node","id":259032028,"lat":52.3069514,"lon":9.7998654,"tags":{"name":"Laatzen/Krankenhaus","network":"Großraum-Verkehr Hannover","network:short":"GVH","network:wikidata":"Q1549516","network:wikipedia":"de:Großraum-Verkehr Hannover","operator":"Überlandwerke und Straßenbahnen Hannover","operator:short":"ÜSTRA","operator:wikidata":"Q265625","operator:wikipedia":"de:Üstra Hannoversche Verkehrsbetriebe","public_transport":"stop_position","railway":"tram_stop","ref:IFOPT":"de:03241:1511:1:1512","tram":"yes","wheelchair":"yes"}},{"type":"node","id":259032300,"lat":52.2997337,"lon":9.8081683,"tags":{"name":"Laatzen/Ginsterweg","network":"Großraum-Verkehr Hannover","network:short":"GVH","network:wikidata":"Q1549516","operator":"Überlandwerke und Straßenbahnen Hannover","operator:short":"ÜSTRA","operator:wikidata":"Q265625","public_transport":"stop_position","railway":"tram_stop","ref:IFOPT":"de:03241:1531:1:1532","tram":"yes","wheelchair":"yes"}},{"type":"node","id":259585190,"lat":52.3028022,"lon":9.8160765,"tags":{"name":"Laatzen","network":"Großraum-Verkehr Hannover","network:short":"GVH","network:wikidata":"Q1549516","network:wikipedia":"de:Großraum-Verkehr Hannover","operator":"Überlandwerke und Straßenbahnen Hannover","operator:short":"ÜSTRA","operator:wikidata":"Q265625","public_transport":"stop_position","railway":"tram_stop","ref:IFOPT":"de:03241:1611:4:1612","tram":"yes","wheelchair":"yes"}},{"type":"node","id":259585221,"lat":52.2975221,"lon":9.8176357,"tags":{"name":"Laatzen/Rethener Winkel","network":"Großraum-Verkehr Hannover","network:short":"GVH","network:wikidata":"Q1549516","operator":"Überlandwerke und Straßenbahnen Hannover","operator:short":"ÜSTRA","operator:wikidata":"Q265625","public_transport":"stop_position","railway":"tram_stop","ref:IFOPT":"de:03241:1621:1:1621","tram":"yes","wheelchair":"no"}},{"type":"node","id":287015667,"lat":52.416208,"lon":9.6336948,"tags":{"name":"Wissenschaftspark Marienwerder","network":"Großraum-Verkehr Hannover","network:short":"GVH","network:wikidata":"Q1549516","operator":"ÜSTRA","operator:wikidata":"Q265625","public_transport":"stop_position","railway":"tram_stop","ref:IFOPT":"de:03241:4399:6:4400","tram":"yes","wheelchair":"yes"}},{"type":"node","id":297578913,"lat":52.4140365,"lon":9.6249073,"tags":{"name":"Pascalstraße","network":"Großraum-Verkehr Hannover","network:short":"GVH","network:wikidata":"Q1549516","operator":"Überlandwerke und Straßenbahnen Hannover","operator:short":"ÜSTRA","operator:wikidata":"Q265625","public_transport":"stop_position","railway":"tram_stop","ref:IFOPT":"de:03241:4403:4:4404","tram":"yes","wheelchair":"yes"}},{"type":"node","id":297600769,"lat":52.4146688,"lon":9.6672537,"tags":{"name":"Stöcken","network":"Großraum-Verkehr Hannover","network:short":"GVH","network:wikidata":"Q1549516","operator":"Überlandwerke und Straßenbahnen Hannover","operator:short":"ÜSTRA","operator:wikidata":"Q265625","public_transport":"stop_position","railway":"tram_stop","ref:IFOPT":"de:03241:4380:1:4381","tram":"yes","wheelchair":"yes"}},{"type":"node","id":334736164,"lat":52.4128096,"lon":9.7981378,"tags":{"name":"Bothfelder Kirchweg","network":"Großraum-Verkehr Hannover","network:short":"GVH","network:wikidata":"Q1549516","old_name":"Bothfeld/Kirche","operator":"ÜSTRA","operator:short":"ÜSTRA","operator:wikidata":"Q265625","public_transport":"stop_position","railway":"tram_stop","ref:IFOPT":"de:03241:2181:1","tactile_paving":"no","tram":"yes","wheelchair":"no"}},{"type":"node","id":362655634,"lat":52.3671588,"lon":9.7092591,"tags":{"bench":"yes","bin":"yes","bus":"yes","covered":"no","highway":"bus_stop","lit":"yes","name":"Nieschlagstraße","network":"Großraum-Verkehr Hannover","network:short":"GVH","network:wikidata":"Q1549516","network:wikipedia":"de:Großraum-Verkehr Hannover","operator":"ÜSTRA Hannoversche Verkehrsbetriebe AG","public_transport":"platform","ref:IFOPT":"de:03241:623:2:621","shelter":"yes","tactile_paving":"no","wheelchair":"no","wheelchair:description":"Tiefbahnsteig","wikidata":"Q63350536"}},{"type":"node","id":362655812,"lat":52.3672474,"lon":9.7091958,"tags":{"bench":"yes","bin":"yes","bus":"yes","highway":"bus_stop","lit":"yes","name":"Nieschlagstraße","network":"Großraum-Verkehr Hannover","network:short":"GVH","network:wikidata":"Q1549516","network:wikipedia":"de:Großraum-Verkehr Hannover","operator":"ÜSTRA Hannoversche Verkehrsbetriebe AG","public_transport":"platform","ref:IFOPT":"de:03241:623:2:622","shelter":"yes","tactile_paving":"no","wheelchair":"no","wheelchair:description":"Tiefbahnsteig","wikidata":"Q63350536"}},{"type":"node","id":370139534,"lat":52.40994,"lon":9.6525828,"tags":{"name":"Lauckerthof","network":"Großraum-Verkehr Hannover","network:short":"GVH","network:wikidata":"Q1549516","operator":"Überlandwerke und Straßenbahnen Hannover","operator:short":"ÜSTRA","operator:wikidata":"Q265625","public_transport":"stop_position","railway":"tram_stop","ref:IFOPT":"de:03241:4393:3:4394","tram":"yes","wheelchair":"yes"}},{"type":"node","id":370790720,"lat":52.4180447,"lon":9.6151038,"tags":{"name":"Schönebecker Allee","network":"Großraum-Verkehr Hannover","network:short":"GVH","network:wikidata":"Q1549516","operator":"Überlandwerke und Straßenbahnen Hannover","operator:short":"ÜSTRA","operator:wikidata":"Q265625","public_transport":"stop_position","railway":"tram_stop","ref:IFOPT":"de:03241:4773:4:4774","tram":"yes","wheelchair":"yes"}},{"type":"node","id":370790721,"lat":52.4167143,"lon":9.6032947,"tags":{"name":"Auf der Horst/Marshof","network":"Großraum-Verkehr Hannover","network:short":"GVH","network:wikidata":"Q1549516","network:wikipedia":"de:Großraum-Verkehr Hannover","operator":"Überlandwerke und Straßenbahnen Hannover","operator:short":"ÜSTRA","operator:wikidata":"Q265625","operator:wikipedia":"de:Üstra Hannoversche Verkehrsbetriebe","public_transport":"stop_position","railway":"tram_stop","ref:IFOPT":"de:03241:4777:4:4778","tram":"yes","wheelchair":"yes"}},{"type":"node","id":370790722,"lat":52.4175629,"lon":9.5966316,"tags":{"name":"Garbsen","network":"Großraum-Verkehr Hannover","network:short":"GVH","network:wikidata":"Q1549516","operator":"Überlandwerke und Straßenbahnen Hannover","operator:short":"ÜSTRA","operator:wikidata":"Q265625","public_transport":"stop_position","railway":"tram_stop","ref:IFOPT":"de:03241:4779:5:4780","tram":"yes","wheelchair":"yes"}},{"type":"node","id":372970386,"lat":52.3928036,"lon":9.848419,"tags":{"name":"Am Forstkamp","network":"Großraum-Verkehr Hannover","network:short":"GVH","network:wikidata":"Q1549516","operator":"ÜSTRA","operator:short":"ÜSTRA","operator:wikidata":"Q265625","public_transport":"stop_position","railway":"tram_stop","ref:IFOPT":"de:03241:2431:1:2431","start_date":"2014-12-14","tram":"yes","wheelchair":"yes"}},{"type":"node","id":373362282,"lat":52.4120706,"lon":9.7495629,"tags":{"name":"Vahrenheider Markt","network":"Großraum-Verkehr Hannover","network:short":"GVH","network:wikidata":"Q1549516","operator":"Überlandwerke und Straßenbahnen Hannover","operator:short":"ÜSTRA","operator:wikidata":"Q265625","public_transport":"stop_position","railway":"tram_stop","ref:IFOPT":"de:03241:2591:4:2592","survey:date":"2023-09-09","tactile_paving":"yes","tram":"yes","wheelchair":"yes"}},{"type":"node","id":391083820,"lat":52.3474391,"lon":9.7239171,"tags":{"name":"Schünemannplatz","network":"Großraum-Verkehr Hannover","network:short":"GVH","network:wikidata":"Q1549516","operator":"ÜSTRA","operator:short":"ÜSTRA","operator:wikidata":"Q265625","public_transport":"stop_position","railway":"tram_stop","ref:IFOPT":"de:03241:951:1:952","tactile_paving":"yes","tram":"yes","wheelchair":"yes"}},{"type":"node","id":546972114,"lat":52.4374568,"lon":9.7469367,"tags":{"name":"Langenhagen/Kurt-Schumacher-Allee","network":"Großraum-Verkehr Hannover","network:short":"GVH","network:wikidata":"Q1549516","operator":"Überlandwerke und Straßenbahnen Hannover","operator:short":"ÜSTRA","operator:wikidata":"Q265625","public_transport":"stop_position","railway":"tram_stop","ref:IFOPT":"de:03241:2931:4:2932","tactile_paving":"yes","tram":"yes","wheelchair":"yes","wheelchair:description":"Hochbahnsteig"}},{"type":"node","id":551403983,"lat":52.3773092,"lon":9.769085,"tags":{"name":"Hannover Congress Centrum","network":"Großraum-Verkehr Hannover","network:short":"GVH","network:wikidata":"Q1549516","operator":"ÜSTRA","operator:short":"ÜSTRA","operator:wikidata":"Q265625","public_transport":"stop_position","railway":"tram_stop","ref:IFOPT":"de:03241:2830:4:2831","ref_name":"Congress Centrum, Hannover","shelter":"yes","tactile_paving":"no","tram":"yes","wheelchair":"yes"}},{"type":"node","id":571268294,"lat":52.390193,"lon":9.8190522,"tags":{"name":"Roderbruch","network":"Großraum-Verkehr Hannover","network:short":"GVH","network:wikidata":"Q1549516","operator":"ÜSTRA","operator:short":"ÜSTRA","operator:wikidata":"Q265625","public_transport":"stop_position","railway":"tram_stop","ref:IFOPT":"de:03241:2881:1:2882","tram":"yes","wheelchair":"yes"}},{"type":"node","id":583231207,"lat":52.3995454,"lon":9.8305714,"tags":{"name":"Schierholzstraße","network":"Großraum-Verkehr Hannover","network:short":"GVH","network:wikidata":"Q1549516","operator":"ÜSTRA","operator:short":"ÜSTRA","operator:wikidata":"Q265625","public_transport":"stop_position","railway":"tram_stop","ref:IFOPT":"de:03241:2425:1:2425","start_date":"2010-12-12","tram":"yes","wheelchair":"yes"}},{"type":"node","id":585212987,"lat":52.3287242,"lon":9.7766844,"tags":{"name":"Wiehbergstraße","network":"Großraum-Verkehr Hannover","network:short":"GVH","network:wikidata":"Q1549516","operator":"Überlandwerke und Straßenbahnen Hannover","operator:short":"ÜSTRA","operator:wikidata":"Q265625","public_transport":"stop_position","railway":"tram_stop","ref:IFOPT":"de:03241:1431:1:1432","tactile_paving":"yes","tram":"yes","wheelchair":"yes"}},{"type":"node","id":656341500,"lat":52.4229357,"lon":9.8403334,"tags":{"name":"Altwarmbüchen/Opelstraße","network":"Großraum-Verkehr Hannover","network:short":"GVH","network:wikidata":"Q1549516","operator":"ÜSTRA","operator:short":"ÜSTRA","operator:wikidata":"Q265625","public_transport":"stop_position","railway":"tram_stop","ref:IFOPT":"de:03241:6683:1:6683","short_name":"Awb./Opelstraße","tram":"yes","wheelchair":"yes"}},{"type":"node","id":665663249,"lat":52.4050389,"lon":9.6604069,"tags":{"name":"Freudenthalstraße","network":"Großraum-Verkehr Hannover","network:short":"GVH","not:network:wikidata":"Q1549516","operator":"ÜSTRA","operator:wikidata":"Q265625","public_transport":"stop_position","railway":"tram_stop","ref:IFOPT":"de:03241:4353:4:4354","tram":"yes","wheelchair":"yes"}},{"type":"node","id":706531707,"lat":52.4139828,"lon":9.6673668,"tags":{"name":"Stöcken","network":"Großraum-Verkehr Hannover","network:short":"GVH","network:wikidata":"Q1549516","operator":"ÜSTRA","operator:wikidata":"Q265625","public_transport":"stop_position","railway":"tram_stop","ref:IFOPT":"de:03241:4380:7:4380","tram":"yes","wheelchair":"yes"}},{"type":"node","id":920384818,"lat":52.3949943,"lon":9.8424952,"tags":{"name":"Kafkastraße","network":"Großraum-Verkehr Hannover","network:short":"GVH","network:wikidata":"Q1549516","operator":"ÜSTRA","operator:short":"ÜSTRA","operator:wikidata":"Q265625","public_transport":"stop_position","railway":"tram_stop","ref:IFOPT":"de:03241:2487:1:1","start_date":"2014-12-14","tram":"yes","wheelchair":"yes"}},{"type":"node","id":920384841,"lat":52.3916081,"lon":9.8532502,"tags":{"name":"Misburg","network":"Großraum-Verkehr Hannover","network:short":"GVH","network:wikidata":"Q1549516","operator":"ÜSTRA","operator:short":"ÜSTRA","operator:wikidata":"Q265625","public_transport":"stop_position","railway":"tram_stop","ref:IFOPT":"de:03241:2501:1:2501","start_date":"2014-12-14","tram":"yes","wheelchair":"yes","wikidata":"Q63348801"}},{"type":"node","id":945055360,"lat":52.3612419,"lon":9.8345367,"tags":{"name":"Tiergarten","network":"Großraum-Verkehr Hannover","network:short":"GVH","network:wikidata":"Q1549516","operator":"ÜSTRA","operator:short":"ÜSTRA","operator:wikidata":"Q265625","public_transport":"stop_position","railway":"tram_stop","ref:IFOPT":"de:03241:3081:1:3081","tram":"yes","wheelchair":"yes"}},{"type":"node","id":1029492783,"lat":52.3735787,"lon":9.7195011,"tags":{"name":"Glocksee","network":"Großraum-Verkehr Hannover","network:short":"GVH","network:wikidata":"Q1549516","operator":"Überlandwerke und Straßenbahnen Hannover","operator:short":"ÜSTRA","operator:wikidata":"Q265625","public_transport":"stop_position","railway":"tram_stop","ref:IFOPT":"de:03241:461:1:461","tram":"yes","wheelchair":"yes"}},{"type":"node","id":1041185061,"lat":52.2825015,"lon":9.8290237,"tags":{"name":"Rethen/Galgenbergweg","network":"Großraum-Verkehr Hannover","network:short":"GVH","network:wikidata":"Q1549516","operator":"Überlandwerke und Straßenbahnen Hannover","operator:short":"ÜSTRA","operator:wikidata":"Q265625","public_transport":"stop_position","railway":"tram_stop","ref:IFOPT":"de:03241:1651:1:1651","tram":"yes","wheelchair":"yes"}},{"type":"node","id":1105781203,"lat":52.3026822,"lon":9.8041251,"tags":{"name":"Laatzen/Neuer Schlag","network":"Großraum-Verkehr Hannover","network:short":"GVH","network:wikidata":"Q1549516","network:wikipedia":"de:Großraum-Verkehr Hannover","operator":"Überlandwerke und Straßenbahnen Hannover","operator:short":"ÜSTRA","operator:wikidata":"Q265625","operator:wikipedia":"de:Üstra Hannoversche Verkehrsbetriebe","public_transport":"stop_position","railway":"tram_stop","ref:IFOPT":"de:03241:1521:1:1522","tram":"yes","wheelchair":"yes"}},{"type":"node","id":1128323477,"lat":52.3386905,"lon":9.833461,"tags":{"name":"Kronsberg","network":"Großraum-Verkehr Hannover","network:short":"GVH","network:wikidata":"Q1549516","operator":"ÜSTRA","operator:short":"ÜSTRA","operator:wikidata":"Q265625","public_transport":"stop_position","railway":"tram_stop","ref:IFOPT":"de:03241:3818:6:1800","tram":"yes","wheelchair":"yes"}},{"type":"node","id":1161699391,"lat":52.3435493,"lon":9.7251785,"tags":{"name":"Beekestraße","network":"Großraum-Verkehr Hannover","network:short":"GVH","network:wikidata":"Q1549516","operator":"Überlandwerke und Straßenbahnen Hannover","operator:short":"ÜSTRA","operator:wikidata":"Q265625","public_transport":"stop_position","railway":"tram_stop","ref:IFOPT":"de:03241:961:1:962","tactile_paving":"yes","tram":"yes","wheelchair":"yes"}},{"type":"node","id":1343306077,"lat":52.4155669,"lon":9.7808292,"tags":{"name":"Alte Heide","network":"Großraum-Verkehr Hannover","network:short":"GVH","network:wikidata":"Q1549516","operator":"Überlandwerke und Straßenbahnen Hannover","operator:short":"ÜSTRA","operator:wikidata":"Q265625","public_transport":"stop_position","railway":"tram_stop","ref:IFOPT":"de:03241:2641:1:2641","survey:date":"2023-09-02","tram":"yes","wheelchair":"yes"}},{"type":"node","id":1390113073,"lat":52.4308653,"lon":9.80135,"tags":{"name":"Fasanenkrug","network":"Großraum-Verkehr Hannover","network:short":"GVH","network:wikidata":"Q1549516","operator":"ÜSTRA","operator:short":"ÜSTRA","operator:wikidata":"Q265625","public_transport":"stop_position","railway":"tram_stop","ref:IFOPT":"de:03241:2221:3:2222","tram":"yes","wheelchair":"no"}},{"type":"node","id":1390113087,"lat":52.4295709,"lon":9.8009738,"tags":{"name":"Fasanenkrug","network":"Großraum-Verkehr Hannover","network:short":"GVH","network:wikidata":"Q1549516","operator":"ÜSTRA","operator:short":"ÜSTRA","operator:wikidata":"Q265625","public_transport":"stop_position","railway":"tram_stop","ref:IFOPT":"de:03241:2221:1:2221","tram":"yes","wheelchair":"no"}},{"type":"node","id":1501169264,"lat":52.397372,"lon":9.6747809,"tags":{"name":"Bahnhof Leinhausen","network":"Großraum-Verkehr Hannover","network:short":"GVH","network:wikidata":"Q1549516","old_name":"Leinhausen / Bahnhof","operator":"ÜSTRA","operator:short":"ÜSTRA","operator:wikidata":"Q265625","public_transport":"stop_position","railway":"tram_stop","ref:IFOPT":"de:03241:4331:2:4332","tactile_paving":"yes","tram":"yes","wheelchair":"yes"}},{"type":"node","id":1562735268,"lat":52.4038664,"lon":9.8252274,"tags":{"name":"Pappelwiese","network":"Großraum-Verkehr Hannover","network:short":"GVH","network:wikidata":"Q1549516","operator":"ÜSTRA","operator:short":"ÜSTRA","operator:wikidata":"Q265625","public_transport":"stop_position","railway":"tram_stop","ref:IFOPT":"de:03241:2311:1:2313","start_date":"2010-12-12","tram":"yes","wheelchair":"yes"}},{"type":"node","id":1614245161,"lat":52.4379344,"lon":9.7410733,"tags":{"name":"Langenhagen/Zentrum","network":"Großraum-Verkehr Hannover","network:short":"GVH","network:wikidata":"Q1549516","operator":"Überlandwerke und Straßenbahnen Hannover","operator:short":"ÜSTRA","operator:wikidata":"Q265625","public_transport":"stop_position","railway":"tram_stop","ref:IFOPT":"de:03241:2921","tram":"yes","wheelchair":"yes","wheelchair:description":"Hochbahnsteig"}},{"type":"node","id":1614249114,"lat":52.4380857,"lon":9.7339417,"tags":{"name":"Langenhagen/Langenforther Platz","network":"Großraum-Verkehr Hannover","network:short":"GVH","network:wikidata":"Q1549516","network:wikipedia":"de:Großraum-Verkehr Hannover","operator":"Überlandwerke und Straßenbahnen Hannover","operator:short":"ÜSTRA","operator:wikidata":"Q265625","operator:wikipedia":"de:Üstra Hannoversche Verkehrsbetriebe","public_transport":"stop_position","railway":"tram_stop","ref:IFOPT":"de:03241:2911:8:2912","tram":"yes","wheelchair":"yes","wheelchair:description":"Hochbahnsteig"}},{"type":"node","id":1635598534,"lat":52.3909968,"lon":9.7347117,"tags":{"name":"Vahrenwalder Platz","network":"Großraum-Verkehr Hannover","network:short":"GVH","network:wikidata":"Q1549516","operator":"Überlandwerke und Straßenbahnen Hannover","operator:short":"ÜSTRA","operator:wikidata":"Q265625","public_transport":"stop_position","railway":"tram_stop","ref:IFOPT":"de:03241:341:5:342","tactile_paving":"yes","tram":"yes","wheelchair":"yes","wheelchair:description":"Hochbahnsteig"}},{"type":"node","id":1635648466,"lat":52.3731023,"lon":9.7247215,"tags":{"name":"Goetheplatz","network":"Großraum-Verkehr Hannover","network:short":"GVH","network:wikidata":"Q1549516","operator":"Überlandwerke und Straßenbahnen Hannover","operator:short":"ÜSTRA","operator:wikidata":"Q265625","public_transport":"stop_position","railway":"tram_stop","ref:IFOPT":"de:03241:421:3:422","route_ref":"10;17","tram":"yes","wheelchair":"yes"}},{"type":"node","id":1635653139,"lat":52.3771083,"lon":9.664763,"tags":{"name":"Ahlem","network":"Großraum-Verkehr Hannover","network:short":"GVH","network:wikidata":"Q1549516","operator":"Überlandwerke und Straßenbahnen Hannover","operator:short":"ÜSTRA","operator:wikidata":"Q265625","public_transport":"stop_position","railway":"tram_stop","ref:IFOPT":"de:03241:537","tram":"yes","wheelchair":"yes"}},{"type":"node","id":1635712745,"lat":52.3773111,"lon":9.6841787,"tags":{"name":"Brunnenstraße","network":"Großraum-Verkehr Hannover","network:short":"GVH","network:wikidata":"Q1549516","old_name":"Limmer / Schleuse","operator":"Überlandwerke und Straßenbahnen Hannover","operator:short":"ÜSTRA","operator:wikidata":"Q265625","public_transport":"stop_position","railway":"tram_stop","ref:IFOPT":"de:03241:531","tram":"yes","wheelchair":"yes"}},{"type":"node","id":1635712806,"lat":52.377414,"lon":9.6735719,"tags":{"name":"Gedenkstätte Ahlem","network":"Großraum-Verkehr Hannover","network:short":"GVH","network:wikidata":"Q1549516","old_name":"Ehrhartstraße","operator":"ÜSTRA","operator:short":"ÜSTRA","operator:wikidata":"Q265625","public_transport":"stop_position","railway":"tram_stop","ref:IFOPT":"de:03241:535","tram":"yes","wheelchair":"yes","wheelchair:description":"Hochbahnsteig"}},{"type":"node","id":1760435070,"lat":52.3936262,"lon":9.6839956,"tags":{"name":"Herrenhäuser Markt","network":"Großraum-Verkehr Hannover","network:short":"GVH","network:wikidata":"Q1549516","operator":"Überlandwerke und Straßenbahnen Hannover","operator:short":"ÜSTRA","operator:wikidata":"Q265625","public_transport":"stop_position","railway":"tram_stop","ref:IFOPT":"de:03241:4321:1:4322","tram":"yes","wheelchair":"yes"}},{"type":"node","id":1805284646,"lat":52.3413809,"lon":9.7020529,"tags":{"name":"Am Sauerwinkel","network":"Großraum-Verkehr Hannover","network:short":"GVH","network:wikidata":"Q1549516","operator":"Überlandwerke und Straßenbahnen Hannover","operator:short":"ÜSTRA","operator:wikidata":"Q265625","public_transport":"stop_position","railway":"tram_stop","ref:IFOPT":"de:03241:991:2:992","tram":"yes","wheelchair":"yes"}},{"type":"node","id":1828926022,"lat":52.400302,"lon":9.6690007,"tags":{"name":"Stadtfriedhof Stöcken","network":"Großraum-Verkehr Hannover","network:short":"GVH","network:wikidata":"Q1549516","operator":"ÜSTRA","operator:wikidata":"Q265625","public_transport":"stop_position","railway":"tram_stop","ref:IFOPT":"de:03241:4341:1:4341","tram":"yes","wheelchair":"yes"}},{"type":"node","id":1828926090,"lat":52.4050192,"lon":9.6603735,"tags":{"name":"Freudenthalstraße","network":"Großraum-Verkehr Hannover","network:short":"GVH","network:wikidata":"Q1549516","operator":"ÜSTRA","operator:wikidata":"Q265625","public_transport":"stop_position","railway":"tram_stop","ref:IFOPT":"de:03241:4353:1:4353","tram":"yes","wheelchair":"yes"}},{"type":"node","id":1828974205,"lat":52.3973254,"lon":9.6747215,"tags":{"name":"Bahnhof Leinhausen","network":"Großraum-Verkehr Hannover","network:short":"GVH","network:wikidata":"Q1549516","old_name":"Leinhausen / Bahnhof","operator":"ÜSTRA","operator:short":"ÜSTRA","operator:wikidata":"Q265625","public_transport":"stop_position","railway":"tram_stop","ref:IFOPT":"de:03241:4331:2:4331","tactile_paving":"yes","tram":"yes","wheelchair":"yes"}},{"type":"node","id":1829047815,"lat":52.4166812,"lon":9.6032823,"tags":{"name":"Auf der Horst/Marshof","network":"Großraum-Verkehr Hannover","network:short":"GVH","network:wikidata":"Q1549516","network:wikipedia":"de:Großraum-Verkehr Hannover","operator":"Überlandwerke und Straßenbahnen Hannover","operator:short":"ÜSTRA","operator:wikidata":"Q265625","operator:wikipedia":"de:Üstra Hannoversche Verkehrsbetriebe","public_transport":"stop_position","railway":"tram_stop","ref:IFOPT":"de:03241:4777:1:4777","tram":"yes","wheelchair":"yes"}},{"type":"node","id":1829047829,"lat":52.4160944,"lon":9.6092731,"tags":{"name":"Auf der Horst/Skorpiongasse","network":"Großraum-Verkehr Hannover","network:short":"GVH","network:wikidata":"Q1549516","network:wikipedia":"de:Großraum-Verkehr Hannover","operator":"Überlandwerke und Straßenbahnen Hannover","operator:short":"ÜSTRA","operator:wikidata":"Q265625","operator:wikipedia":"de:Üstra Hannoversche Verkehrsbetriebe","public_transport":"stop_position","railway":"tram_stop","ref:IFOPT":"de:03241:4775:5:4776","tram":"yes","wheelchair":"yes"}},{"type":"node","id":1829047837,"lat":52.4162476,"lon":9.6111739,"tags":{"name":"Auf der Horst/Skorpiongasse","network":"Großraum-Verkehr Hannover","network:short":"GVH","network:wikidata":"Q1549516","network:wikipedia":"de:Großraum-Verkehr Hannover","operator":"Überlandwerke und Straßenbahnen Hannover","operator:short":"ÜSTRA","operator:wikidata":"Q265625","operator:wikipedia":"de:Üstra Hannoversche Verkehrsbetriebe","public_transport":"stop_position","railway":"tram_stop","ref:IFOPT":"de:03241:4775:1:4775","tram":"yes","wheelchair":"yes"}},{"type":"node","id":1829047844,"lat":52.4175217,"lon":9.5966127,"tags":{"name":"Garbsen","network":"Großraum-Verkehr Hannover","network:short":"GVH","network:wikidata":"Q1549516","operator":"Überlandwerke und Straßenbahnen Hannover","operator:short":"ÜSTRA","operator:wikidata":"Q265625","public_transport":"stop_position","railway":"tram_stop","ref:IFOPT":"de:03241:4779:1:4779","tram":"yes","wheelchair":"yes"}},{"type":"node","id":1829047860,"lat":52.4099117,"lon":9.6525394,"tags":{"name":"Lauckerthof","network":"Großraum-Verkehr Hannover","network:short":"GVH","network:wikidata":"Q1549516","operator":"Überlandwerke und Straßenbahnen Hannover","operator:short":"ÜSTRA","operator:wikidata":"Q265625","public_transport":"stop_position","railway":"tram_stop","ref:IFOPT":"de:03241:4393:1:4393","tram":"yes","wheelchair":"yes"}},{"type":"node","id":1829047891,"lat":52.4132425,"lon":9.6480925,"tags":{"name":"Auf der Klappenburg","network":"Großraum-Verkehr Hannover","network:short":"GVH","network:wikidata":"Q1549516","operator":"Überlandwerke und Straßenbahnen Hannover","operator:short":"ÜSTRA","operator:wikidata":"Q265625","public_transport":"stop_position","railway":"tram_stop","ref:IFOPT":"de:03241:4395:1:4395","tram":"yes","wheelchair":"yes"}},{"type":"node","id":1829047949,"lat":52.4140032,"lon":9.6249218,"tags":{"name":"Pascalstraße","network":"Großraum-Verkehr Hannover","network:short":"GVH","network:wikidata":"Q1549516","operator":"Überlandwerke und Straßenbahnen Hannover","operator:short":"ÜSTRA","operator:wikidata":"Q265625","public_transport":"stop_position","railway":"tram_stop","ref":"4403","ref:IFOPT":"de:03241:4403:1:4403","tram":"yes","wheelchair":"yes"}},{"type":"node","id":1829048038,"lat":52.4156784,"lon":9.6428657,"tags":{"name":"Jädekamp","network":"Großraum-Verkehr Hannover","network:short":"GVH","network:wikidata":"Q1549516","operator":"ÜSTRA","operator:wikidata":"Q265625","public_transport":"stop_position","railway":"tram_stop","ref:IFOPT":"de:03241:4397:1:4397","tram":"yes","wheelchair":"yes"}},{"type":"node","id":1829048151,"lat":52.4161738,"lon":9.6337227,"tags":{"name":"Wissenschaftspark Marienwerder","network":"Großraum-Verkehr Hannover","network:short":"GVH","network:wikidata":"Q1549516","operator":"ÜSTRA","operator:wikidata":"Q265625","public_transport":"stop_position","railway":"tram_stop","ref:IFOPT":"de:03241:4399:1:4399","tram":"yes","wheelchair":"yes"}},{"type":"node","id":1829048657,"lat":52.4180137,"lon":9.6151211,"tags":{"name":"Schönebecker Allee","network":"Großraum-Verkehr Hannover","network:short":"GVH","network:wikidata":"Q1549516","operator":"Überlandwerke und Straßenbahnen Hannover","operator:short":"ÜSTRA","operator:wikidata":"Q265625","public_transport":"stop_position","railway":"tram_stop","ref:IFOPT":"de:03241:4773:1:4773","tram":"yes","wheelchair":"yes"}},{"type":"node","id":1996819592,"lat":52.3756208,"lon":9.7317761,"tags":{"name":"Steintor","network":"Großraum-Verkehr Hannover","network:short":"GVH","network:wikidata":"Q1549516","operator":"Überlandwerke und Straßenbahnen Hannover","operator:short":"ÜSTRA","operator:wikidata":"Q265625","public_transport":"stop_position","railway":"tram_stop","ref:IFOPT":"de:03241:121:2:121","ref_name":"Steintor, Hannover","tram":"yes","wheelchair":"yes"}},{"type":"node","id":1998274440,"lat":52.3331064,"lon":9.7730364,"tags":{"name":"Bothmerstraße","network":"Großraum-Verkehr Hannover","network:short":"GVH","network:wikidata":"Q1549516","operator":"ÜSTRA","operator:short":"ÜSTRA","operator:wikidata":"Q265625","public_transport":"stop_position","railway":"tram_stop","ref:IFOPT":"de:03241:1391:6:1392","tram":"yes","wheelchair":"yes","wikidata":"Q63345030"}},{"type":"node","id":2021379206,"lat":52.3710713,"lon":9.7734468,"tags":{"name":"Clausewitzstraße","network":"Großraum-Verkehr Hannover","network:short":"GVH","network:wikidata":"Q1549516","operator":"ÜSTRA","operator:short":"ÜSTRA","operator:wikidata":"Q265625","public_transport":"stop_position","railway":"tram_stop","ref:IFOPT":"de:03241:2841:1:2841","ref_name":"Clausewitzstraße, Hannover","tram":"yes","wheelchair":"yes","wheelchair:description":"Hochbahnsteig"}},{"type":"node","id":2021379207,"lat":52.3711017,"lon":9.77345,"tags":{"name":"Clausewitzstraße","network":"Großraum-Verkehr Hannover","network:short":"GVH","network:wikidata":"Q1549516","operator":"ÜSTRA","operator:short":"ÜSTRA","operator:wikidata":"Q265625","public_transport":"stop_position","railway":"tram_stop","ref:IFOPT":"de:03241:2841:6:2842","ref_name":"Clausewitzstraße, Hannover","tram":"yes","wheelchair":"yes","wheelchair:description":"Hochbahnsteig"}},{"type":"node","id":2054245387,"lat":52.4014305,"lon":9.712811,"tags":{"name":"Hainhölzer Markt","network":"Großraum-Verkehr Hannover","network:short":"GVH","network:wikidata":"Q1549516","operator":"Überlandwerke und Straßenbahnen Hannover","operator:short":"ÜSTRA","operator:wikidata":"Q265625","public_transport":"stop_position","railway":"tram_stop","ref:IFOPT":"de:03241:291:1:292","tram":"yes","wheelchair":"yes"}},{"type":"node","id":2168619748,"lat":52.406272,"lon":9.7384574,"tags":{"name":"Großer Kolonnenweg","network":"Großraum-Verkehr Hannover","network:short":"GVH","network:wikidata":"Q1549516","operator":"Überlandwerke und Straßenbahnen Hannover","operator:short":"ÜSTRA","operator:wikidata":"Q265625","public_transport":"stop_position","railway":"tram_stop","ref:IFOPT":"de:03241:2571:4:2572","tram":"yes","wheelchair":"yes","wheelchair:description":"Hochbahnsteig"}},{"type":"node","id":2171759375,"lat":52.3790944,"lon":9.808499,"tags":{"name":"Misburger Straße","network":"Großraum-Verkehr Hannover","network:short":"GVH","network:wikidata":"Q1549516","operator":"ÜSTRA","operator:short":"ÜSTRA","operator:wikidata":"Q265625","public_transport":"stop_position","railway":"tram_stop","ref:IFOPT":"de:03241:3221:3:3222","tactile_paving":"yes","tram":"yes","wheelchair":"yes"}},{"type":"node","id":2178593913,"lat":52.3935602,"lon":9.6839185,"tags":{"name":"Herrenhäuser Markt","network":"Großraum-Verkehr Hannover","network:short":"GVH","network:wikidata":"Q1549516","operator":"Überlandwerke und Straßenbahnen Hannover","operator:short":"ÜSTRA","operator:wikidata":"Q265625","public_transport":"stop_position","railway":"tram_stop","ref:IFOPT":"de:03241:4321:1:4321","tram":"yes","wheelchair":"yes"}},{"type":"node","id":2183600208,"lat":52.3706527,"lon":9.8028663,"tags":{"name":"Nackenberg","network":"Großraum-Verkehr Hannover","network:short":"GVH","network:wikidata":"Q1549516","operator":"ÜSTRA","operator:short":"ÜSTRA","operator:wikidata":"Q265625","public_transport":"stop_position","railway":"tram_stop","ref:IFOPT":"de:03241:3011:1:3012","tram":"yes","wheelchair":"yes"}},{"type":"node","id":2223039324,"lat":52.3604864,"lon":9.8443457,"tags":{"name":"Ostfeldstraße","network":"Großraum-Verkehr Hannover","network:short":"GVH","network:wikidata":"Q1549516","operator":"ÜSTRA","operator:short":"ÜSTRA","operator:wikidata":"Q265625","public_transport":"stop_position","railway":"tram_stop","ref:IFOPT":"de:03241:3091:1:3091","ref_name":"Hannover, Ostfeldstr.","tram":"yes","wheelchair":"yes"}},{"type":"node","id":2275512081,"lat":52.4122739,"lon":9.7984793,"tags":{"name":"Bothfelder Kirchweg","network":"Großraum-Verkehr Hannover","network:short":"GVH","network:wikidata":"Q1549516","old_name":"Bothfeld/Kirche","operator":"ÜSTRA","operator:short":"ÜSTRA","operator:wikidata":"Q265625","public_transport":"stop_position","railway":"tram_stop","ref:IFOPT":"de:03241:2181:4","tactile_paving":"no","tram":"yes","wheelchair":"no"}},{"type":"node","id":2275512112,"lat":52.4152551,"lon":9.7956259,"tags":{"name":"Bothfeld","network":"Großraum-Verkehr Hannover","network:short":"GVH","network:wikidata":"Q1549516","operator":"Überlandwerke und Straßenbahnen Hannover","operator:short":"ÜSTRA","operator:wikidata":"Q265625","public_transport":"stop_position","railway":"tram_stop","ref:IFOPT":"de:03241:2191:4:2192","tactile_paving":"no","tram":"yes","wheelchair":"limited"}},{"type":"node","id":2275512167,"lat":52.4209874,"lon":9.7976527,"tags":{"name":"Kurze-Kamp-Straße","network":"Großraum-Verkehr Hannover","network:short":"GVH","network:wikidata":"Q1549516","operator":"Überlandwerke und Straßenbahnen Hannover","operator:short":"ÜSTRA","operator:wikidata":"Q265625","public_transport":"stop_position","railway":"tram_stop","ref:IFOPT":"de:03241:2201:5:2202","tactile_paving":"no","tram":"yes","wheelchair":"yes"}},{"type":"node","id":2275512204,"lat":52.4262639,"lon":9.7999391,"tags":{"name":"Stadtfriedhof Bothfeld","network":"Großraum-Verkehr Hannover","network:short":"GVH","network:wikidata":"Q1549516","operator":"Überlandwerke und Straßenbahnen Hannover","operator:short":"ÜSTRA","operator:wikidata":"Q265625","public_transport":"stop_position","railway":"tram_stop","ref:IFOPT":"de:03241:2211:2:2212","tactile_paving":"yes","tram":"yes","wheelchair":"yes"}},{"type":"node","id":2279625628,"lat":52.3954615,"lon":9.7637843,"tags":{"name":"Vier Grenzen","network":"Großraum-Verkehr Hannover","network:short":"GVH","network:wikidata":"Q1549516","operator":"ÜSTRA","operator:short":"ÜSTRA","operator:wikidata":"Q265625","public_transport":"stop_position","railway":"tram_stop","ref:IFOPT":"de:03241:2131:1:2131","tram":"yes","wheelchair":"yes"}},{"type":"node","id":2279625661,"lat":52.4003442,"lon":9.7819716,"tags":{"name":"Spannhagengarten","network":"Großraum-Verkehr Hannover","network:short":"GVH","network:wikidata":"Q1549516","operator":"ÜSTRA","operator:short":"ÜSTRA","operator:wikidata":"Q265625","public_transport":"stop_position","railway":"tram_stop","ref:IFOPT":"de:03241:2151:1:2151","tram":"yes","wheelchair":"yes"}},{"type":"node","id":2279625680,"lat":52.4028326,"lon":9.7909265,"tags":{"name":"Klingerstraße","network":"Großraum-Verkehr Hannover","network:short":"GVH","network:wikidata":"Q1549516","operator":"ÜSTRA","operator:short":"ÜSTRA","operator:wikidata":"Q265625","public_transport":"stop_position","railway":"tram_stop","ref:IFOPT":"de:03241:2161:1:2161","tram":"yes","wheelchair":"yes"}},{"type":"node","id":2279793324,"lat":52.4311012,"lon":9.8463435,"tags":{"name":"Altwarmbüchen / Zentrum","network":"Großraum-Verkehr Hannover","network:short":"GVH","network:wikidata":"Q1549516","operator":"Überlandwerke und Straßenbahnen Hannover","operator:short":"ÜSTRA","operator:wikidata":"Q265625","public_transport":"stop_position","railway":"tram_stop","ref:IFOPT":"de:03241:6637:5:6638","short_name":"Awb./Zentrum","tram":"yes","wheelchair":"yes"}},{"type":"node","id":2279793350,"lat":52.4377775,"lon":9.8474438,"tags":{"name":"Altwarmbüchen","network":"Großraum-Verkehr Hannover","network:short":"GVH","network:wikidata":"Q1549516","operator":"ÜSTRA","operator:short":"ÜSTRA","operator:wikidata":"Q265625","public_transport":"stop_position","railway":"tram_stop","ref:IFOPT":"de:03241:6641:5:6642","tram":"yes","wheelchair":"yes"}},{"type":"node","id":2281952302,"lat":52.4170471,"lon":9.8298253,"tags":{"name":"Oldenburger Allee","network":"Großraum-Verkehr Hannover","network:short":"GVH","network:wikidata":"Q1549516","operator":"ÜSTRA","operator:short":"ÜSTRA","operator:wikidata":"Q265625","public_transport":"stop_position","railway":"tram_stop","ref:IFOPT":"de:03241:2325:4:2326","tram":"yes","wheelchair":"yes"}},{"type":"node","id":2281952373,"lat":52.4264255,"lon":9.8463347,"tags":{"name":"Altwarmbüchen/Ernst-Grote-Straße","network":"Großraum-Verkehr Hannover","network:short":"GVH","network:wikidata":"Q1549516","operator":"ÜSTRA","operator:short":"ÜSTRA","operator:wikidata":"Q265625","public_transport":"stop_position","railway":"tram_stop","ref:IFOPT":"de:03241:6689:4:6690","short_name":"Awb./Ernst-Grote-Straße","tram":"yes","wheelchair":"yes"}},{"type":"node","id":2282007411,"lat":52.3995295,"lon":9.8305274,"tags":{"name":"Schierholzstraße","network":"Großraum-Verkehr Hannover","network:short":"GVH","network:wikidata":"Q1549516","operator":"ÜSTRA","operator:short":"ÜSTRA","operator:wikidata":"Q265625","public_transport":"stop_position","railway":"tram_stop","ref:IFOPT":"de:03241:2425:3:2426","start_date":"2010-12-12","tram":"yes","wheelchair":"yes","wikidata":"Q63348824"}},{"type":"node","id":2282007431,"lat":52.403853,"lon":9.8251689,"tags":{"name":"Pappelwiese","network":"Großraum-Verkehr Hannover","network:short":"GVH","network:wikidata":"Q1549516","operator":"ÜSTRA","operator:short":"ÜSTRA","operator:wikidata":"Q265625","public_transport":"stop_position","railway":"tram_stop","ref:IFOPT":"de:03241:2311:3:2314","start_date":"2010-12-12","tram":"yes","wheelchair":"yes","wikidata":"Q63348826"}},{"type":"node","id":2285888338,"lat":52.4185314,"lon":9.7648564,"tags":{"name":"Tempelhofweg","network":"Großraum-Verkehr Hannover","network:short":"GVH","network:wikidata":"Q1549516","operator":"Überlandwerke und Straßenbahnen Hannover","operator:short":"ÜSTRA","operator:wikidata":"Q265625","public_transport":"stop_position","railway":"tram_stop","ref:IFOPT":"de:03241:2621:1:2621","tram":"yes","wheelchair":"yes"}},{"type":"node","id":2285888347,"lat":52.4194663,"lon":9.759741,"tags":{"name":"Zehlendorfweg","network":"Großraum-Verkehr Hannover","network:short":"GVH","network:wikidata":"Q1549516","operator":"Überlandwerke und Straßenbahnen Hannover","operator:short":"ÜSTRA","operator:wikidata":"Q265625","public_transport":"stop_position","railway":"tram_stop","ref:IFOPT":"de:03241:2611:1:2611","tram":"yes","wheelchair":"yes"}},{"type":"node","id":2286772295,"lat":52.3986264,"lon":9.7360433,"tags":{"name":"Niedersachsenring","network":"Großraum-Verkehr Hannover","network:short":"GVH","network:wikidata":"Q1549516","operator":"Überlandwerke und Straßenbahnen Hannover","operator:short":"ÜSTRA","operator:wikidata":"Q265625","public_transport":"stop_position","railway":"tram_stop","ref:IFOPT":"de:03241:371:1:371","tactile_paving":"yes","tram":"yes","wheelchair":"yes","wheelchair:description":"Hochbahnsteig"}},{"type":"node","id":2286795066,"lat":52.4077697,"lon":9.7348751,"tags":{"name":"Windausstraße","network":"Großraum-Verkehr Hannover","network:short":"GVH","network:wikidata":"Q1549516","old_name":"Kanalbrücke","operator":"Überlandwerke und Straßenbahnen Hannover","operator:short":"ÜSTRA","operator:wikidata":"Q265625","public_transport":"stop_position","railway":"tram_stop","ref":"2521","ref:IFOPT":"de:03241:2521:1:2521","tactile_paving":"no","tram":"yes","wheelchair":"no","wheelchair:description":"Tiefbahnsteig","wikidata":"Q63344863"}},{"type":"node","id":2286795073,"lat":52.4118415,"lon":9.7342825,"tags":{"name":"Kabelkamp","network":"Großraum-Verkehr Hannover","network:short":"GVH","network:wikidata":"Q1549516","operator":"Überlandwerke und Straßenbahnen Hannover","operator:short":"ÜSTRA","operator:wikidata":"Q265625","public_transport":"stop_position","railway":"tram_stop","ref":"2531","ref:IFOPT":"de:03241:2531:1:2531","tactile_paving":"no","tram":"yes","wheelchair":"no","wheelchair:description":"Tiefbahnsteig","wikidata":"Q63344858"}},{"type":"node","id":2286795082,"lat":52.4164974,"lon":9.7337399,"tags":{"name":"Alter Flughafen","network":"Großraum-Verkehr Hannover","network:short":"GVH","network:wikidata":"Q1549516","old_name":"Wasserturm","operator":"Überlandwerke und Straßenbahnen Hannover","operator:short":"ÜSTRA","operator:wikidata":"Q265625","public_transport":"stop_position","railway":"tram_stop","ref":"2541","ref:IFOPT":"de:03241:2541:1:2541","tactile_paving":"no","tram":"yes","wheelchair":"yes","wheelchair:description":"Tiefbahnsteig","wikidata":"Q63344832"}},{"type":"node","id":2286795100,"lat":52.4230345,"lon":9.7327846,"tags":{"light_rail":"yes","name":"Wiesenau","network":"Großraum-Verkehr Hannover","network:short":"GVH","network:wikidata":"Q1549516","operator":"ÜSTRA","operator:short":"ÜSTRA","operator:wikidata":"Q265625","public_transport":"stop_position","railway":"tram_stop","ref:IFOPT":"de:03241:2551:1:2551","shelter":"yes","tactile_paving":"yes","tram":"no","wheelchair":"yes","wheelchair:description":"Tiefbahnsteig","wikidata":"Q63344822"}},{"type":"node","id":2286795117,"lat":52.4302977,"lon":9.7316951,"tags":{"name":"Berliner Platz","network":"Großraum-Verkehr Hannover","network:short":"GVH","network:wikidata":"Q1549516","operator":"ÜSTRA","operator:short":"ÜSTRA","operator:wikidata":"Q265625","public_transport":"stop_position","railway":"tram_stop","ref:IFOPT":"de:03241:6000:1:6001","tactile_paving":"no","tram":"yes","wheelchair":"no","wheelchair:description":"Tiefbahnsteig"}},{"type":"node","id":2288305142,"lat":52.3878618,"lon":9.7341418,"tags":{"name":"Werderstraße","network":"Großraum-Verkehr Hannover","operator":"infra Infrastrukturgesellschaft Region Hannover","operator:wikidata":"Q1122564","public_transport":"stop_position","railway":"stop","ref:IFOPT":"de:03241:331:1:331","subway":"yes","surveillance":"indoor","tactile_paving":"no","wheelchair":"yes"}},{"type":"node","id":2289250829,"lat":52.4370026,"lon":9.7539705,"tags":{"name":"Langenhagen","network":"Großraum-Verkehr Hannover","network:short":"GVH","network:wikidata":"Q1549516","operator":"Überlandwerke und Straßenbahnen Hannover","operator:short":"ÜSTRA","operator:wikidata":"Q265625","public_transport":"stop_position","railway":"tram_stop","ref:IFOPT":"de:03241:2941:1:2941","tram":"yes","wheelchair":"yes","wheelchair:description":"Hochbahnsteig"}},{"type":"node","id":2327054228,"lat":52.4229097,"lon":9.84037,"tags":{"name":"Altwarmbüchen/Opelstraße","network":"Großraum-Verkehr Hannover","network:short":"GVH","network:wikidata":"Q1549516","operator":"ÜSTRA","operator:short":"ÜSTRA","operator:wikidata":"Q265625","public_transport":"stop_position","railway":"tram_stop","ref:IFOPT":"de:03241:6683:4:6684","short_name":"Awb./Opelstraße","tram":"yes","wheelchair":"yes"}},{"type":"node","id":2338630982,"lat":52.4223763,"lon":9.6900032,"tags":{"name":"Nordhafen","network":"Großraum-Verkehr Hannover","network:short":"GVH","network:wikidata":"Q1549516","operator":"ÜSTRA","operator:short":"ÜSTRA","operator:wikidata":"Q265625","public_transport":"stop_position","railway":"tram_stop","ref":"4101","ref:IFOPT":"de:03241:4101:1:4101","tram":"yes","wheelchair":"yes"}},{"type":"node","id":2338633490,"lat":52.3219706,"lon":9.8220348,"tags":{"name":"Messe/Ost (EXPO-Plaza)","network":"Großraum-Verkehr Hannover","network:short":"GVH","network:wikidata":"Q1549516","operator":"Überlandwerke und Straßenbahnen Hannover","operator:short":"ÜSTRA","operator:wikidata":"Q265625","public_transport":"station","railway":"tram_stop","ref:IFOPT":"de:03241:1811:2:1812","tram":"yes"}},{"type":"node","id":2338645710,"lat":52.3342369,"lon":9.8300036,"tags":{"name":"Krügerskamp","network":"Großraum-Verkehr Hannover","network:short":"GVH","network:wikidata":"Q1549516","operator":"ÜSTRA","operator:short":"ÜSTRA","operator:wikidata":"Q265625","public_transport":"stop_position","railway":"tram_stop","ref:IFOPT":"de:03241:1803:5:1804","tram":"yes","wheelchair":"yes"}},{"type":"node","id":2338645711,"lat":52.3269059,"lon":9.8247477,"tags":{"name":"Stockholmer Allee","network":"Großraum-Verkehr Hannover","network:short":"GVH","network:wikidata":"Q1549516","operator":"Überlandwerke und Straßenbahnen Hannover","operator:short":"ÜSTRA","operator:wikidata":"Q265625","public_transport":"stop_position","railway":"tram_stop","ref:IFOPT":"de:03241:1807:4:1808","tram":"yes","wheelchair":"yes"}},{"type":"node","id":2338668488,"lat":52.3811866,"lon":9.7667999,"tags":{"name":"Zoo","network":"Großraum-Verkehr Hannover","network:short":"GVH","network:wikidata":"Q1549516","operator":"ÜSTRA","operator:short":"ÜSTRA","operator:wikidata":"Q265625","public_transport":"stop_position","railway":"tram_stop","ref:IFOPT":"de:03241:2821:1:2822","ref_name":"Zoo, Hannover","tram":"yes","wheelchair":"yes","wheelchair:description":"Hochbahnsteig"}},{"type":"node","id":2338675404,"lat":52.3930204,"lon":9.7134132,"tags":{"name":"Haltenhoffstraße","network":"Großraum-Verkehr Hannover","network:short":"GVH","network:wikidata":"Q1549516","operator":"Überlandwerke und Straßenbahnen Hannover","operator:short":"ÜSTRA","operator:wikidata":"Q265625","public_transport":"stop_position","railway":"tram_stop","ref:IFOPT":"de:03241:261:1:261","ref_name":"Haltenhoffstraße, Hannover","tram":"yes","wheelchair":"yes","wheelchair:description":"Hochbahnsteig"}},{"type":"node","id":2338703533,"lat":52.3594027,"lon":9.8515222,"tags":{"designation":"Linie 5","name":"Königsberger Ring","network":"Großraum-Verkehr Hannover","network:short":"GVH","network:wikidata":"Q1549516","operator":"ÜSTRA","operator:short":"ÜSTRA","operator:wikidata":"Q265625","public_transport":"stop_position","railway":"tram_stop","ref:IFOPT":"de:03241:3471:1:3473","tactile_paving":"yes","tram":"yes","wheelchair":"yes"}},{"type":"node","id":2343189731,"lat":52.4337498,"lon":9.7313844,"tags":{"name":"Langenhagen/Angerstraße","network":"Großraum-Verkehr Hannover","network:short":"GVH","network:wikidata":"Q1549516","network:wikipedia":"de:Großraum-Verkehr Hannover","operator":"ÜSTRA","operator:short":"ÜSTRA","operator:wikidata":"Q265625","operator:wikipedia":"de:Üstra Hannoversche Verkehrsbetriebe","public_transport":"stop_position","railway":"tram_stop","ref:IFOPT":"de:03241:2901:1:2901","tactile_paving":"no","tram":"yes","wheelchair":"no","wheelchair:description":"Tiefbahnsteig"}},