{"elements":[{"type":"node","id":27607031,"lat":41.8678886,"lon":-87.6266354,"tags":{"name":"Roosevelt","network":"CTA","operator":"Chicago Transit Authority","operator:wikidata":"Q117309","public_transport":"stop_position","railway":"stop","subway":"yes"}},{"type":"node","id":27607230,"lat":41.8043175,"lon":-87.7036888,"tags":{"name":"Kedzie","network":"CTA","public_transport":"stop_position","railway":"stop","subway":"yes"}},{"type":"node","id":27607237,"lat":41.8000701,"lon":-87.7239175,"tags":{"name":"Pulaski","network":"CTA","public_transport":"stop_position","railway":"stop","subway":"yes"}},{"type":"node","id":27607246,"lat":41.7872183,"lon":-87.7379419,"tags":{"name":"Midway","network":"CTA","operator":"Chicago Transit Authority","operator:wikidata":"Q117309","public_transport":"stop_position","railway":"stop","subway":"yes"}},{"type":"node","id":27607248,"lat":41.8046438,"lon":-87.6836628,"tags":{"name":"Western","network":"CTA","public_transport":"stop_position","railway":"stop","subway":"yes"}},{"type":"node","id":34877681,"lat":41.9610965,"lon":-87.7432258,"tags":{"name":"Montrose","network":"CTA","operator":"Chicago Transit Authority","operator:wikidata":"Q117309","public_transport":"stop_position","railway":"stop","subway":"yes"}},{"type":"node","id":34877711,"lat":41.9155378,"lon":-87.6863522,"tags":{"name":"Western","network":"CTA","operator":"Chicago Transit Authority","operator:wikidata":"Q117309","public_transport":"stop_position","railway":"stop","subway":"yes"}},{"type":"node","id":111045292,"lat":41.9835377,"lon":-87.8586882,"tags":{"name":"Rosemont","network":"CTA","operator":"Chicago Transit Authority","operator:wikidata":"Q117309","public_transport":"stop_position","railway":"stop","subway":"yes"}},{"type":"node","id":249656719,"lat":42.0585031,"lon":-87.6834298,"tags":{"name":"Noyes","network":"CTA","operator":"Chicago Transit Authority","operator:wikidata":"Q117309","public_transport":"stop_position","railway":"stop","subway":"yes"}},{"type":"node","id":249656722,"lat":42.0545492,"lon":-87.6836238,"tags":{"name":"Foster","network":"CTA","operator":"Chicago Transit Authority","operator:wikidata":"Q117309","public_transport":"stop_position","railway":"stop","subway":"yes"}},{"type":"node","id":249656728,"lat":42.0483044,"lon":-87.6836683,"tags":{"name":"Davis","network":"CTA","operator":"Chicago Transit Authority","operator:wikidata":"Q117309","public_transport":"stop_position","railway":"stop","subway":"yes"}},{"type":"node","id":249656734,"lat":42.0421829,"lon":-87.6818471,"tags":{"name":"Dempster","network":"CTA","operator":"Chicago Transit Authority","operator:wikidata":"Q117309","public_transport":"stop_position","railway":"stop","subway":"yes"}},{"type":"node","id":249656743,"lat":42.0278621,"lon":-87.6784691,"tags":{"name":"South Boulevard","network":"CTA","operator":"Chicago Transit Authority","operator:wikidata":"Q117309","public_transport":"stop_position","railway":"stop","subway":"yes"}},{"type":"node","id":252163044,"lat":42.0334722,"lon":-87.679685,"tags":{"name":"Main","network":"CTA","operator":"Chicago Transit Authority","operator:wikidata":"Q117309","public_transport":"stop_position","railway":"stop","subway":"yes"}},{"type":"node","id":252683107,"lat":41.9438211,"lon":-87.6629831,"tags":{"name":"Southport","network":"CTA","operator":"Chicago Transit Authority","operator:wikidata":"Q117309","public_transport":"stop_position","railway":"stop","subway":"yes","wheelchair":"yes"}},{"type":"node","id":252683109,"lat":41.9437129,"lon":-87.670192,"tags":{"name":"Paulina","network":"CTA","operator":"Chicago Transit Authority","operator:wikidata":"Q117309","public_transport":"stop_position","railway":"stop","subway":"yes","wheelchair":"yes"}},{"type":"node","id":252683118,"lat":41.946536,"lon":-87.6747373,"tags":{"name":"Addison","network":"CTA","operator":"Chicago Transit Authority","operator:wikidata":"Q117309","public_transport":"stop_position","railway":"stop","subway":"yes"}},{"type":"node","id":252683125,"lat":41.953593,"lon":-87.6749504,"tags":{"name":"Irving Park","network":"CTA","operator":"Chicago Transit Authority","operator:wikidata":"Q117309","public_transport":"stop_position","railway":"stop","subway":"yes"}},{"type":"node","id":252683129,"lat":41.9610196,"lon":-87.6751634,"tags":{"name":"Montrose","network":"CTA","operator":"Chicago Transit Authority","operator:wikidata":"Q117309","public_transport":"stop_position","railway":"stop","subway":"yes"}},{"type":"node","id":252683138,"lat":41.9663956,"lon":-87.6784966,"tags":{"name":"Damen","network":"CTA","operator":"Chicago Transit Authority","operator:wikidata":"Q117309","public_transport":"stop_position","railway":"stop","subway":"yes","wheelchair":"yes"}},{"type":"node","id":252683142,"lat":41.9662481,"lon":-87.6875133,"tags":{"name":"Western","network":"CTA","operator":"Chicago Transit Authority","operator:wikidata":"Q117309","public_transport":"stop_position","railway":"stop","subway":"yes","wheelchair":"yes"}},{"type":"node","id":252683157,"lat":41.9680979,"lon":-87.7132097,"tags":{"local_ref":"1","name":"Kimball","network":"CTA","operator":"Chicago Transit Authority","operator:wikidata":"Q117309","public_transport":"stop_position","railway":"stop","subway":"yes"}},{"type":"node","id":256475054,"lat":41.7814287,"lon":-87.6309737,"tags":{"name":"63rd","network":"CTA","operator":"Chicago Transit Authority","operator:wikidata":"Q117309","public_transport":"stop_position","railway":"stop","subway":"yes"}},{"type":"node","id":256475078,"lat":41.7685549,"lon":-87.6257743,"tags":{"name":"69th","network":"CTA","operator":"Chicago Transit Authority","operator:wikidata":"Q117309","public_transport":"stop_position","railway":"stop","subway":"yes"}},{"type":"node","id":258026018,"lat":41.8708035,"lon":-87.7758407,"tags":{"name":"Austin","network":"CTA","operator":"Chicago Transit Authority","operator:wikidata":"Q117309","public_transport":"stop_position","railway":"stop","subway":"yes"}},{"type":"node","id":258026027,"lat":41.8734195,"lon":-87.8059397,"tags":{"name":"Harlem","network":"CTA","operator":"Chicago Transit Authority","operator:wikidata":"Q117309","public_transport":"stop_position","railway":"stop","subway":"yes"}},{"type":"node","id":258026066,"lat":41.8755486,"lon":-87.689588,"tags":{"name":"Western","network":"CTA","operator":"Chicago Transit Authority","operator:wikidata":"Q117309","public_transport":"stop_position","railway":"stop","subway":"yes"}},{"type":"node","id":258026083,"lat":41.8738983,"lon":-87.7288568,"tags":{"name":"Pulaski","network":"CTA","operator":"Chicago Transit Authority","operator:wikidata":"Q117309","public_transport":"stop_position","railway":"stop","subway":"yes"}},{"type":"node","id":258944238,"lat":41.8519551,"lon":-87.7456115,"tags":{"name":"Cicero","network":"CTA","operator":"Chicago Transit Authority","operator:wikidata":"Q117309","public_transport":"stop_position","railway":"stop","subway":"yes"}},{"type":"node","id":258944287,"lat":41.8710781,"lon":-87.6695869,"tags":{"name":"Polk","network":"CTA","operator":"Chicago Transit Authority","operator:wikidata":"Q117309","public_transport":"stop_position","railway":"stop","subway":"yes","train":"no"}},{"type":"node","id":258944288,"lat":41.8574021,"lon":-87.6692024,"tags":{"name":"18th","network":"CTA","operator":"Chicago Transit Authority","operator:wikidata":"Q117309","public_transport":"stop_position","railway":"stop","subway":"yes"}},{"type":"node","id":258944298,"lat":41.8545274,"lon":-87.6779274,"tags":{"name":"Damen","network":"CTA","operator":"Chicago Transit Authority","operator:wikidata":"Q117309","public_transport":"stop_position","railway":"stop","subway":"yes"}},{"type":"node","id":258944299,"lat":41.8544198,"lon":-87.6854006,"tags":{"level":"1","name":"Western","network":"CTA","operator":"Chicago Transit Authority","operator:wikidata":"Q117309","public_transport":"stop_position","railway":"stop","subway":"yes"}},{"type":"node","id":258944300,"lat":41.8543373,"lon":-87.695219,"tags":{"level":"1","name":"California","network":"CTA","operator":"Chicago Transit Authority","operator:wikidata":"Q117309","public_transport":"stop_position","railway":"stop","subway":"yes"}},{"type":"node","id":258944303,"lat":41.8541867,"lon":-87.7063268,"tags":{"level":"1","name":"Kedzie","network":"CTA","operator":"Chicago Transit Authority","operator:wikidata":"Q117309","public_transport":"stop_position","railway":"stop","subway":"yes"}},{"type":"node","id":258944305,"lat":41.85405,"lon":-87.7151395,"tags":{"name":"Central Park","network":"CTA","operator":"Chicago Transit Authority","operator:wikidata":"Q117309","public_transport":"stop_position","railway":"stop","subway":"yes"}},{"type":"node","id":258944306,"lat":41.8539117,"lon":-87.7245914,"tags":{"name":"Pulaski","network":"CTA","operator":"Chicago Transit Authority","operator:wikidata":"Q117309","public_transport":"stop_position","railway":"stop","subway":"yes"}},{"type":"node","id":258945067,"lat":41.8874024,"lon":-87.7649609,"tags":{"name":"Central","network":"CTA","operator":"Chicago Transit Authority","operator:wikidata":"Q117309","public_transport":"stop_position","railway":"stop","subway":"yes"}},{"type":"node","id":258945068,"lat":41.8872914,"lon":-87.773615,"tags":{"name":"Austin","network":"CTA","operator":"Chicago Transit Authority","operator:wikidata":"Q117309","public_transport":"stop_position","railway":"stop","subway":"yes"}},{"type":"node","id":258945069,"lat":41.8871713,"lon":-87.7827868,"tags":{"name":"Ridgeland","network":"CTA","operator":"Chicago Transit Authority","operator:wikidata":"Q117309","public_transport":"stop_position","railway":"stop","subway":"yes"}},{"type":"node","id":258945070,"lat":41.8870252,"lon":-87.7932243,"tags":{"name":"Oak Park","network":"CTA","operator":"Chicago Transit Authority","operator:wikidata":"Q117309","public_transport":"stop_position","railway":"stop","subway":"yes"}},{"type":"node","id":258945073,"lat":41.886848,"lon":-87.8032294,"tags":{"name":"Harlem/Lake","network":"CTA","operator":"Chicago Transit Authority","operator:wikidata":"Q117309","public_transport":"stop_position","railway":"stop","subway":"yes"}},{"type":"node","id":258945081,"lat":41.8842342,"lon":-87.6961672,"tags":{"name":"California","network":"CTA","operator":"Chicago Transit Authority","operator:wikidata":"Q117309","public_transport":"stop_position","railway":"stop","subway":"yes"}},{"type":"node","id":258945084,"lat":41.884287,"lon":-87.7055282,"tags":{"name":"Kedzie","network":"CTA","operator":"Chicago Transit Authority","operator:wikidata":"Q117309","public_transport":"stop_position","railway":"stop","subway":"yes"}},{"type":"node","id":258945087,"lat":41.8854601,"lon":-87.7263462,"tags":{"name":"Pulaski","network":"CTA","operator":"Chicago Transit Authority","operator:wikidata":"Q117309","public_transport":"stop_position","railway":"stop","subway":"yes"}},{"type":"node","id":258945097,"lat":41.8870792,"lon":-87.7538629,"tags":{"name":"Laramie","network":"CTA","operator":"Chicago Transit Authority","operator:wikidata":"Q117309","public_transport":"stop_position","railway":"stop","subway":"yes"}},{"type":"node","id":258963130,"lat":41.8083375,"lon":-87.618855,"tags":{"name":"47th","network":"CTA","operator":"Chicago Transit Authority","operator:wikidata":"Q117309","public_transport":"stop_position","railway":"stop","subway":"yes"}},{"type":"node","id":258963136,"lat":41.8018621,"lon":-87.6185429,"tags":{"name":"51st","network":"CTA","operator":"Chicago Transit Authority","operator:wikidata":"Q117309","public_transport":"stop_position","railway":"stop","subway":"yes"}},{"type":"node","id":263826095,"lat":41.984315,"lon":-87.836978,"tags":{"name":"Cumberland","network":"CTA","operator":"Chicago Transit Authority","operator:wikidata":"Q117309","public_transport":"stop_position","railway":"stop","subway":"yes"}},{"type":"node","id":266656859,"lat":41.9703365,"lon":-87.7602828,"tags":{"name":"Jefferson Park","network":"CTA","operator":"Chicago Transit Authority","operator:wikidata":"Q117309","public_transport":"stop_position","railway":"stop","subway":"yes"}},{"type":"node","id":306084356,"lat":41.9524,"lon":-87.7282827,"tags":{"name":"Irving Park","network":"CTA","operator":"Chicago Transit Authority","operator:wikidata":"Q117309","public_transport":"stop_position","railway":"stop","subway":"yes"}},{"type":"node","id":365490450,"lat":41.9642192,"lon":-87.6577546,"tags":{"name":"Wilson","network":"CTA","operator":"Chicago Transit Authority","operator:wikidata":"Q117309","public_transport":"stop_position","railway":"stop","subway":"yes"}},{"type":"node","id":386342904,"lat":41.9836364,"lon":-87.8601126,"tags":{"name":"Rosemont","network":"CTA","operator":"Chicago Transit Authority","operator:wikidata":"Q117309","public_transport":"stop_position","railway":"stop","subway":"yes"}},{"type":"node","id":387573439,"lat":41.7501488,"lon":-87.6251106,"tags":{"name":"79th","network":"CTA","operator":"Chicago Transit Authority","operator:wikidata":"Q117309","public_transport":"stop_position","railway":"stop","subway":"yes"}},{"type":"node","id":389153234,"lat":41.9727803,"lon":-87.6585945,"tags":{"name":"Argyle","network":"CTA","operator":"Chicago Transit Authority","operator:wikidata":"Q117309","public_transport":"stop_position","railway":"stop","subway":"yes"}},{"type":"node","id":389153439,"lat":41.9775714,"lon":-87.6587208,"tags":{"name":"Berwyn","network":"CTA","operator":"Chicago Transit Authority","operator:wikidata":"Q117309","public_transport":"stop_position","railway":"stop","subway":"yes"}},{"type":"node","id":497436468,"lat":41.8864612,"lon":-87.7436716,"tags":{"name":"Cicero","network":"CTA","operator":"Chicago Transit Authority","operator:wikidata":"Q117309","public_transport":"stop_position","railway":"stop","subway":"yes"}},{"type":"node","id":497437065,"lat":41.8848693,"lon":-87.7156154,"tags":{"name":"Conservatory-Central Park Drive","network":"CTA","operator":"Chicago Transit Authority","operator:wikidata":"Q117309","public_transport":"stop_position","railway":"stop","short_name":"Conservatory","subway":"yes"}},{"type":"node","id":705736885,"lat":41.8297329,"lon":-87.6801802,"tags":{"name":"35th/Archer","network":"CTA","operator":"Chicago Transit Authority","operator:wikidata":"Q117309","public_transport":"stop_position","railway":"stop","subway":"yes"}},{"type":"node","id":734513119,"lat":41.96518,"lon":-87.6578809,"tags":{"name":"Wilson","network":"CTA","operator":"Chicago Transit Authority","operator:wikidata":"Q117309","public_transport":"stop_position","railway":"stop","subway":"yes"}},{"type":"node","id":734563511,"lat":41.948009,"lon":-87.6535909,"tags":{"name":"Addison","network":"CTA","operator":"Chicago Transit Authority","operator:wikidata":"Q117309","public_transport":"stop_position","railway":"stop","subway":"yes"}},{"type":"node","id":734565285,"lat":41.9470211,"lon":-87.6536633,"tags":{"name":"Addison","network":"CTA","operator":"Chicago Transit Authority","operator:wikidata":"Q117309","public_transport":"stop_position","railway":"stop","subway":"yes"}},{"type":"node","id":734816046,"lat":42.0267741,"lon":-87.7475424,"tags":{"name":"Oakton-Skokie","network":"CTA","operator":"Chicago Transit Authority","operator:wikidata":"Q117309","public_transport":"stop_position","railway":"stop","subway":"yes"}},{"type":"node","id":734816084,"lat":42.0274264,"lon":-87.7476061,"tags":{"name":"Oakton-Skokie","network":"CTA","operator":"Chicago Transit Authority","operator:wikidata":"Q117309","public_transport":"stop_position","railway":"stop","subway":"yes"}},{"type":"node","id":734816101,"lat":42.0392177,"lon":-87.7520893,"tags":{"name":"Dempster-Skokie","network":"CTA","operator":"Chicago Transit Authority","operator:wikidata":"Q117309","public_transport":"stop_position","railway":"stop","subway":"yes"}},{"type":"node","id":736014788,"lat":41.8759148,"lon":-87.6603717,"tags":{"name":"Racine","network":"CTA","operator":"Chicago Transit Authority","operator:wikidata":"Q117309","public_transport":"stop_position","railway":"stop","subway":"yes"}},{"type":"node","id":736014811,"lat":41.8756467,"lon":-87.6722913,"tags":{"name":"Illinois Medical District","network":"CTA","operator":"Chicago Transit Authority","operator:wikidata":"Q117309","public_transport":"stop_position","railway":"stop","subway":"yes"}},{"type":"node","id":736035840,"lat":41.9093155,"lon":-87.6768204,"tags":{"name":"Damen","public_transport":"stop_position","railway":"stop","subway":"yes"}},{"type":"node","id":736638456,"lat":41.8855996,"lon":-87.6508564,"tags":{"name":"Morgan","network":"CTA","operator":"Chicago Transit Authority","operator:wikidata":"Q117309","public_transport":"stop_position","railway":"stop","subway":"yes"}},{"type":"node","id":736638542,"lat":41.8857031,"lon":-87.6412327,"tags":{"name":"Clinton","network":"CTA","operator":"Chicago Transit Authority","operator:wikidata":"Q117309","public_transport":"stop_position","railway":"stop","subway":"yes"}},{"type":"node","id":736639177,"lat":41.8856087,"lon":-87.6522219,"tags":{"name":"Morgan","network":"CTA","operator":"Chicago Transit Authority","operator:wikidata":"Q117309","public_transport":"stop_position","railway":"stop","subway":"yes"}},{"type":"node","id":736639292,"lat":41.8853432,"lon":-87.6673051,"tags":{"name":"Ashland","network":"CTA","operator":"Chicago Transit Authority","operator:wikidata":"Q117309","public_transport":"stop_position","railway":"stop","subway":"yes"}},{"type":"node","id":736686420,"lat":41.8768709,"lon":-87.6307394,"tags":{"name":"LaSalle/Van Buren","network":"CTA","operator":"Chicago Transit Authority","operator:wikidata":"Q117309","public_transport":"stop_position","railway":"stop","subway":"yes"}},{"type":"node","id":736686433,"lat":41.8769013,"lon":-87.6281932,"tags":{"name":"Harold Washington Library-State/Van Buren","network":"CTA","operator":"Chicago Transit Authority","operator:wikidata":"Q117309","public_transport":"stop_position","railway":"stop","subway":"yes"}},{"type":"node","id":736686706,"lat":41.8769149,"lon":-87.6297544,"tags":{"name":"Harold Washington Library-State/Van Buren","network":"CTA","operator":"Chicago Transit Authority","operator:wikidata":"Q117309","public_transport":"stop_position","railway":"stop","subway":"yes"}},{"type":"node","id":736686728,"lat":41.8768877,"lon":-87.632159,"tags":{"name":"LaSalle/Van Buren","network":"CTA","operator":"Chicago Transit Authority","operator:wikidata":"Q117309","public_transport":"stop_position","railway":"stop","subway":"yes"}},{"type":"node","id":738165289,"lat":41.8466615,"lon":-87.648732,"tags":{"name":"Halsted","public_transport":"stop_position","railway":"stop","subway":"yes"}},{"type":"node","id":738165401,"lat":41.8391531,"lon":-87.6658325,"tags":{"name":"Ashland","public_transport":"stop_position","railway":"stop","subway":"yes"}},{"type":"node","id":738195900,"lat":42.0731803,"lon":-87.690704,"tags":{"name":"Linden","network":"CTA","operator":"Chicago Transit Authority","operator:wikidata":"Q117309","public_transport":"stop_position","railway":"stop","railway:track_ref":"2","subway":"yes"}},{"type":"node","id":738195922,"lat":42.0643981,"lon":-87.6858962,"tags":{"local_ref":"6","name":"Central","network":"CTA","operator":"Chicago Transit Authority","operator:wikidata":"Q117309","public_transport":"stop_position","railway":"stop","subway":"yes"}},{"type":"node","id":739322024,"lat":41.9184795,"lon":-87.652588,"tags":{"name":"Armitage","network":"CTA","operator":"Chicago Transit Authority","operator:wikidata":"Q117309","public_transport":"stop_position","railway":"stop","subway":"yes"}},{"type":"node","id":739322025,"lat":41.9174531,"lon":-87.6526845,"tags":{"name":"Armitage","network":"CTA","operator":"Chicago Transit Authority","operator:wikidata":"Q117309","public_transport":"stop_position","railway":"stop","subway":"yes"}},{"type":"node","id":739322281,"lat":41.9359264,"lon":-87.6533221,"tags":{"name":"Wellington","network":"CTA","operator":"Chicago Transit Authority","operator:wikidata":"Q117309","public_transport":"stop_position","railway":"stop","subway":"yes"}},{"type":"node","id":739322583,"lat":41.9369482,"lon":-87.6532254,"tags":{"name":"Wellington","network":"CTA","operator":"Chicago Transit Authority","operator:wikidata":"Q117309","public_transport":"stop_position","railway":"stop","subway":"yes"}},{"type":"node","id":924678447,"lat":41.896307,"lon":-87.6356819,"tags":{"name":"Chicago","network":"CTA","operator":"Chicago Transit Authority","operator:wikidata":"Q117309","public_transport":"stop_position","railway":"stop","subway":"yes"}},{"type":"node","id":1210043924,"lat":41.7862556,"lon":-87.7380331,"tags":{"name":"Midway","network":"CTA","operator":"Chicago Transit Authority","operator:wikidata":"Q117309","public_transport":"stop_position","railway":"stop","subway":"yes"}},{"type":"node","id":1280853416,"lat":41.8755044,"lon":-87.6877127,"tags":{"name":"Western","network":"CTA","operator":"Chicago Transit Authority","operator:wikidata":"Q117309","public_transport":"stop_position","railway":"stop","subway":"yes"}},{"type":"node","id":1280853432,"lat":41.8741933,"lon":-87.7075358,"tags":{"name":"Kedzie-Homan","network":"CTA","operator":"Chicago Transit Authority","operator:wikidata":"Q117309","public_transport":"stop_position","railway":"stop","subway":"yes"}},{"type":"node","id":1280923905,"lat":41.8541151,"lon":-87.7050036,"tags":{"level":"1","name":"Kedzie","network":"CTA","operator":"Chicago Transit Authority","operator:wikidata":"Q117309","public_transport":"stop_position","railway":"stop","subway":"yes"}},{"type":"node","id":1280939559,"lat":41.8043897,"lon":-87.7050152,"tags":{"name":"Kedzie","network":"CTA","public_transport":"stop_position","railway":"stop","subway":"yes"}},{"type":"node","id":1280939573,"lat":41.799686,"lon":-87.7251535,"tags":{"name":"Pulaski","network":"CTA","public_transport":"stop_position","railway":"stop","subway":"yes"}},{"type":"node","id":1280962822,"lat":41.9680987,"lon":-87.7131312,"tags":{"local_ref":"2","name":"Kimball","network":"CTA","operator":"Chicago Transit Authority","operator:wikidata":"Q117309","public_transport":"stop_position","railway":"stop","subway":"yes"}},{"type":"node","id":1282296292,"lat":41.922397,"lon":-87.6975132,"tags":{"name":"California","network":"CTA","operator":"Chicago Transit Authority","operator:wikidata":"Q117309","public_transport":"stop_position","railway":"stop","subway":"yes"}},{"type":"node","id":1282296301,"lat":41.9618862,"lon":-87.7441181,"tags":{"name":"Montrose","network":"CTA","operator":"Chicago Transit Authority","operator:wikidata":"Q117309","public_transport":"stop_position","railway":"stop","subway":"yes"}},{"type":"node","id":1282296369,"lat":41.9215864,"lon":-87.6962417,"tags":{"name":"California","network":"CTA","operator":"Chicago Transit Authority","operator:wikidata":"Q117309","public_transport":"stop_position","railway":"stop","subway":"yes"}},{"type":"node","id":1283483516,"lat":41.8095475,"lon":-87.6188448,"tags":{"name":"47th","network":"CTA","operator":"Chicago Transit Authority","operator:wikidata":"Q117309","public_transport":"stop_position","railway":"stop","subway":"yes"}},{"type":"node","id":1283483584,"lat":41.8029733,"lon":-87.618527,"tags":{"name":"51st","network":"CTA","operator":"Chicago Transit Authority","operator:wikidata":"Q117309","public_transport":"stop_position","railway":"stop","subway":"yes"}},{"type":"node","id":1283483703,"lat":41.8324973,"lon":-87.6258428,"tags":{"name":"35th-Bronzeville-IIT","network":"CTA","operator":"Chicago Transit Authority","operator:wikidata":"Q117309","public_transport":"stop_position","railway":"stop","subway":"yes","wheelchair":"yes"}},{"type":"node","id":1291113573,"lat":41.9620505,"lon":-87.6751462,"tags":{"name":"Montrose","network":"CTA","operator":"Chicago Transit Authority","operator:wikidata":"Q117309","public_transport":"stop_position","railway":"stop","subway":"yes"}},{"type":"node","id":1291113642,"lat":41.9546391,"lon":-87.674938,"tags":{"name":"Irving Park","network":"CTA","operator":"Chicago Transit Authority","operator:wikidata":"Q117309","public_transport":"stop_position","railway":"stop","subway":"yes"}},{"type":"node","id":1291113644,"lat":41.943833,"lon":-87.6643569,"tags":{"name":"Southport","network":"CTA","operator":"Chicago Transit Authority","operator:wikidata":"Q117309","public_transport":"stop_position","railway":"stop","subway":"yes","wheelchair":"yes"}},{"type":"node","id":1291153198,"lat":41.7803895,"lon":-87.6056232,"tags":{"name":"Cottage Grove","network":"CTA","operator":"Chicago Transit Authority","operator:wikidata":"Q117309","public_transport":"stop_position","railway":"stop","subway":"yes"}},{"type":"node","id":1291153392,"lat":41.7790576,"lon":-87.6437762,"tags":{"name":"Halsted","network":"CTA","operator":"Chicago Transit Authority","operator:wikidata":"Q117309","public_transport":"stop_position","railway":"stop","subway":"yes"}},{"type":"node","id":1387760742,"lat":41.9662929,"lon":-87.6891293,"tags":{"name":"Western","network":"CTA","operator":"Chicago Transit Authority","operator:wikidata":"Q117309","public_transport":"stop_position","railway":"stop","subway":"yes","wheelchair":"yes"}},{"type":"node","id":1432726747,"lat":41.9661216,"lon":-87.7103831,"tags":{"name":"Kedzie","network":"CTA","operator":"Chicago Transit Authority","operator:wikidata":"Q117309","public_transport":"stop_position","railway":"stop","subway":"yes"}},{"type":"node","id":1432726753,"lat":41.9660701,"lon":-87.7090323,"tags":{"name":"Kedzie","network":"CTA","operator":"Chicago Transit Authority","operator:wikidata":"Q117309","public_transport":"stop_position","railway":"stop","subway":"yes"}},{"type":"node","id":1432732157,"lat":41.9661262,"lon":-87.7016956,"tags":{"name":"Francisco","network":"CTA","operator":"Chicago Transit Authority","operator:wikidata":"Q117309","public_transport":"stop_position","railway":"stop","subway":"yes"}},{"type":"node","id":1432732160,"lat":41.9661805,"lon":-87.7030419,"tags":{"name":"Francisco","network":"CTA","operator":"Chicago Transit Authority","operator:wikidata":"Q117309","public_transport":"stop_position","railway":"stop","subway":"yes"}},{"type":"node","id":1432737872,"lat":41.9661867,"lon":-87.6943527,"tags":{"name":"Rockwell","network":"CTA","operator":"Chicago Transit Authority","operator:wikidata":"Q117309","public_transport":"stop_position","railway":"stop","subway":"yes"}},{"type":"node","id":1432737882,"lat":41.96624,"lon":-87.6957135,"tags":{"name":"Rockwell","network":"CTA","operator":"Chicago Transit Authority","operator:wikidata":"Q117309","public_transport":"stop_position","railway":"stop","subway":"yes"}},{"type":"node","id":1435427479,"lat":41.9479349,"lon":-87.6747367,"tags":{"name":"Addison","network":"CTA","operator":"Chicago Transit Authority","operator:wikidata":"Q117309","public_transport":"stop_position","railway":"stop","subway":"yes"}},{"type":"node","id":1435427483,"lat":41.9664094,"lon":-87.6798614,"tags":{"name":"Damen","network":"CTA","operator":"Chicago Transit Authority","operator:wikidata":"Q117309","public_transport":"stop_position","railway":"stop","subway":"yes","wheelchair":"yes"}},{"type":"node","id":1435427486,"lat":41.9437262,"lon":-87.6715614,"tags":{"name":"Paulina","network":"CTA","operator":"Chicago Transit Authority","operator:wikidata":"Q117309","public_transport":"stop_position","railway":"stop","subway":"yes","wheelchair":"yes"}},{"type":"node","id":1659866420,"lat":42.0329731,"lon":-87.6796201,"tags":{"name":"Main","network":"CTA","operator":"Chicago Transit Authority","operator:wikidata":"Q117309","public_transport":"stop_position","railway":"stop","subway":"yes"}},{"type":"node","id":1722519080,"lat":41.8738657,"lon":-87.627547,"tags":{"name":"Harrison","network":"CTA","operator":"Chicago Transit Authority","operator:wikidata":"Q117309","public_transport":"stop_position","railway":"stop","subway":"yes"}},{"type":"node","id":1722519084,"lat":41.8786796,"lon":-87.6276569,"tags":{"name":"Jackson","network":"CTA","operator":"Chicago Transit Authority","operator:wikidata":"Q117309","public_transport":"stop_position","railway":"stop","subway":"yes"}},{"type":"node","id":1722519085,"lat":41.8812528,"lon":-87.6277287,"tags":{"name":"Monroe","network":"CTA","operator":"Chicago Transit Authority","operator:wikidata":"Q117309","public_transport":"stop_position","railway":"stop","subway":"yes"}},{"type":"node","id":1722519093,"lat":41.8920811,"lon":-87.6280602,"tags":{"name":"Grand","network":"CTA","operator":"Chicago Transit Authority","operator:wikidata":"Q117309","public_transport":"stop_position","railway":"stop","subway":"yes"}},{"type":"node","id":1722519113,"lat":41.9039252,"lon":-87.6326818,"tags":{"name":"Clark/Division","network":"CTA","operator":"Chicago Transit Authority","operator:wikidata":"Q117309","public_transport":"stop_position","railway":"stop","subway":"yes"}},{"type":"node","id":1925444958,"lat":41.8873358,"lon":-87.7749598,"tags":{"name":"Austin","network":"CTA","operator":"Chicago Transit Authority","operator:wikidata":"Q117309","public_transport":"stop_position","railway":"stop","subway":"yes"}},{"type":"node","id":1925444961,"lat":41.8842496,"lon":-87.69754,"tags":{"name":"California","network":"CTA","operator":"Chicago Transit Authority","operator:wikidata":"Q117309","public_transport":"stop_position","railway":"stop","subway":"yes"}},{"type":"node","id":1925444985,"lat":41.8850152,"lon":-87.7169586,"tags":{"name":"Conservatory-Central Park Drive","network":"CTA","operator":"Chicago Transit Authority","operator:wikidata":"Q117309","public_transport":"stop_position","railway":"stop","short_name":"Conservatory","subway":"yes"}},{"type":"node","id":1925445017,"lat":41.8856071,"lon":-87.7277001,"tags":{"name":"Pulaski","network":"CTA","operator":"Chicago Transit Authority","operator:wikidata":"Q117309","public_transport":"stop_position","railway":"stop","subway":"yes"}},{"type":"node","id":1925445034,"lat":41.8868888,"lon":-87.8049182,"tags":{"name":"Harlem/Lake","network":"CTA","operator":"Chicago Transit Authority","operator:wikidata":"Q117309","public_transport":"stop_position","railway":"stop","subway":"yes"}},{"type":"node","id":1925445038,"lat":41.8872125,"lon":-87.7842148,"tags":{"name":"Ridgeland","network":"CTA","operator":"Chicago Transit Authority","operator:wikidata":"Q117309","public_transport":"stop_position","railway":"stop","subway":"yes"}},{"type":"node","id":1925445043,"lat":41.8870662,"lon":-87.7944058,"tags":{"name":"Oak Park","network":"CTA","operator":"Chicago Transit Authority","operator:wikidata":"Q117309","public_transport":"stop_position","railway":"stop","subway":"yes"}},{"type":"node","id":2004713101,"lat":41.9330119,"lon":-87.6530742,"tags":{"name":"Diversey","network":"CTA","operator":"Chicago Transit Authority","operator:wikidata":"Q117309","public_transport":"stop_position","railway":"stop","subway":"yes"}},{"type":"node","id":2004713106,"lat":41.9319838,"lon":-87.653179,"tags":{"name":"Diversey","network":"CTA","operator":"Chicago Transit Authority","operator:wikidata":"Q117309","public_transport":"stop_position","railway":"stop","subway":"yes"}},{"type":"node","id":2012549082,"lat":41.9247511,"lon":-87.6529358,"tags":{"local_ref":"1","name":"Fullerton","network":"CTA","operator":"Chicago Transit Authority","operator:wikidata":"Q117309","public_transport":"stop_position","railway":"stop","subway":"yes","wheelchair":"yes"}},{"type":"node","id":2012549083,"lat":41.9256024,"lon":-87.6526956,"tags":{"local_ref":"4","name":"Fullerton","network":"CTA","operator":"Chicago Transit Authority","operator:wikidata":"Q117309","public_transport":"stop_position","railway":"stop","subway":"yes","wheelchair":"yes"}},{"type":"node","id":2012780408,"lat":41.9104283,"lon":-87.6396303,"tags":{"name":"Sedgwick","network":"CTA","operator":"Chicago Transit Authority","operator:wikidata":"Q117309","public_transport":"stop_position","railway":"stop","subway":"yes"}},{"type":"node","id":2012780433,"lat":41.9104021,"lon":-87.6382736,"tags":{"name":"Sedgwick","network":"CTA","operator":"Chicago Transit Authority","operator:wikidata":"Q117309","public_transport":"stop_position","railway":"stop","subway":"yes"}},{"type":"node","id":2012967763,"lat":41.895307,"lon":-87.6356985,"tags":{"name":"Chicago","network":"CTA","operator":"Chicago Transit Authority","operator:wikidata":"Q117309","public_transport":"stop_position","railway":"stop","subway":"yes"}},{"type":"node","id":2012979483,"lat":41.8882964,"lon":-87.6340398,"tags":{"name":"Merchandise Mart","network":"CTA","operator":"Chicago Transit Authority","operator:wikidata":"Q117309","public_transport":"stop_position","railway":"stop","subway":"yes"}},{"type":"node","id":2012979495,"lat":41.8893197,"lon":-87.634004,"tags":{"name":"Merchandise Mart","network":"CTA","operator":"Chicago Transit Authority","operator:wikidata":"Q117309","public_transport":"stop_position","railway":"stop","subway":"yes"}},{"type":"node","id":2013902273,"lat":41.8829779,"lon":-87.6338528,"tags":{"name":"Washington/Wells","network":"CTA","operator":"Chicago Transit Authority","operator:wikidata":"Q117309","public_transport":"stop_position","railway":"stop","subway":"yes"}},{"type":"node","id":2013902280,"lat":41.8817974,"lon":-87.6338657,"tags":{"name":"Washington/Wells","network":"CTA","operator":"Chicago Transit Authority","operator:wikidata":"Q117309","public_transport":"stop_position","railway":"stop","subway":"yes"}},{"type":"node","id":2014092150,"lat":41.8782214,"lon":-87.633772,"tags":{"name":"Quincy","network":"CTA","operator":"Chicago Transit Authority","operator:wikidata":"Q117309","public_transport":"stop_position","railway":"stop","subway":"yes"}},{"type":"node","id":2014092173,"lat":41.8792996,"lon":-87.6337557,"tags":{"name":"Quincy","network":"CTA","operator":"Chicago Transit Authority","operator:wikidata":"Q117309","public_transport":"stop_position","railway":"stop","subway":"yes"}},{"type":"node","id":2014100269,"lat":41.9392347,"lon":-87.6534637,"tags":{"local_ref":"1","name":"Belmont","network":"CTA","operator":"Chicago Transit Authority","operator:wikidata":"Q117309","public_transport":"stop_position","railway":"stop","subway":"yes"}},{"type":"node","id":2014100270,"lat":41.9402359,"lon":-87.6532084,"tags":{"local_ref":"4","name":"Belmont","network":"CTA","operator":"Chicago Transit Authority","operator:wikidata":"Q117309","public_transport":"stop_position","railway":"stop","subway":"yes"}},{"type":"node","id":2014360932,"lat":41.8801684,"lon":-87.6261244,"tags":{"name":"Adams/Wabash","network":"CTA","operator":"Chicago Transit Authority","operator:wikidata":"Q117309","public_transport":"stop_position","railway":"stop","subway":"yes"}},{"type":"node","id":2014360953,"lat":41.8789431,"lon":-87.6261398,"tags":{"name":"Adams/Wabash","network":"CTA","operator":"Chicago Transit Authority","operator:wikidata":"Q117309","public_transport":"stop_position","railway":"stop","subway":"yes"}},{"type":"node","id":2015352819,"lat":41.8857303,"lon":-87.6306151,"tags":{"name":"Clark/Lake","public_transport":"stop_position","railway":"stop","subway":"yes"}},{"type":"node","id":2015352823,"lat":41.8857623,"lon":-87.6321329,"tags":{"name":"Clark/Lake","network":"CTA","operator":"Chicago Transit Authority","operator:wikidata":"Q117309","public_transport":"stop_position","railway":"stop","subway":"yes"}},{"type":"node","id":2016950589,"lat":41.8047216,"lon":-87.6849886,"tags":{"name":"Western","network":"CTA","public_transport":"stop_position","railway":"stop","subway":"yes"}},{"type":"node","id":2016969839,"lat":41.8291429,"lon":-87.6813133,"tags":{"name":"35th/Archer","network":"CTA","operator":"Chicago Transit Authority","operator:wikidata":"Q117309","public_transport":"stop_position","railway":"stop","subway":"yes"}},{"type":"node","id":2016975924,"lat":41.8396264,"lon":-87.6646469,"tags":{"name":"Ashland","public_transport":"stop_position","railway":"stop","subway":"yes"}},{"type":"node","id":2016981818,"lat":41.8471893,"lon":-87.6474739,"tags":{"name":"Halsted","public_transport":"stop_position","railway":"stop","subway":"yes"}},{"type":"node","id":2017008343,"lat":41.8669523,"lon":-87.626714,"tags":{"name":"Roosevelt","network":"CTA","operator":"Chicago Transit Authority","operator:wikidata":"Q117309","public_transport":"stop_position","railway":"stop","subway":"yes"}},{"type":"node","id":2022110661,"lat":41.9538906,"lon":-87.6546127,"tags":{"name":"Sheridan","network":"CTA","operator":"Chicago Transit Authority","operator:wikidata":"Q117309","public_transport":"stop_position","railway":"stop","subway":"yes"}},{"type":"node","id":2022110663,"lat":41.9538967,"lon":-87.6558921,"tags":{"name":"Sheridan","network":"CTA","operator":"Chicago Transit Authority","operator:wikidata":"Q117309","public_transport":"stop_position","railway":"stop","subway":"yes"}},{"type":"node","id":2022136112,"lat":41.9700484,"lon":-87.6584261,"tags":{"name":"Lawrence","network":"CTA","operator":"Chicago Transit Authority","operator:wikidata":"Q117309","public_transport":"stop_position","railway":"stop","subway":"yes"}},{"type":"node","id":2022160071,"lat":41.9896851,"lon":-87.6590779,"tags":{"name":"Thorndale","network":"CTA","operator":"Chicago Transit Authority","operator:wikidata":"Q117309","public_transport":"stop_position","railway":"stop","subway":"yes"}},{"type":"node","id":2022160077,"lat":42.0004961,"lon":-87.6604475,"tags":{"name":"Loyola","network":"CTA","operator":"Chicago Transit Authority","operator:wikidata":"Q117309","public_transport":"stop_position","railway":"stop","subway":"yes"}},{"type":"node","id":2022160093,"lat":41.9930618,"lon":-87.6591898,"tags":{"name":"Granville","network":"CTA","operator":"Chicago Transit Authority","operator:wikidata":"Q117309","public_transport":"stop_position","railway":"stop","subway":"yes"}},{"type":"node","id":2022160099,"lat":41.9788439,"lon":-87.6586468,"tags":{"name":"Berwyn","network":"CTA","operator":"Chicago Transit Authority","operator:wikidata":"Q117309","public_transport":"stop_position","railway":"stop","subway":"yes"}},{"type":"node","id":2022212518,"lat":41.7220688,"lon":-87.6244639,"tags":{"name":"95th/Dan Ryan","network":"CTA","operator":"Chicago Transit Authority","operator:wikidata":"Q117309","public_transport":"stop_position","railway":"stop","subway":"yes"}},{"type":"node","id":2023151049,"lat":42.0187047,"lon":-87.6725271,"tags":{"local_ref":"2;4;6","name":"Howard","network":"CTA","operator":"Chicago Transit Authority","operator:wikidata":"Q117309","public_transport":"stop_position","railway":"stop","subway":"yes"}},{"type":"node","id":2023151055,"lat":42.0186593,"lon":-87.6725923,"tags":{"local_ref":"2;4;6;8","name":"Howard","network":"CTA","operator":"Chicago Transit Authority","operator:wikidata":"Q117309","public_transport":"stop_position","railway":"stop","subway":"yes"}},{"type":"node","id":2023151056,"lat":42.0196566,"lon":-87.6734958,"tags":{"local_ref":"Y;8;6;4;2","mapillary":"1102625920226228","name":"Howard","network":"CTA","operator":"Chicago Transit Authority","operator:wikidata":"Q117309","public_transport":"stop_position","railway":"stop","subway":"yes"}},{"type":"node","id":2023151067,"lat":42.0196171,"lon":-87.6735635,"tags":{"local_ref":"Y;8;6;4;2","mapillary":"1441357642866687","name":"Howard","network":"CTA","operator":"Chicago Transit Authority","operator:wikidata":"Q117309","public_transport":"stop_position","railway":"stop","subway":"yes"}},{"type":"node","id":2023164151,"lat":42.0153879,"lon":-87.6685949,"tags":{"name":"Jarvis","network":"CTA","operator":"Chicago Transit Authority","operator:wikidata":"Q117309","public_transport":"stop_position","railway":"stop","subway":"yes"}},{"type":"node","id":2023164153,"lat":42.0161783,"lon":-87.6694399,"tags":{"name":"Jarvis","network":"CTA","operator":"Chicago Transit Authority","operator:wikidata":"Q117309","public_transport":"stop_position","railway":"stop","subway":"yes"}},{"type":"node","id":2023169768,"lat":42.0077347,"lon":-87.666004,"tags":{"name":"Morse","network":"CTA","operator":"Chicago Transit Authority","operator:wikidata":"Q117309","public_transport":"stop_position","railway":"stop","subway":"yes"}},{"type":"node","id":2023169775,"lat":42.0087381,"lon":-87.66595,"tags":{"name":"Morse","network":"CTA","operator":"Chicago Transit Authority","operator:wikidata":"Q117309","public_transport":"stop_position","railway":"stop","subway":"yes"}},{"type":"node","id":2023183660,"lat":42.001854,"lon":-87.662037,"tags":{"name":"Loyola","network":"CTA","operator":"Chicago Transit Authority","operator:wikidata":"Q117309","public_transport":"stop_position","railway":"stop","subway":"yes"}},{"type":"node","id":2023183682,"lat":41.9943662,"lon":-87.6591469,"tags":{"name":"Granville","network":"CTA","operator":"Chicago Transit Authority","operator:wikidata":"Q117309","public_transport":"stop_position","railway":"stop","subway":"yes"}},{"type":"node","id":2023196493,"lat":41.9906556,"lon":-87.659031,"tags":{"name":"Thorndale","network":"CTA","operator":"Chicago Transit Authority","operator:wikidata":"Q117309","public_transport":"stop_position","railway":"stop","subway":"yes"}},{"type":"node","id":2023202874,"lat":41.9836153,"lon":-87.6588904,"tags":{"name":"Bryn Mawr","network":"CTA","operator":"Chicago Transit Authority","operator:wikidata":"Q117309","public_transport":"stop_position","railway":"stop","subway":"yes"}},{"type":"node","id":2023209946,"lat":41.9739926,"lon":-87.6585136,"tags":{"name":"Argyle","network":"CTA","operator":"Chicago Transit Authority","operator:wikidata":"Q117309","public_transport":"stop_position","railway":"stop","subway":"yes"}},{"type":"node","id":2023849151,"lat":41.7358077,"lon":-87.6248127,"tags":{"name":"87th","network":"CTA","operator":"Chicago Transit Authority","operator:wikidata":"Q117309","public_transport":"stop_position","railway":"stop","subway":"yes"}},{"type":"node","id":2023849157,"lat":41.7493988,"lon":-87.6251837,"tags":{"name":"79th","network":"CTA","operator":"Chicago Transit Authority","operator:wikidata":"Q117309","public_transport":"stop_position","railway":"stop","subway":"yes"}},{"type":"node","id":2023849163,"lat":41.7348043,"lon":-87.6246998,"tags":{"name":"87th","network":"CTA","operator":"Chicago Transit Authority","operator:wikidata":"Q117309","public_transport":"stop_position","railway":"stop","subway":"yes"}},{"type":"node","id":2023880724,"lat":41.7804411,"lon":-87.6310677,"tags":{"name":"63rd","network":"CTA","operator":"Chicago Transit Authority","operator:wikidata":"Q117309","public_transport":"stop_position","railway":"stop","subway":"yes"}},{"type":"node","id":2023880729,"lat":41.7675962,"lon":-87.62583,"tags":{"name":"69th","network":"CTA","operator":"Chicago Transit Authority","operator:wikidata":"Q117309","public_transport":"stop_position","railway":"stop","subway":"yes"}},{"type":"node","id":2023901719,"lat":41.796229,"lon":-87.6311842,"tags":{"name":"Garfield","network":"CTA","operator":"Chicago Transit Authority","operator:wikidata":"Q117309","public_transport":"stop_position","railway":"stop","subway":"yes"}},{"type":"node","id":2023901722,"lat":41.7952459,"lon":-87.6312405,"tags":{"name":"Garfield","network":"CTA","operator":"Chicago Transit Authority","operator:wikidata":"Q117309","public_transport":"stop_position","railway":"stop","subway":"yes"}},{"type":"node","id":2023910816,"lat":41.9402361,"lon":-87.6533757,"tags":{"local_ref":"2","name":"Belmont","network":"CTA","operator":"Chicago Transit Authority","operator:wikidata":"Q117309","public_transport":"stop_position","railway":"stop","subway":"yes"}},{"type":"node","id":2023910817,"lat":41.9392406,"lon":-87.6532992,"tags":{"local_ref":"3","name":"Belmont","network":"CTA","operator":"Chicago Transit Authority","operator:wikidata":"Q117309","public_transport":"stop_position","railway":"stop","subway":"yes"}},{"type":"node","id":2023910818,"lat":41.9247562,"lon":-87.65282,"tags":{"local_ref":"2","name":"Fullerton","network":"CTA","operator":"Chicago Transit Authority","operator:wikidata":"Q117309","public_transport":"stop_position","railway":"stop","subway":"yes","wheelchair":"yes"}},{"type":"node","id":2023910819,"lat":41.9256008,"lon":-87.652803,"tags":{"local_ref":"3","name":"Fullerton","network":"CTA","operator":"Chicago Transit Authority","operator:wikidata":"Q117309","public_transport":"stop_position","railway":"stop","subway":"yes","wheelchair":"yes"}},{"type":"node","id":2025031200,"lat":41.8099733,"lon":-87.6313347,"tags":{"name":"47th","network":"CTA","operator":"Chicago Transit Authority","operator:wikidata":"Q117309","public_transport":"stop_position","railway":"stop","subway":"yes"}},{"type":"node","id":2025031213,"lat":41.8108216,"lon":-87.6306906,"tags":{"name":"47th","network":"CTA","operator":"Chicago Transit Authority","operator:wikidata":"Q117309","public_transport":"stop_position","railway":"stop","subway":"yes"}},{"type":"node","id":2025042654,"lat":41.8316269,"lon":-87.6307288,"tags":{"name":"Sox-35th","network":"CTA","operator":"Chicago Transit Authority","operator:wikidata":"Q117309","public_transport":"stop_position","railway":"stop","subway":"yes"}},{"type":"node","id":2025042663,"lat":41.8329863,"lon":-87.6306696,"tags":{"name":"Sox-35th","network":"CTA","operator":"Chicago Transit Authority","operator:wikidata":"Q117309","public_transport":"stop_position","railway":"stop","subway":"yes"}},{"type":"node","id":2025084475,"lat":41.8528056,"lon":-87.6309599,"tags":{"name":"Cermak-Chinatown","network":"CTA","operator":"Chicago Transit Authority","operator:wikidata":"Q117309","public_transport":"stop_position","railway":"stop","subway":"yes"}},{"type":"node","id":2025084479,"lat":41.8543511,"lon":-87.6312374,"tags":{"name":"Cermak-Chinatown","network":"CTA","operator":"Chicago Transit Authority","operator:wikidata":"Q117309","public_transport":"stop_position","railway":"stop","subway":"yes"}},{"type":"node","id":2039094535,"lat":41.9110865,"lon":-87.6496949,"tags":{"name":"North/Clybourn","network":"CTA","operator":"Chicago Transit Authority","operator:wikidata":"Q117309","public_transport":"stop_position","railway":"stop","subway":"yes"}},{"type":"node","id":2039152472,"lat":41.7804351,"lon":-87.6067599,"tags":{"name":"Cottage Grove","network":"CTA","operator":"Chicago Transit Authority","operator:wikidata":"Q117309","public_transport":"stop_position","railway":"stop","subway":"yes"}},{"type":"node","id":2040075040,"lat":41.7802259,"lon":-87.6149352,"tags":{"name":"King Drive","network":"CTA","operator":"Chicago Transit Authority","operator:wikidata":"Q117309","public_transport":"stop_position","railway":"stop","subway":"yes"}},{"type":"node","id":2040075099,"lat":41.7802619,"lon":-87.6163333,"tags":{"name":"King Drive","network":"CTA","operator":"Chicago Transit Authority","operator:wikidata":"Q117309","public_transport":"stop_position","railway":"stop","subway":"yes"}},{"type":"node","id":2040102793,"lat":41.7790258,"lon":-87.6437839,"tags":{"name":"Halsted","network":"CTA","operator":"Chicago Transit Authority","operator:wikidata":"Q117309","public_transport":"stop_position","railway":"stop","subway":"yes"}},{"type":"node","id":2040146203,"lat":41.7789099,"lon":-87.6634429,"tags":{"name":"Ashland/63rd","network":"CTA","operator":"Chicago Transit Authority","operator:wikidata":"Q117309","public_transport":"stop_position","railway":"stop","subway":"yes"}},{"type":"node","id":2040146213,"lat":41.778984,"lon":-87.6647696,"tags":{"name":"Ashland/63rd","network":"CTA","operator":"Chicago Transit Authority","operator:wikidata":"Q117309","public_transport":"stop_position","railway":"stop","subway":"yes"}},{"type":"node","id":2040180352,"lat":41.795324,"lon":-87.6183761,"tags":{"name":"Garfield","network":"CTA","operator":"Chicago Transit Authority","operator:wikidata":"Q117309","public_transport":"stop_position","railway":"stop","subway":"yes"}},{"type":"node","id":2040180359,"lat":41.795324,"lon":-87.6183326,"tags":{"name":"Garfield","network":"CTA","operator":"Chicago Transit Authority","operator:wikidata":"Q117309","public_transport":"stop_position","railway":"stop","subway":"yes"}},{"type":"node","id":2040259424,"lat":41.8157167,"lon":-87.6190582,"tags":{"name":"43rd","network":"CTA","operator":"Chicago Transit Authority","operator:wikidata":"Q117309","public_transport":"stop_position","railway":"stop","subway":"yes"}},{"type":"node","id":2040259452,"lat":41.8168413,"lon":-87.619047,"tags":{"name":"43rd","network":"CTA","operator":"Chicago Transit Authority","operator:wikidata":"Q117309","public_transport":"stop_position","railway":"stop","subway":"yes"}},{"type":"node","id":2040290139,"lat":41.82183,"lon":-87.6226457,"tags":{"name":"Indiana","network":"CTA","operator":"Chicago Transit Authority","operator:wikidata":"Q117309","public_transport":"stop_position","railway":"stop","subway":"yes"}},{"type":"node","id":2040290163,"lat":41.8218171,"lon":-87.6212241,"tags":{"name":"Indiana","network":"CTA","operator":"Chicago Transit Authority","operator:wikidata":"Q117309","public_transport":"stop_position","railway":"stop","subway":"yes"}},{"type":"node","id":2040304136,"lat":41.8324931,"lon":-87.6259365,"tags":{"name":"35th-Bronzeville-IIT","network":"CTA","operator":"Chicago Transit Authority","operator:wikidata":"Q117309","public_transport":"stop_position","railway":"stop","subway":"yes","wheelchair":"yes"}},{"type":"node","id":2042025605,"lat":41.8857322,"lon":-87.6424683,"tags":{"name":"Clinton","network":"CTA","operator":"Chicago Transit Authority","operator:wikidata":"Q117309","public_transport":"stop_position","railway":"stop","subway":"yes"}},{"type":"node","id":2042074138,"lat":41.8853405,"lon":-87.6658335,"tags":{"name":"Ashland","network":"CTA","operator":"Chicago Transit Authority","operator:wikidata":"Q117309","public_transport":"stop_position","railway":"stop","subway":"yes"}},{"type":"node","id":2042812612,"lat":41.8844306,"lon":-87.7068791,"tags":{"name":"Kedzie","network":"CTA","operator":"Chicago Transit Authority","operator:wikidata":"Q117309","public_transport":"stop_position","railway":"stop","subway":"yes"}},{"type":"node","id":2043012974,"lat":41.8865989,"lon":-87.7449721,"tags":{"name":"Cicero","network":"CTA","operator":"Chicago Transit Authority","operator:wikidata":"Q117309","public_transport":"stop_position","railway":"stop","subway":"yes"}},{"type":"node","id":2043044673,"lat":41.8872317,"lon":-87.7553458,"tags":{"name":"Laramie","network":"CTA","operator":"Chicago Transit Authority","operator:wikidata":"Q117309","public_transport":"stop_position","railway":"stop","subway":"yes"}},{"type":"node","id":2043060916,"lat":41.8874508,"lon":-87.7663345,"tags":{"name":"Central","network":"CTA","operator":"Chicago Transit Authority","operator:wikidata":"Q117309","public_transport":"stop_position","railway":"stop","subway":"yes"}},{"type":"node","id":2051982638,"lat":41.8756881,"lon":-87.6740341,"tags":{"name":"Illinois Medical District","network":"CTA","operator":"Chicago Transit Authority","operator:wikidata":"Q117309","public_transport":"stop_position","railway":"stop","subway":"yes"}},{"type":"node","id":2052014671,"lat":41.8719769,"lon":-87.7905939,"tags":{"name":"Oak Park","network":"CTA","operator":"Chicago Transit Authority","operator:wikidata":"Q117309","public_transport":"stop_position","railway":"stop","subway":"yes"}},{"type":"node","id":2052014698,"lat":41.8722001,"lon":-87.792493,"tags":{"name":"Oak Park","network":"CTA","operator":"Chicago Transit Authority","operator:wikidata":"Q117309","public_transport":"stop_position","railway":"stop","subway":"yes"}},{"type":"node","id":2052014720,"lat":41.8736619,"lon":-87.8077843,"tags":{"name":"Harlem","network":"CTA","operator":"Chicago Transit Authority","operator:wikidata":"Q117309","public_transport":"stop_position","railway":"stop","subway":"yes"}},{"type":"node","id":2052893600,"lat":42.0388621,"lon":-87.7520251,"tags":{"name":"Dempster-Skokie","network":"CTA","operator":"Chicago Transit Authority","operator:wikidata":"Q117309","public_transport":"stop_position","railway":"stop","subway":"yes"}},{"type":"node","id":2074783182,"lat":41.874382,"lon":-87.8174502,"tags":{"name":"Forest Park","network":"CTA","operator":"Chicago Transit Authority","operator:wikidata":"Q117309","public_transport":"stop_position","railway":"stop","subway":"yes"}},{"type":"node","id":2074783191,"lat":41.8741634,"lon":-87.8160415,"tags":{"name":"Forest Park","network":"CTA","operator":"Chicago Transit Authority","operator:wikidata":"Q117309","public_transport":"stop_position","railway":"stop","subway":"yes"}},{"type":"node","id":2074799363,"lat":41.8709842,"lon":-87.7777506,"tags":{"name":"Austin","network":"CTA","operator":"Chicago Transit Authority","operator:wikidata":"Q117309","public_transport":"stop_position","railway":"stop","subway":"yes"}},{"type":"node","id":2074824268,"lat":41.871583,"lon":-87.7461288,"tags":{"name":"Cicero","network":"CTA","operator":"Chicago Transit Authority","operator:wikidata":"Q117309","public_transport":"stop_position","railway":"stop","subway":"yes"}},{"type":"node","id":2074824281,"lat":41.8716168,"lon":-87.7480481,"tags":{"name":"Cicero","network":"CTA","operator":"Chicago Transit Authority","operator:wikidata":"Q117309","public_transport":"stop_position","railway":"stop","subway":"yes"}},{"type":"node","id":2074842572,"lat":41.8738634,"lon":-87.7269238,"tags":{"name":"Pulaski","network":"CTA","operator":"Chicago Transit Authority","operator:wikidata":"Q117309","public_transport":"stop_position","railway":"stop","subway":"yes"}},{"type":"node","id":2074858660,"lat":41.8741456,"lon":-87.7091926,"tags":{"name":"Kedzie-Homan","network":"CTA","operator":"Chicago Transit Authority","operator:wikidata":"Q117309","public_transport":"stop_position","railway":"stop","subway":"yes"}},{"type":"node","id":2080123157,"lat":41.8542682,"lon":-87.6937411,"tags":{"level":"1","name":"California","network":"CTA","operator":"Chicago Transit Authority","operator:wikidata":"Q117309","public_transport":"stop_position","railway":"stop","subway":"yes"}},{"type":"node","id":2080123162,"lat":41.8539567,"lon":-87.7151348,"tags":{"name":"Central Park","network":"CTA","operator":"Chicago Transit Authority","operator:wikidata":"Q117309","public_transport":"stop_position","railway":"stop","subway":"yes"}},{"type":"node","id":2080123166,"lat":41.8518659,"lon":-87.7456185,"tags":{"name":"Cicero","network":"CTA","operator":"Chicago Transit Authority","operator:wikidata":"Q117309","public_transport":"stop_position","railway":"stop","subway":"yes"}},{"type":"node","id":2080123175,"lat":41.8544753,"lon":-87.6762002,"tags":{"name":"Damen","network":"CTA","operator":"Chicago Transit Authority","operator:wikidata":"Q117309","public_transport":"stop_position","railway":"stop","subway":"yes"}},{"type":"node","id":2080123179,"lat":41.8537101,"lon":-87.7332011,"tags":{"name":"Kostner","network":"CTA","operator":"Chicago Transit Authority","operator:wikidata":"Q117309","public_transport":"stop_position","railway":"stop","subway":"yes"}},{"type":"node","id":2080123183,"lat":41.8537861,"lon":-87.7332035,"tags":{"name":"Kostner","network":"CTA","operator":"Chicago Transit Authority","operator:wikidata":"Q117309","public_transport":"stop_position","railway":"stop","subway":"yes"}},{"type":"node","id":2080123186,"lat":41.8538396,"lon":-87.723249,"tags":{"name":"Pulaski","network":"CTA","operator":"Chicago Transit Authority","operator:wikidata":"Q117309","public_transport":"stop_position","railway":"stop","subway":"yes"}},{"type":"node","id":2080123190,"lat":41.8543483,"lon":-87.6839123,"tags":{"level":"1","name":"Western","network":"CTA","operator":"Chicago Transit Authority","operator:wikidata":"Q117309","public_transport":"stop_position","railway":"stop","subway":"yes"}},{"type":"node","id":2080123199,"lat":41.8517967,"lon":-87.7585035,"tags":{"name":"54th/Cermak","network":"CTA","operator":"Chicago Transit Authority","operator:wikidata":"Q117309","public_transport":"stop_position","railway":"stop","subway":"yes"}},{"type":"node","id":2080150458,"lat":41.8720582,"lon":-87.6695713,"tags":{"name":"Polk","network":"CTA","operator":"Chicago Transit Authority","operator:wikidata":"Q117309","public_transport":"stop_position","railway":"stop","subway":"yes","train":"no"}},{"type":"node","id":2080150468,"lat":41.8758794,"lon":-87.6585156,"tags":{"name":"Racine","network":"CTA","operator":"Chicago Transit Authority","operator:wikidata":"Q117309","public_transport":"stop_position","railway":"stop","subway":"yes"}},{"type":"node","id":2080150517,"lat":41.8584287,"lon":-87.6691863,"tags":{"name":"18th","network":"CTA","operator":"Chicago Transit Authority","operator:wikidata":"Q117309","public_transport":"stop_position","railway":"stop","subway":"yes"}},{"type":"node","id":2088568850,"lat":41.9780444,"lon":-87.9031495,"tags":{"local_ref":"1","name":"O'Hare","operator":"Chicago Transit Authority","operator:wikidata":"Q117309","public_transport":"stop_position","railway":"stop","subway":"yes"}},{"type":"node","id":2088620951,"lat":41.984303,"lon":-87.838758,"tags":{"name":"Cumberland","network":"CTA","operator":"Chicago Transit Authority","operator:wikidata":"Q117309","public_transport":"stop_position","railway":"stop","subway":"yes"}},{"type":"node","id":2088630564,"lat":41.9823639,"lon":-87.8096698,"tags":{"name":"Harlem","network":"CTA","operator":"Chicago Transit Authority","operator:wikidata":"Q117309","public_transport":"stop_position","railway":"stop","subway":"yes"}},{"type":"node","id":2088638856,"lat":41.9709296,"lon":-87.7614874,"tags":{"name":"Jefferson Park","network":"CTA","operator":"Chicago Transit Authority","operator:wikidata":"Q117309","public_transport":"stop_position","railway":"stop","subway":"yes"}},{"type":"node","id":2090176575,"lat":41.9101443,"lon":-87.6780509,"tags":{"name":"Damen","network":"CTA","operator":"Chicago Transit Authority","operator:wikidata":"Q117309","public_transport":"stop_position","railway":"stop","subway":"yes"}},{"type":"node","id":2090182927,"lat":41.916285,"lon":-87.6874347,"tags":{"name":"Western","network":"CTA","operator":"Chicago Transit Authority","operator:wikidata":"Q117309","public_transport":"stop_position","railway":"stop","subway":"yes"}},{"type":"node","id":2091737706,"lat":42.0634087,"lon":-87.6854488,"tags":{"local_ref":"6","name":"Central","network":"CTA","operator":"Chicago Transit Authority","operator:wikidata":"Q117309","public_transport":"stop_position","railway":"stop","subway":"yes"}},{"type":"node","id":2091743473,"lat":42.0722711,"lon":-87.6903076,"tags":{"name":"Linden","network":"CTA","operator":"Chicago Transit Authority","operator:wikidata":"Q117309","public_transport":"stop_position","railway":"stop","railway:track_ref":"1","subway":"yes"}},{"type":"node","id":2091745258,"lat":42.0578337,"lon":-87.6835239,"tags":{"name":"Noyes","network":"CTA","operator":"Chicago Transit Authority","operator:wikidata":"Q117309","public_transport":"stop_position","railway":"stop","subway":"yes"}},{"type":"node","id":2091746899,"lat":42.0538669,"lon":-87.6837219,"tags":{"name":"Foster","network":"CTA","operator":"Chicago Transit Authority","operator:wikidata":"Q117309","public_transport":"stop_position","railway":"stop","subway":"yes"}},{"type":"node","id":2092506201,"lat":42.0474643,"lon":-87.6837454,"tags":{"name":"Davis","network":"CTA","public_transport":"stop_position","railway":"stop","subway":"yes"}},{"type":"node","id":2092510482,"lat":42.0414249,"lon":-87.6817153,"tags":{"name":"Dempster","network":"CTA","operator":"Chicago Transit Authority","operator:wikidata":"Q117309","public_transport":"stop_position","railway":"stop","subway":"yes"}},{"type":"node","id":2092525324,"lat":42.0272544,"lon":-87.6784273,"tags":{"name":"South Boulevard","network":"CTA","operator":"Chicago Transit Authority","operator:wikidata":"Q117309","public_transport":"stop_position","railway":"stop","subway":"yes"}},{"type":"node","id":2368680623,"lat":41.8689895,"lon":-87.6274402,"tags":{"name":"Roosevelt","network":"CTA","operator":"Chicago Transit Authority","operator:wikidata":"Q117309","public_transport":"stop_position","railway":"stop","subway":"yes"}},{"type":"node","id":2368690662,"lat":41.8800496,"lon":-87.6277838,"tags":{"name":"Monroe","network":"CTA","operator":"Chicago Transit Authority","operator:wikidata":"Q117309","public_transport":"stop_position","railway":"stop","subway":"yes"}},{"type":"node","id":2368690665,"lat":41.8776254,"lon":-87.6277164,"tags":{"name":"Jackson","network":"CTA","operator":"Chicago Transit Authority","operator:wikidata":"Q117309","public_transport":"stop_position","railway":"stop","subway":"yes"}},{"type":"node","id":2368691222,"lat":41.8913303,"lon":-87.628084,"tags":{"name":"Grand","network":"CTA","operator":"Chicago Transit Authority","operator:wikidata":"Q117309","public_transport":"stop_position","railway":"stop","subway":"yes"}},{"type":"node","id":2368694123,"lat":41.9038749,"lon":-87.6316488,"tags":{"name":"Clark/Division","network":"CTA","operator":"Chicago Transit Authority","operator:wikidata":"Q117309","public_transport":"stop_position","railway":"stop","subway":"yes"}},{"type":"node","id":2368694141,"lat":41.9102202,"lon":-87.6486337,"tags":{"name":"North/Clybourn","network":"CTA","operator":"Chicago Transit Authority","operator:wikidata":"Q117309","public_transport":"stop_position","railway":"stop","subway":"yes"}},{"type":"node","id":2389087624,"lat":41.8756456,"lon":-87.6314248,"tags":{"name":"LaSalle","network":"CTA","operator":"Chicago Transit Authority","operator:wikidata":"Q117309","public_transport":"stop_position","railway":"stop","subway":"yes"}},{"type":"node","id":2389087628,"lat":41.8800633,"lon":-87.6293812,"tags":{"name":"Monroe","network":"CTA","operator":"Chicago Transit Authority","operator:wikidata":"Q117309","public_transport":"stop_position","railway":"stop","subway":"yes"}},{"type":"node","id":2389087637,"lat":41.8777453,"lon":-87.6293099,"tags":{"name":"Jackson","network":"CTA","operator":"Chicago Transit Authority","operator:wikidata":"Q117309","public_transport":"stop_position","railway":"stop","subway":"yes"}},{"type":"node","id":2389087640,"lat":41.8918187,"lon":-87.6486553,"tags":{"name":"Grand","network":"CTA","operator":"Chicago Transit Authority","operator:wikidata":"Q117309","public_transport":"stop_position","railway":"stop","subway":"yes"}},{"type":"node","id":2389087645,"lat":41.8959023,"lon":-87.6549207,"tags":{"name":"Chicago","network":"CTA","operator":"Chicago Transit Authority","operator:wikidata":"Q117309","public_transport":"stop_position","railway":"stop","subway":"yes"}},{"type":"node","id":2389087649,"lat":41.8832536,"lon":-87.6294868,"tags":{"name":"Washington","network":"CTA","operator":"Chicago Transit Authority","operator:wikidata":"Q117309","public_transport":"stop_position","railway":"stop","subway":"yes"}},{"type":"node","id":2389087653,"lat":41.9042862,"lon":-87.6687543,"tags":{"name":"Division","network":"CTA","operator":"Chicago Transit Authority","operator:wikidata":"Q117309","public_transport":"stop_position","railway":"stop","subway":"yes"}},{"type":"node","id":2389087656,"lat":41.8756018,"lon":-87.642097,"tags":{"name":"Clinton","network":"CTA","operator":"Chicago Transit Authority","operator:wikidata":"Q117309","public_transport":"stop_position","railway":"stop","subway":"yes"}},{"type":"node","id":2443252531,"lat":41.9304287,"lon":-87.7095586,"tags":{"name":"Logan Square","network":"CTA","operator":"Chicago Transit Authority","operator:wikidata":"Q117309","public_transport":"stop_position","railway":"stop","subway":"yes"}},{"type":"node","id":2443252547,"lat":41.938899,"lon":-87.7124331,"tags":{"name":"Belmont","network":"CTA","operator":"Chicago Transit Authority","operator:wikidata":"Q117309","public_transport":"stop_position","railway":"stop","subway":"yes"}},{"type":"node","id":3341015999,"lat":41.8533616,"lon":-87.6263904,"tags":{"name":"Cermak-McCormick Place","network":"CTA","operator":"Chicago Transit Authority","operator:wikidata":"Q117309","public_transport":"stop_position","railway":"stop","subway":"yes"}},{"type":"node","id":3341016001,"lat":41.8518559,"lon":-87.6264455,"tags":{"name":"Cermak-McCormick Place","network":"CTA","operator":"Chicago Transit Authority","operator:wikidata":"Q117309","public_transport":"stop_position","railway":"stop","subway":"yes"}},{"type":"node","id":5091005360,"lat":41.8819146,"lon":-87.6262123,"tags":{"name":"Washington/Wabash","network":"CTA","operator":"Chicago Transit Authority","operator:wikidata":"Q117309","public_transport":"stop_position","railway":"stop","subway":"yes"}},{"type":"node","id":5091005361,"lat":41.8830399,"lon":-87.6262013,"tags":{"name":"Washington/Wabash","network":"CTA","operator":"Chicago Transit Authority","operator:wikidata":"Q117309","public_transport":"stop_position","railway":"stop","subway":"yes"}},{"type":"node","id":5266157900,"lat":41.8676022,"lon":-87.6274857,"tags":{"name":"Roosevelt","network":"CTA","operator":"Chicago Transit Authority","operator:wikidata":"Q117309","public_transport":"stop_position","railway":"stop","subway":"yes"}},{"type":"node","id":5267040321,"lat":41.8962216,"lon":-87.628226,"tags":{"name":"Chicago","network":"CTA","operator":"Chicago Transit Authority","operator:wikidata":"Q117309","public_transport":"stop_position","railway":"stop","subway":"yes"}},{"type":"node","id":5267040322,"lat":41.8970431,"lon":-87.6281873,"tags":{"name":"Chicago","network":"CTA","operator":"Chicago Transit Authority","operator:wikidata":"Q117309","public_transport":"stop_position","railway":"stop","subway":"yes"}},{"type":"node","id":5267058060,"lat":41.8839554,"lon":-87.6279272,"tags":{"name":"Lake","network":"CTA","operator":"Chicago Transit Authority","operator:wikidata":"Q117309","public_transport":"stop_position","railway":"stop","subway":"yes"}},{"type":"node","id":5267058061,"lat":41.8850601,"lon":-87.6278686,"tags":{"name":"Lake","network":"CTA","operator":"Chicago Transit Authority","operator:wikidata":"Q117309","public_transport":"stop_position","railway":"stop","subway":"yes"}},{"type":"node","id":5272952064,"lat":41.8911365,"lon":-87.6474325,"tags":{"name":"Grand","network":"CTA","operator":"Chicago Transit Authority","operator:wikidata":"Q117309","public_transport":"stop_position","railway":"stop","subway":"yes"}},{"type":"node","id":5272952065,"lat":41.8857093,"lon":-87.6319276,"tags":{"name":"Clark/Lake","network":"CTA","operator":"Chicago Transit Authority","operator:wikidata":"Q117309","public_transport":"stop_position","railway":"stop","subway":"yes"}},{"type":"node","id":5272952066,"lat":41.8857725,"lon":-87.6335716,"tags":{"name":"Clark/Lake","network":"CTA","operator":"Chicago Transit Authority","operator:wikidata":"Q117309","public_transport":"stop_position","railway":"stop","subway":"yes"}},{"type":"node","id":5272952067,"lat":41.8832533,"lon":-87.6294091,"tags":{"name":"Washington","network":"CTA","operator":"Chicago Transit Authority","operator:wikidata":"Q117309","public_transport":"stop_position","railway":"stop","subway":"yes"}},{"type":"node","id":5272957250,"lat":41.9381851,"lon":-87.7125144,"tags":{"name":"Belmont","network":"CTA","operator":"Chicago Transit Authority","operator:wikidata":"Q117309","public_transport":"stop_position","railway":"stop","subway":"yes"}},{"type":"node","id":5272957251,"lat":41.896454,"lon":-87.6556739,"tags":{"name":"Chicago","network":"CTA","operator":"Chicago Transit Authority","operator:wikidata":"Q117309","public_transport":"stop_position","railway":"stop","subway":"yes"}},{"type":"node","id":5272959956,"lat":41.878842,"lon":-87.629281,"tags":{"name":"Jackson","network":"CTA","operator":"Chicago Transit Authority","operator:wikidata":"Q117309","public_transport":"stop_position","railway":"stop","subway":"yes"}},{"type":"node","id":5272959957,"lat":41.8813968,"lon":-87.6293592,"tags":{"name":"Monroe","network":"CTA","operator":"Chicago Transit Authority","operator:wikidata":"Q117309","public_transport":"stop_position","railway":"stop","subway":"yes"}},{"type":"node","id":5272959958,"lat":41.9295613,"lon":-87.7082312,"tags":{"name":"Logan Square","network":"CTA","operator":"Chicago Transit Authority","operator:wikidata":"Q117309","public_transport":"stop_position","railway":"stop","subway":"yes"}},{"type":"node","id":5272963173,"lat":41.8755659,"lon":-87.6403873,"tags":{"name":"Clinton","network":"CTA","operator":"Chicago Transit Authority","operator:wikidata":"Q117309","public_transport":"stop_position","railway":"stop","subway":"yes"}},{"type":"node","id":5272963174,"lat":41.8755657,"lon":-87.6328334,"tags":{"name":"LaSalle","network":"CTA","operator":"Chicago Transit Authority","operator:wikidata":"Q117309","public_transport":"stop_position","railway":"stop","subway":"yes"}},{"type":"node","id":5555371705,"lat":41.7228791,"lon":-87.6243522,"tags":{"name":"95th/Dan Ryan","network":"CTA","operator":"Chicago Transit Authority","operator:wikidata":"Q117309","public_transport":"stop_position","railway":"stop","subway":"yes"}},{"type":"node","id":6315387568,"lat":41.9779284,"lon":-87.9029553,"tags":{"local_ref":"3","name":"O'Hare","network":"CTA","operator":"Chicago Transit Authority","operator:wikidata":"Q117309","public_transport":"stop_position","railway":"stop","subway":"yes"}},{"type":"node","id":6369524370,"lat":41.9531784,"lon":-87.7295209,"tags":{"name":"Irving Park","network":"CTA","operator":"Chicago Transit Authority","operator:wikidata":"Q117309","public_transport":"stop_position","railway":"stop","subway":"yes"}},{"type":"node","id":6369533865,"lat":41.9478015,"lon":-87.7196065,"tags":{"name":"Addison","network":"CTA","operator":"Chicago Transit Authority","operator:wikidata":"Q117309","public_transport":"stop_position","railway":"stop","ref":"30239","subway":"yes"}},{"type":"node","id":6369695877,"lat":41.9823054,"lon":-87.8073332,"tags":{"name":"Harlem","network":"CTA","operator":"Chicago Transit Authority","operator:wikidata":"Q117309","public_transport":"stop_position","railway":"stop","subway":"yes"}},{"type":"node","id":6518077387,"lat":41.9470228,"lon":-87.7187975,"tags":{"name":"Addison","network":"CTA","operator":"Chicago Transit Authority","operator:wikidata":"Q117309","public_transport":"stop_position","railway":"stop","ref":"30240","subway":"yes"}},{"type":"node","id":7679346701,"lat":41.8754696,"lon":-87.6487839,"tags":{"name":"UIC-Halsted","network":"CTA","operator":"Chicago Transit Authority","operator:wikidata":"Q117309","public_transport":"stop_position","railway":"stop","subway":"yes"}},{"type":"node","id":11051366080,"lat":41.9033296,"lon":-87.6665753,"tags":{"name":"Division","network":"CTA","operator":"Chicago Transit Authority","operator:wikidata":"Q117309","public_transport":"stop_position","railway":"stop","subway":"yes"}},{"type":"node","id":12078792677,"lat":41.8724611,"lon":-87.6275974,"tags":{"name":"Harrison","network":"CTA","operator":"Chicago Transit Authority","operator:wikidata":"Q117309","public_transport":"stop_position","railway":"stop","subway":"yes"}},{"type":"node","id":12093932128,"lat":41.8849667,"lon":-87.6777279,"tags":{"name":"Damen","network":"CTA","operator":"Chicago Transit Authority","operator:wikidata":"Q117309","public_transport":"stop_position","railway":"stop","subway":"yes"}},{"type":"node","id":12093932129,"lat":41.8849806,"lon":-87.6764616,"tags":{"name":"Damen","network":"CTA","operator":"Chicago Transit Authority","operator:wikidata":"Q117309","public_transport":"stop_position","railway":"stop","subway":"yes"}},{"type":"node","id":12301163564,"lat":41.9850732,"lon":-87.6588179,"tags":{"name":"Bryn Mawr","network":"CTA","operator":"Chicago Transit Authority","operator:wikidata":"Q117309","public_transport":"stop_position","railway":"stop","subway":"yes"}},{"type":"node","id":12301181920,"lat":41.968679,"lon":-87.6584989,"tags":{"name":"Lawrence","network":"CTA","operator":"Chicago Transit Authority","operator:wikidata":"Q117309","public_transport":"stop_position","railway":"stop","subway":"yes"}},{"type":"node","id":12707959660,"lat":41.9642015,"lon":-87.65788,"tags":{"name":"Wilson","network":"CTA","operator":"Chicago Transit Authority","operator:wikidata":"Q117309","public_transport":"stop_position","railway":"stop","subway":"yes"}},{"type":"node","id":12911708721,"lat":41.9538286,"lon":-87.6546122,"tags":{"name":"Sheridan","network":"CTA","operator":"Chicago Transit Authority","operator:wikidata":"Q117309","public_transport":"stop_position","railway":"stop","subway":"yes"}},{"type":"node","id":12911708722,"lat":41.9539579,"lon":-87.6558941,"tags":{"name":"Sheridan","network":"CTA","operator":"Chicago Transit Authority","operator:wikidata":"Q117309","public_transport":"stop_position","railway":"stop","subway":"yes"}},{"type":"node","id":13016633595,"lat":41.9651606,"lon":-87.658003,"tags":{"name":"Wilson","network":"CTA","operator":"Chicago Transit Authority","operator:wikidata":"Q117309","public_transport":"stop_position","railway":"stop","subway":"yes"}},{"type":"node","id":13402122046,"lat":41.8518499,"lon":-87.7545541,"tags":{"name":"54th/Cermak","network":"CTA","operator":"Chicago Transit Authority","operator:wikidata":"Q117309","public_transport":"stop_position","railway":"stop","subway":"yes"}}]}