{"elements":[{"type":"node","id":1797215247,"lat":36.3407201,"lon":6.6176806,"tags":{"name":"Université Mentouri","name:ar":"جامعة منتوري","name:fr":"Université Mentouri","operator":"SETRAM","public_transport":"stop_position","railway":"tram_stop","tram":"yes"}},{"type":"node","id":1797215307,"lat":36.3338237,"lon":6.616692,"tags":{"name":"Résidence Universitaire Mentouri","name:ar":"الحي الجامعي منتوري","name:fr":"Résidence Universitaire Mentouri","operator":"SETRAM","public_transport":"stop_position","railway":"tram_stop","tram":"yes"}},{"type":"node","id":1797624023,"lat":36.348492,"lon":6.6078607,"tags":{"name":"Fadhila saadane","name:ar":"فضيلة سعدان","name:en":"Fadhila saadane","name:fr":"Fadhila saadane","operator":"SETRAM","public_transport":"stop_position","railway":"tram_stop","tram":"yes"}},{"type":"node","id":1797624034,"lat":36.3226955,"lon":6.6210848,"tags":{"name":"Cité Kheznadar","name:ar":"حي خنزدار","name:fr":"Cité Kheznadar","operator":"SETRAM","public_transport":"stop_position","railway":"tram_stop","tram":"yes"}},{"type":"node","id":1858040674,"lat":36.3582537,"lon":6.6055639,"tags":{"name":"Ben Abdelmalek Ramdane","name:ar":"بن عبد المالك رمضان","name:en":"Ben Abdelmalek Ramdane","name:fr":"Ben Abdelmalek Ramdane","operator":"SETRAM","public_transport":"stop_position","railway":"tram_stop","start_date":"2013-07-05","tram":"yes"}},{"type":"node","id":1858108134,"lat":36.3543916,"lon":6.6024076,"tags":{"name":"Belle vue","name:ar":"المنظر الجميل","name:fr":"Belle vue","old_name":"Bellevue","operator":"SETRAM","public_transport":"stop_position","railway":"tram_stop","tram":"yes"}},{"type":"node","id":1858108229,"lat":36.346632,"lon":6.6108005,"tags":{"name":"Zone Industrielle Palma","name:ar":"المنطقة الصناعية بالما","name:fr":"Zone Industrielle Palma","operator":"SETRAM","public_transport":"stop_position","railway":"tram_stop","tram":"yes"}},{"type":"node","id":1858108347,"lat":36.3508577,"lon":6.6009363,"tags":{"name":"Kadour Bouedous","name:ar":"قدور بومدوس","name:fr":"Kadour Bouedous","operator":"SETRAM","public_transport":"stop_position","railway":"tram_stop","tram":"yes"}},{"type":"node","id":1858108367,"lat":36.3464798,"lon":6.6011631,"tags":{"name":"Emir Abdelkader","name:ar":"الأمير عبد القادر","name:fr":"Emir Abdelkader","operator":"SETRAM","public_transport":"stop_position","railway":"tram_stop","tram":"yes"}},{"type":"node","id":4410707525,"lat":36.2734369,"lon":6.5928783,"tags":{"name":"19 Mai 1956","name:ar":"19 ماي 1956","public_transport":"stop_position","railway":"tram_stop","tram":"yes"}},{"type":"node","id":4410707529,"lat":36.2816029,"lon":6.5971192,"tags":{"name":"Université Salah Boubnider","name:ar":"جامعة صالح بويبندر","name:fr":"Université Salah Boubnider","public_transport":"stop_position","railway":"tram_stop","tram":"yes"}},{"type":"node","id":4410707560,"lat":36.3049888,"lon":6.6131729,"tags":{"name":"Laifour","name:ar":"العيفور","name:fr":"Laifour","public_transport":"stop_position","railway":"tram_stop","tram":"yes"}},{"type":"node","id":4589859466,"lat":36.3104331,"lon":6.6194119,"tags":{"name":"Zouaghi","name:ar":"زواغي","name:fr":"Zouaghi","operator":"SETRAM","public_transport":"stop_position","railway":"tram_stop","tram":"yes"}},{"type":"node","id":6703157947,"lat":36.2617347,"lon":6.601809,"tags":{"name":"Chahid Kadri El Chahid Kadri Brahim","name:ar":"الشهيد قادري إبراهيم","name:fr":"El Chahid Kadri Brahim","public_transport":"stop_position","railway":"tram_stop","tram":"yes"}},{"type":"node","id":6703164998,"lat":36.2653931,"lon":6.5966316,"tags":{"name":"08 Mai 1945","name:ar":"08 ماي 1945","public_transport":"stop_position","railway":"tram_stop","tram":"yes"}},{"type":"node","id":8853541298,"lat":36.2478441,"lon":6.5697359,"tags":{"name":"Université  Abdelhamid Mehri","name:ar":"جامعة عبد الحميد مهري","name:fr":"Université  Abdelhamid Mehri","public_transport":"stop_position","railway":"tram_stop","tram":"yes"}},{"type":"node","id":9066923729,"lat":36.3582053,"lon":6.6056974,"tags":{"name":"Ben Abdelmalek Ramdane","name:ar":"بن عبد المالك رمضان","name:en":"Ben Abdelmalek Ramdane","name:fr":"Ben Abdelmalek Ramdane","operator":"SETRAM","public_transport":"stop_position","railway":"tram_stop","start_date":"2013-07-05","tram":"yes"}},{"type":"node","id":9066923752,"lat":36.3543756,"lon":6.6024583,"tags":{"name":"Belle vue","name:ar":"المنظر الجميل","name:fr":"Belle vue","old_name":"Bellevue","operator":"SETRAM","public_transport":"stop_position","railway":"tram_stop","tram":"yes"}},{"type":"node","id":9066923761,"lat":36.3508534,"lon":6.6009905,"tags":{"name":"Kadour Bouedous","name:ar":"قدور بومدوس","name:fr":"Kadour Bouedous","operator":"SETRAM","public_transport":"stop_position","railway":"tram_stop","tram":"yes"}},{"type":"node","id":9066923773,"lat":36.346517,"lon":6.6011919,"tags":{"name":"Emir Abdelkader","name:ar":"الأمير عبد القادر","name:fr":"Emir Abdelkader","operator":"SETRAM","public_transport":"stop_position","railway":"tram_stop","tram":"yes"}},{"type":"node","id":9066923795,"lat":36.3484906,"lon":6.6079151,"tags":{"name":"Fadhila saadane","name:ar":"فضيلة سعدان","name:en":"Fadhila saadane","name:fr":"Fadhila saadane","operator":"SETRAM","public_transport":"stop_position","railway":"tram_stop","tram":"yes"}},{"type":"node","id":9066923807,"lat":36.3466753,"lon":6.6108085,"tags":{"name":"Zone Industrielle Palma","name:ar":"المنطقة الصناعية بالما","name:fr":"Zone Industrielle Palma","operator":"SETRAM","public_transport":"stop_position","railway":"tram_stop","tram":"yes"}},{"type":"node","id":9066934130,"lat":36.3407059,"lon":6.617729,"tags":{"name":"Université Mentouri","name:ar":"جامعة منتوري","name:fr":"Université Mentouri","operator":"SETRAM","public_transport":"stop_position","railway":"tram_stop","tram":"yes"}},{"type":"node","id":9066934149,"lat":36.3338245,"lon":6.6167338,"tags":{"name":"Résidence Universitaire Mentouri","name:ar":"الحي الجامعي منتوري","name:fr":"Résidence Universitaire Mentouri","operator":"SETRAM","public_transport":"stop_position","railway":"tram_stop","tram":"yes"}},{"type":"node","id":9066934186,"lat":36.3226984,"lon":6.6211257,"tags":{"name":"Cité Kheznadar","name:ar":"حي خنزدار","name:fr":"Cité Kheznadar","operator":"SETRAM","public_transport":"stop_position","railway":"tram_stop","tram":"yes"}},{"type":"node","id":9066934221,"lat":36.3104362,"lon":6.6194649,"tags":{"name":"Zouaghi","name:ar":"زواغي","name:fr":"Zouaghi","operator":"SETRAM","public_transport":"stop_position","railway":"tram_stop","tram":"yes"}},{"type":"node","id":9066934245,"lat":36.3049575,"lon":6.6132109,"tags":{"name":"Laifour","name:ar":"العيفور","name:fr":"Laifour","public_transport":"stop_position","railway":"tram_stop","tram":"yes"}},{"type":"node","id":9066934281,"lat":36.2815855,"lon":6.5971848,"tags":{"name":"Université Salah Boubnider","name:ar":"جامعة صالح بويبندر","name:fr":"Université Salah Boubnider","public_transport":"stop_position","railway":"tram_stop","tram":"yes"}},{"type":"node","id":9066934286,"lat":36.2734206,"lon":6.5929288,"tags":{"name":"19 Mai 1956","name:ar":"19 ماي 1956","public_transport":"stop_position","railway":"tram_stop","tram":"yes"}},{"type":"node","id":9066934301,"lat":36.2654261,"lon":6.5966675,"tags":{"name":"08 Mai 1945","name:ar":"08 ماي 1945","public_transport":"stop_position","railway":"tram_stop","tram":"yes"}},{"type":"node","id":9066934319,"lat":36.2617107,"lon":6.6018545,"tags":{"name":"El Chahid Kadri Brahim","name:ar":"الشهيد قادري إبراهيم","name:fr":"El Chahid Kadri Brahim","public_transport":"stop_position","railway":"tram_stop","tram":"yes"}},{"type":"node","id":9066934328,"lat":36.2585194,"lon":6.5954082,"tags":{"name":"Chouhada","name:ar":"الشهداء","public_transport":"stop_position","railway":"tram_stop","tram":"yes"}},{"type":"node","id":9066934337,"lat":36.2575193,"lon":6.5880381,"tags":{"name":"Cité El-Istiklal","name:ar":"حي الإستقلال","public_transport":"stop_position","railway":"tram_stop","tram":"yes"}},{"type":"node","id":9066934341,"lat":36.2569085,"lon":6.5821963,"tags":{"name":"Ali Mendjeli","name:ar":"علي منجلي","public_transport":"stop_position","railway":"tram_stop","tram":"yes"}},{"type":"node","id":9066934350,"lat":36.2551479,"lon":6.5752162,"tags":{"name":"Avenue de l'ALN","name:ar":"نهج جيش التحرير الوطني","name:fr":"Avenue de l'ALN","public_transport":"stop_position","railway":"tram_stop","tram":"yes"}},{"type":"node","id":9066934363,"lat":36.2494096,"lon":6.5740737,"tags":{"name":"Ennasr","name:ar":"النصر","public_transport":"stop_position","railway":"tram_stop","tram":"yes"}},{"type":"node","id":9066934368,"lat":36.2478099,"lon":6.5697618,"tags":{"name":"Université  Abdelhamid Mehri","public_transport":"stop_position","railway":"tram_stop","tram":"yes"}},{"type":"node","id":9066934369,"lat":36.358236,"lon":6.6056136,"tags":{"name":"Ben Abdelmalek Ramdane","name:ar":"بن عبد المالك رمضان","name:en":"Ben Abdelmalek Ramdane","name:fr":"Ben Abdelmalek Ramdane","operator":"SETRAM","public_transport":"stop_position","railway":"tram_stop","start_date":"2013-07-05","tram":"yes"}},{"type":"node","id":9079226785,"lat":36.2494496,"lon":6.5740514,"tags":{"name":"Ennasr","name:ar":"النصر","public_transport":"platform","railway":"tram_stop","tram":"yes"}},{"type":"node","id":9079226801,"lat":36.255188,"lon":6.575194,"tags":{"name":"Avenue de l'ALN","name:ar":"نهج جيش التحرير الوطني","name:fr":"Avenue de l'ALN","public_transport":"platform","railway":"tram_stop","tram":"yes"}},{"type":"node","id":9079226804,"lat":36.2569528,"lon":6.5821882,"tags":{"name":"Ali Mendjeli","name:ar":"علي منجلي","public_transport":"platform","railway":"tram_stop","tram":"yes"}},{"type":"node","id":9079238219,"lat":36.2575628,"lon":6.5880311,"tags":{"name":"Cité El-Istiklal","name:ar":"حي الإستقلال","public_transport":"platform","railway":"tram_stop","tram":"yes"}},{"type":"node","id":9079238235,"lat":36.2585642,"lon":6.5953978,"tags":{"name":"Chouhada","name:ar":"الشهداء","public_transport":"stop_position","railway":"tram_stop","tram":"yes"}}]}