{"type":"FeatureCollection","metro_system":{"continent":"asia","country":"Turkey","city":"İzmir","osm_networks":["Evka-3 - Fahrettin Altay","M3 Konak - Menderes Metrosu","Unknown","izmir metro","İzmir Metro"],"operator":null,"official_website":null,"official_map":"https://en.wikipedia.org/wiki/M1_(İzmir_Metro)","wikidata":"Q3238655","line_count":1,"station_count":24,"audit":{"strategies_tried":[],"passed":true,"checks":[{"id":"system_exists","ok":true,"detail":"matched OSM system systems/asia/turkey/asia-turkey-izmir.geojson","level":"error"},{"id":"has_lines","ok":true,"detail":"1 lines","level":"error"},{"id":"has_stations","ok":true,"detail":"24 stations","level":"error"},{"id":"station_ratio","ok":true,"detail":"OSM 24 vs Wikipedia 24（比值 1.00）","level":"error"},{"id":"stations_have_lines","ok":true,"detail":"24/24 站皆有所屬路線","level":"error"},{"id":"stations_named","ok":true,"detail":"24/24 站有名稱","level":"warn"},{"id":"station_order","ok":true,"detail":"所有線路站序合理","level":"warn"}],"reasons":[],"warnings":[],"audited_at":"2026-07-10T07:57:10.977Z"}},"features":[{"type":"Feature","properties":{"route_id":"rm7981873","route_name":"Kaymakamlık — Evka 3","route_name_local":"Kaymakamlık — Evka 3","route_ref":"M1","route_color":"#0000ff","network":"İzmir Metro","network_local":"İzmir Metro","operator":null,"city":"İzmir","country":"Turkey","wikidata":"Q3238655","wikipedia":"en:M1 (İzmir Metro)","osm_route_ids":[2707717,7981826]},"geometry":{"type":"MultiLineString","coordinates":[[[26.9911039,38.3946914],[27.0008522,38.3957541],[27.0149398,38.3935115],[27.0234892,38.3923995],[27.0382804,38.3939866],[27.0455971,38.3940437],[27.057059,38.3955939],[27.0698902,38.3969827],[27.0848135,38.3931976],[27.0943508,38.3959461],[27.1028381,38.4015214],[27.1104859,38.4017379],[27.1205342,38.4054991],[27.1281426,38.417036],[27.1360027,38.4224491],[27.1448695,38.4227731],[27.1551261,38.4269458],[27.1688866,38.4347573],[27.1807028,38.4423767],[27.1904639,38.4482983],[27.2014175,38.4549449],[27.2126183,38.458336],[27.2288885,38.4597012],[27.2286082,38.4651588]]]}},{"type":"Feature","properties":{"station_id":"n5388472385","station_name":"Poligon","station_name_local":"Poligon","network":"Unknown","network_local":null,"operator":null,"city":"İzmir","country":"Turkey","lines":["M1"],"wikidata":"Q25479552"},"geometry":{"type":"Point","coordinates":[27.0848255,38.3932553]}},{"type":"Feature","properties":{"station_id":"n5388472386","station_name":"Göztepe","station_name_local":"Göztepe","network":"Unknown","network_local":null,"operator":null,"city":"İzmir","country":"Turkey","lines":["M1"],"wikidata":"Q16640910"},"geometry":{"type":"Point","coordinates":[27.0944594,38.3959884]}},{"type":"Feature","properties":{"station_id":"n5388472387","station_name":"Hatay","station_name_local":"Hatay","network":"Unknown","network_local":null,"operator":null,"city":"İzmir","country":"Turkey","lines":["M1"],"wikidata":"Q3128273"},"geometry":{"type":"Point","coordinates":[27.1028227,38.4015299]}},{"type":"Feature","properties":{"station_id":"n5388472388","station_name":"İzmirspor","station_name_local":"İzmirspor","network":"Unknown","network_local":null,"operator":null,"city":"İzmir","country":"Turkey","lines":["M1"],"wikidata":"Q3593952"},"geometry":{"type":"Point","coordinates":[27.1104285,38.4017418]}},{"type":"Feature","properties":{"station_id":"n5388472389","station_name":"Üçyol","station_name_local":"Üçyol","network":"Unknown","network_local":null,"operator":null,"city":"İzmir","country":"Turkey","lines":["M1"],"wikidata":"Q3593754"},"geometry":{"type":"Point","coordinates":[27.1205447,38.4055208]}},{"type":"Feature","properties":{"station_id":"n5388472390","station_name":"Konak","station_name_local":"Konak","network":"Unknown","network_local":null,"operator":null,"city":"İzmir","country":"Turkey","lines":["M1"],"wikidata":"Q3198597","merged_from":2},"geometry":{"type":"Point","coordinates":[27.127883150000002,38.417089250000004]}},{"type":"Feature","properties":{"station_id":"n5388472391","station_name":"Çankaya","station_name_local":"Çankaya","network":"Unknown","network_local":null,"operator":null,"city":"İzmir","country":"Turkey","lines":["M1"],"wikidata":"Q3577254"},"geometry":{"type":"Point","coordinates":[27.135996,38.4224884]}},{"type":"Feature","properties":{"station_id":"n5388472393","station_name":"Hilal","station_name_local":"Hilal","network":"İzmir Metro","network_local":null,"operator":"İzmir Metro","city":"İzmir","country":"Turkey","lines":["M1"],"wikidata":"Q3135546"},"geometry":{"type":"Point","coordinates":[27.155109,38.4269447]}},{"type":"Feature","properties":{"station_id":"n5388472394","station_name":"Halkapınar","station_name_local":"Halkapınar","network":"Unknown","network_local":null,"operator":null,"city":"İzmir","country":"Turkey","lines":["M1"],"wikidata":"Q3126014","merged_from":3},"geometry":{"type":"Point","coordinates":[27.168799866666664,38.434854666666666]}},{"type":"Feature","properties":{"station_id":"n5388472395","station_name":"Stadyum","station_name_local":"Stadyum","network":"Unknown","network_local":null,"operator":null,"city":"İzmir","country":"Turkey","lines":["M1"],"wikidata":"Q3496315"},"geometry":{"type":"Point","coordinates":[27.1806848,38.4423871]}},{"type":"Feature","properties":{"station_id":"n5388472396","station_name":"Sanayi","station_name_local":"Sanayi","network":"Unknown","network_local":null,"operator":null,"city":"İzmir","country":"Turkey","lines":["M1"],"wikidata":"Q3471680"},"geometry":{"type":"Point","coordinates":[27.1903907,38.4483025]}},{"type":"Feature","properties":{"station_id":"n5388472397","station_name":"Bölge","station_name_local":"Bölge","network":"Unknown","network_local":null,"operator":null,"city":"İzmir","country":"Turkey","lines":["M1"],"wikidata":"Q2930153"},"geometry":{"type":"Point","coordinates":[27.2013535,38.4549611]}},{"type":"Feature","properties":{"station_id":"n5388472398","station_name":"Bornova","station_name_local":"Bornova","network":"Evka-3 - Fahrettin Altay","network_local":"Evka-3 - Fahrettin Altay","operator":"İzmir Metro A.Ş.","city":"İzmir","country":"Turkey","lines":["M1"],"wikidata":null,"merged_from":2},"geometry":{"type":"Point","coordinates":[27.2126063,38.458420399999994]}},{"type":"Feature","properties":{"station_id":"n5388472400","station_name":"Evka 3","station_name_local":"Evka 3","network":"Unknown","network_local":null,"operator":null,"city":"İzmir","country":"Turkey","lines":["M1"],"wikidata":"Q3061636"},"geometry":{"type":"Point","coordinates":[27.2285906,38.4651437]}},{"type":"Feature","properties":{"station_id":"n5728099937","station_name":"100. Yıl Cumhuriyet Şehitlik","station_name_local":"100. Yıl Cumhuriyet Şehitlik","network":"Unknown","network_local":null,"operator":null,"city":"İzmir","country":"Turkey","lines":["M1"],"wikidata":"Q55813942"},"geometry":{"type":"Point","coordinates":[27.0005409,38.3958662]}},{"type":"Feature","properties":{"station_id":"n7729209135","station_name":"Ege Üniversitesi","station_name_local":"Ege Üniversitesi","network":"Unknown","network_local":null,"operator":null,"city":"İzmir","country":"Turkey","lines":["M1"],"wikidata":"Q3049125"},"geometry":{"type":"Point","coordinates":[27.2288236,38.4596934]}},{"type":"Feature","properties":{"station_id":"n7729209165","station_name":"Basmane","station_name_local":"Basmane","network":"Unknown","network_local":null,"operator":null,"city":"İzmir","country":"Turkey","lines":["M1"],"wikidata":"Q2887254"},"geometry":{"type":"Point","coordinates":[27.1448355,38.4228152]}},{"type":"Feature","properties":{"station_id":"n8021899044","station_name":"Fahrettin Altay","station_name_local":"Fahrettin Altay","network":"Unknown","network_local":null,"operator":null,"city":"İzmir","country":"Turkey","lines":["M1"],"wikidata":"Q31193063"},"geometry":{"type":"Point","coordinates":[27.0699404,38.3969831]}},{"type":"Feature","properties":{"station_id":"n11475911509","station_name":"Balçova","station_name_local":"Balçova","network":"Unknown","network_local":null,"operator":null,"city":"İzmir","country":"Turkey","lines":["M1"],"wikidata":"Q55813936"},"geometry":{"type":"Point","coordinates":[27.0569428,38.3957233]}},{"type":"Feature","properties":{"station_id":"n11475911510","station_name":"Çağdaş","station_name_local":"Çağdaş","network":"Unknown","network_local":null,"operator":null,"city":"İzmir","country":"Turkey","lines":["M1"],"wikidata":"Q55813937"},"geometry":{"type":"Point","coordinates":[27.0454287,38.3945413]}},{"type":"Feature","properties":{"station_id":"n11475911511","station_name":"Dokuz Eylül Üniversitesi Hastanesi","station_name_local":"Dokuz Eylül Üniversitesi Hastanesi","network":"Unknown","network_local":null,"operator":null,"city":"İzmir","country":"Turkey","lines":["M1"],"wikidata":"Q55813938"},"geometry":{"type":"Point","coordinates":[27.0382072,38.394169]}},{"type":"Feature","properties":{"station_id":"n11475911512","station_name":"Güzel Sanatlar Fakültesi","station_name_local":"Güzel Sanatlar Fakültesi","network":"Unknown","network_local":null,"operator":null,"city":"İzmir","country":"Turkey","lines":["M1"],"wikidata":"Q55813939"},"geometry":{"type":"Point","coordinates":[27.0234927,38.3925017]}},{"type":"Feature","properties":{"station_id":"n11475911513","station_name":"Narlıdere İtfaiye","station_name_local":"Narlıdere İtfaiye","network":"Unknown","network_local":null,"operator":null,"city":"İzmir","country":"Turkey","lines":["M1"],"wikidata":"Q55813940"},"geometry":{"type":"Point","coordinates":[27.0149809,38.3937252]}},{"type":"Feature","properties":{"station_id":"n11475911514","station_name":"Narlıdere Kaymakamlık","station_name_local":"Narlıdere Kaymakamlık","network":"Unknown","network_local":null,"operator":null,"city":"İzmir","country":"Turkey","lines":["M1"],"wikidata":"Q55813944"},"geometry":{"type":"Point","coordinates":[26.991087,38.3949774]}}]}