{"type":"FeatureCollection","metro_system":{"continent":"asia","country":"Turkey","city":"Bursa","osm_networks":["BursaRay","Unknown"],"operator":"Bursa Ulaşım Toplu Taşıma İşletmeciliği","official_website":null,"official_map":null,"wikidata":"Q56067295","line_count":2,"station_count":42,"audit":{"strategies_tried":[],"passed":true,"checks":[{"id":"system_exists","ok":true,"detail":"matched OSM system systems/asia/turkey/asia-turkey-bursa.geojson","level":"error"},{"id":"has_lines","ok":true,"detail":"2 lines","level":"error"},{"id":"has_stations","ok":true,"detail":"42 stations","level":"error"},{"id":"station_ratio","ok":true,"detail":"OSM 42 vs Wikipedia 40（比值 1.05）","level":"error"},{"id":"stations_have_lines","ok":true,"detail":"42/42 站皆有所屬路線","level":"error"},{"id":"line_geometry_stations","ok":true,"detail":"73 個折點/端點皆為車站","level":"error"},{"id":"stations_named","ok":true,"detail":"40/42 站有名稱","level":"warn"},{"id":"station_order","ok":true,"detail":"所有線路站序合理","level":"warn"}],"reasons":[],"warnings":[],"audited_at":"2026-07-10T09:30:31.665Z"}},"features":[{"type":"Feature","properties":{"route_id":"rm7868621","route_name":"BursaRay 1","route_name_local":"BursaRay 1","route_ref":"B1","route_color":"#e6194b","network":"BursaRay","network_local":"BursaRay","operator":"Bursa Ulaşım Toplu Taşıma İşletmeciliği","city":"Bursa","country":"Turkey","wikidata":"Q56067295","wikipedia":null,"osm_route_ids":[7868620,7868723]},"geometry":{"type":"MultiLineString","coordinates":[[[28.9482624,40.2673754],[28.9525619,40.2570429],[28.9571983,40.2507123],[28.9670044,40.2434211],[28.9755365,40.2369491],[28.9865249,40.229165],[28.9938993,40.2230789],[29.000591,40.2165679],[29.0151275,40.2130163],[29.0251815,40.2095106],[29.0297762,40.2052713],[29.0406498,40.2003138],[29.0493737,40.197713],[29.056507,40.1960658],[29.0629698,40.1884695],[29.069088,40.1873374],[29.0786017,40.1885955],[29.0874597,40.1916229],[29.0992347,40.1915637],[29.1064364,40.1915409],[29.1169104,40.1915399]],[[29.1169104,40.1915399],[29.1064364,40.1915409],[29.0874597,40.1916229],[29.0786017,40.1885955],[29.069088,40.1873374],[29.0629698,40.1884695],[29.056507,40.1960658],[29.0493737,40.197713],[29.0406498,40.2003138],[29.0297762,40.2052713],[29.0251815,40.2095106],[29.0151275,40.2130163],[29.000591,40.2165679],[28.9938993,40.2230789],[28.9865249,40.229165],[28.9755365,40.2369491],[28.9670044,40.2434211],[28.9571983,40.2507123],[28.9525619,40.2570429],[28.9482624,40.2673754]]]}},{"type":"Feature","properties":{"route_id":"rm7869622","route_name":"BursaRay 2","route_name_local":"BursaRay 2","route_ref":"B2","route_color":"#000000","network":"BursaRay","network_local":"BursaRay","operator":"Bursa Ulaşım Toplu Taşıma İşletmeciliği","city":"Bursa","country":"Turkey","wikidata":"Q61074931","wikipedia":null,"osm_route_ids":[7869620,7869621]},"geometry":{"type":"MultiLineString","coordinates":[[[28.8700453,40.218146],[28.8911674,40.2204724],[28.899866,40.2202053],[28.9112869,40.2199002],[28.9219286,40.2193984],[28.934079,40.2148075],[28.9415857,40.2120183],[28.9499322,40.2125595],[28.9661488,40.2130163],[28.9755017,40.211521],[28.9881295,40.2118754],[28.9987586,40.2120917],[29.0151275,40.2130163],[29.0251815,40.2095106],[29.0297762,40.2052713],[29.0406498,40.2003138],[29.0493737,40.197713],[29.056507,40.1960658],[29.0629698,40.1884695],[29.069088,40.1873374],[29.0786017,40.1885955],[29.0874597,40.1916229],[29.0992347,40.1915637],[29.1064364,40.1915409],[29.1169104,40.1915399],[29.132266,40.1915593],[29.141635,40.1921925],[29.1550112,40.1945732],[29.167411,40.1967204],[29.1749547,40.1978861],[29.1904244,40.1992393],[29.2069636,40.2026251]]]}},{"type":"Feature","properties":{"station_id":"n304657156","station_name":"n304657156","station_name_local":null,"network":"Unknown","network_local":null,"operator":null,"city":"Bursa","country":"Turkey","lines":["B1","B2"],"wikidata":null},"geometry":{"type":"Point","coordinates":[29.0556182,40.1961864]}},{"type":"Feature","properties":{"station_id":"n304657157","station_name":"n304657157","station_name_local":null,"network":"Unknown","network_local":null,"operator":null,"city":"Bursa","country":"Turkey","lines":["B1","B2"],"wikidata":null},"geometry":{"type":"Point","coordinates":[29.0572292,40.1959818]}},{"type":"Feature","properties":{"station_id":"n5315407482","station_name":"Bursa Teknik Üniversitesi / Mimar Sinan","station_name_local":"Bursa Teknik Üniversitesi / Mimar Sinan","network":"BursaRay","network_local":"BursaRay","operator":"Bursa Ulaşım Toplu Taşıma İşletmeciliği","city":"Bursa","country":"Turkey","lines":["B2"],"wikidata":null},"geometry":{"type":"Point","coordinates":[29.132266,40.1915593]}},{"type":"Feature","properties":{"station_id":"n5315407491","station_name":"Hacivat / Esenevler","station_name_local":"Hacivat / Esenevler","network":"BursaRay","network_local":"BursaRay","operator":"Bursa Ulaşım Toplu Taşıma İşletmeciliği","city":"Bursa","country":"Turkey","lines":["B2"],"wikidata":null},"geometry":{"type":"Point","coordinates":[29.141635,40.1921925]}},{"type":"Feature","properties":{"station_id":"n5315407499","station_name":"Şirinevler","station_name_local":"Şirinevler","network":"BursaRay","network_local":"BursaRay","operator":"Bursa Ulaşım Toplu Taşıma İşletmeciliği","city":"Bursa","country":"Turkey","lines":["B2"],"wikidata":null},"geometry":{"type":"Point","coordinates":[29.1550112,40.1945732]}},{"type":"Feature","properties":{"station_id":"n5315407514","station_name":"Otosansit","station_name_local":"Otosansit","network":"BursaRay","network_local":"BursaRay","operator":"Bursa Ulaşım Toplu Taşıma İşletmeciliği","city":"Bursa","country":"Turkey","lines":["B2"],"wikidata":null},"geometry":{"type":"Point","coordinates":[29.167411,40.1967204]}},{"type":"Feature","properties":{"station_id":"n5315410731","station_name":"Cumalıkızık / Değirmenönü","station_name_local":"Cumalıkızık / Değirmenönü","network":"BursaRay","network_local":"BursaRay","operator":"Bursa Ulaşım Toplu Taşıma İşletmeciliği","city":"Bursa","country":"Turkey","lines":["B2"],"wikidata":null},"geometry":{"type":"Point","coordinates":[29.1749547,40.1978861]}},{"type":"Feature","properties":{"station_id":"n5315410742","station_name":"Gürsu","station_name_local":"Gürsu","network":"BursaRay","network_local":"BursaRay","operator":"Bursa Ulaşım Toplu Taşıma İşletmeciliği","city":"Bursa","country":"Turkey","lines":["B2"],"wikidata":null},"geometry":{"type":"Point","coordinates":[29.1904244,40.1992393]}},{"type":"Feature","properties":{"station_id":"n5315410781","station_name":"Kestel","station_name_local":"Kestel","network":"BursaRay","network_local":"BursaRay","operator":"Bursa Ulaşım Toplu Taşıma İşletmeciliği","city":"Bursa","country":"Turkey","lines":["B2"],"wikidata":null},"geometry":{"type":"Point","coordinates":[29.2069636,40.2026251]}},{"type":"Feature","properties":{"station_id":"n5315425255","station_name":"Arabayatağı / Yavuz Selim","station_name_local":"Arabayatağı / Yavuz Selim","network":"BursaRay","network_local":"BursaRay","operator":"Bursa Ulaşım Toplu Taşıma İşletmeciliği","city":"Bursa","country":"Turkey","lines":["B1","B2"],"wikidata":"Q61074976"},"geometry":{"type":"Point","coordinates":[29.1169104,40.1915399]}},{"type":"Feature","properties":{"station_id":"n5315432299","station_name":"152 Evler","station_name_local":"152 Evler","network":"BursaRay","network_local":"BursaRay","operator":"Bursa Ulaşım Toplu Taşıma İşletmeciliği","city":"Bursa","country":"Turkey","lines":["B1","B2"],"wikidata":null},"geometry":{"type":"Point","coordinates":[29.1064364,40.1915409]}},{"type":"Feature","properties":{"station_id":"n5315444458","station_name":"Yıldırım / Davutdede","station_name_local":"Yıldırım / Davutdede","network":"BursaRay","network_local":"BursaRay","operator":"Bursa Ulaşım Toplu Taşıma İşletmeciliği","city":"Bursa","country":"Turkey","lines":["B1","B2"],"wikidata":null},"geometry":{"type":"Point","coordinates":[29.0874597,40.1916229]}},{"type":"Feature","properties":{"station_id":"n5315446884","station_name":"Gökdere","station_name_local":"Gökdere","network":"BursaRay","network_local":"BursaRay","operator":"Bursa Ulaşım Toplu Taşıma İşletmeciliği","city":"Bursa","country":"Turkey","lines":["B1","B2"],"wikidata":null},"geometry":{"type":"Point","coordinates":[29.0786017,40.1885955]}},{"type":"Feature","properties":{"station_id":"n5315476895","station_name":"Merinos","station_name_local":"Merinos","network":"BursaRay","network_local":"BursaRay","operator":"Bursa Ulaşım Toplu Taşıma İşletmeciliği","city":"Bursa","country":"Turkey","lines":["B1","B2"],"wikidata":"Q61074958"},"geometry":{"type":"Point","coordinates":[29.0493737,40.197713]}},{"type":"Feature","properties":{"station_id":"n5315476918","station_name":"Osmangazi","station_name_local":"Osmangazi","network":"BursaRay","network_local":"BursaRay","operator":"Bursa Ulaşım Toplu Taşıma İşletmeciliği","city":"Bursa","country":"Turkey","lines":["B1","B2"],"wikidata":null},"geometry":{"type":"Point","coordinates":[29.056507,40.1960658]}},{"type":"Feature","properties":{"station_id":"n5315476920","station_name":"Şehreküstü","station_name_local":"Şehreküstü","network":"BursaRay","network_local":"BursaRay","operator":"Bursa Ulaşım Toplu Taşıma İşletmeciliği","city":"Bursa","country":"Turkey","lines":["B1","B2"],"wikidata":null},"geometry":{"type":"Point","coordinates":[29.0629698,40.1884695]}},{"type":"Feature","properties":{"station_id":"n5315478129","station_name":"Demirtaşpaşa / Abdal","station_name_local":"Demirtaşpaşa / Abdal","network":"BursaRay","network_local":"BursaRay","operator":"Bursa Ulaşım Toplu Taşıma İşletmeciliği","city":"Bursa","country":"Turkey","lines":["B1","B2"],"wikidata":null},"geometry":{"type":"Point","coordinates":[29.069088,40.1873374]}},{"type":"Feature","properties":{"station_id":"n5315484816","station_name":"Kültürpark","station_name_local":"Kültürpark","network":"BursaRay","network_local":"BursaRay","operator":"Bursa Ulaşım Toplu Taşıma İşletmeciliği","city":"Bursa","country":"Turkey","lines":["B1","B2"],"wikidata":"Q61074955"},"geometry":{"type":"Point","coordinates":[29.0406498,40.2003138]}},{"type":"Feature","properties":{"station_id":"n5315511268","station_name":"Bursaspor/Acemler","station_name_local":"Bursaspor/Acemler","network":"BursaRay","network_local":"BursaRay","operator":"Bursa Ulaşım Toplu Taşıma İşletmeciliği","city":"Bursa","country":"Turkey","lines":["B1","B2"],"wikidata":null},"geometry":{"type":"Point","coordinates":[29.0151275,40.2130163]}},{"type":"Feature","properties":{"station_id":"n5315511279","station_name":"Paşa Çiftliği","station_name_local":"Paşa Çiftliği","network":"BursaRay","network_local":"BursaRay","operator":"Bursa Ulaşım Toplu Taşıma İşletmeciliği","city":"Bursa","country":"Turkey","lines":["B1","B2"],"wikidata":null},"geometry":{"type":"Point","coordinates":[29.0251815,40.2095106]}},{"type":"Feature","properties":{"station_id":"n5315511285","station_name":"Sırameşeler / Kükürtlü","station_name_local":"Sırameşeler / Kükürtlü","network":"BursaRay","network_local":"BursaRay","operator":"Bursa Ulaşım Toplu Taşıma İşletmeciliği","city":"Bursa","country":"Turkey","lines":["B1","B2"],"wikidata":"Q61074954"},"geometry":{"type":"Point","coordinates":[29.0297762,40.2052713]}},{"type":"Feature","properties":{"station_id":"n5316422506","station_name":"Karaman / Hürriyet","station_name_local":"Karaman / Hürriyet","network":"BursaRay","network_local":"BursaRay","operator":"Bursa Ulaşım Toplu Taşıma İşletmeciliği","city":"Bursa","country":"Turkey","lines":["B1"],"wikidata":null},"geometry":{"type":"Point","coordinates":[29.000591,40.2165679]}},{"type":"Feature","properties":{"station_id":"n5316433984","station_name":"Korupark","station_name_local":"Korupark","network":"BursaRay","network_local":"BursaRay","operator":"Bursa Ulaşım Toplu Taşıma İşletmeciliği","city":"Bursa","country":"Turkey","lines":["B1"],"wikidata":null},"geometry":{"type":"Point","coordinates":[28.9571983,40.2507123]}},{"type":"Feature","properties":{"station_id":"n5316433997","station_name":"Emek","station_name_local":"Emek","network":"BursaRay","network_local":"BursaRay","operator":"Bursa Ulaşım Toplu Taşıma İşletmeciliği","city":"Bursa","country":"Turkey","lines":["B1"],"wikidata":"Q61074934"},"geometry":{"type":"Point","coordinates":[28.9525619,40.2570429]}},{"type":"Feature","properties":{"station_id":"n5316437013","station_name":"Bursa Organize Sanayi Bölgesi / Akpınar","station_name_local":"Bursa Organize Sanayi Bölgesi / Akpınar","network":"BursaRay","network_local":"BursaRay","operator":"Bursa Ulaşım Toplu Taşıma İşletmeciliği","city":"Bursa","country":"Turkey","lines":["B1"],"wikidata":null},"geometry":{"type":"Point","coordinates":[28.9670044,40.2434211]}},{"type":"Feature","properties":{"station_id":"n5316451309","station_name":"Hamitler / Fethiye","station_name_local":"Hamitler / Fethiye","network":"BursaRay","network_local":"BursaRay","operator":"Bursa Ulaşım Toplu Taşıma İşletmeciliği","city":"Bursa","country":"Turkey","lines":["B1"],"wikidata":null},"geometry":{"type":"Point","coordinates":[28.9755365,40.2369491]}},{"type":"Feature","properties":{"station_id":"n5316452957","station_name":"İhsaniye","station_name_local":"İhsaniye","network":"BursaRay","network_local":"BursaRay","operator":"Bursa Ulaşım Toplu Taşıma İşletmeciliği","city":"Bursa","country":"Turkey","lines":["B1"],"wikidata":null},"geometry":{"type":"Point","coordinates":[28.9938993,40.2230789]}},{"type":"Feature","properties":{"station_id":"n5316452966","station_name":"Bağlarbaşı / Esentepe","station_name_local":"Bağlarbaşı / Esentepe","network":"BursaRay","network_local":"BursaRay","operator":"Bursa Ulaşım Toplu Taşıma İşletmeciliği","city":"Bursa","country":"Turkey","lines":["B1"],"wikidata":null},"geometry":{"type":"Point","coordinates":[28.9865249,40.229165]}},{"type":"Feature","properties":{"station_id":"n5316997726","station_name":"Beşevler / Barış","station_name_local":"Beşevler / Barış","network":"BursaRay","network_local":"BursaRay","operator":"Bursa Ulaşım Toplu Taşıma İşletmeciliği","city":"Bursa","country":"Turkey","lines":["B2"],"wikidata":null},"geometry":{"type":"Point","coordinates":[28.9661488,40.2130163]}},{"type":"Feature","properties":{"station_id":"n5316997737","station_name":"Fatih Sultan Mehmet","station_name_local":"Fatih Sultan Mehmet","network":"BursaRay","network_local":"BursaRay","operator":"Bursa Ulaşım Toplu Taşıma İşletmeciliği","city":"Bursa","country":"Turkey","lines":["B2"],"wikidata":null},"geometry":{"type":"Point","coordinates":[28.9755017,40.211521]}},{"type":"Feature","properties":{"station_id":"n5316997750","station_name":"Nilüfer","station_name_local":"Nilüfer","network":"BursaRay","network_local":"BursaRay","operator":"Bursa Ulaşım Toplu Taşıma İşletmeciliği","city":"Bursa","country":"Turkey","lines":["B2"],"wikidata":null},"geometry":{"type":"Point","coordinates":[28.9881295,40.2118754]}},{"type":"Feature","properties":{"station_id":"n5317020135","station_name":"Yüzüncüyıl","station_name_local":"Yüzüncüyıl","network":"BursaRay","network_local":"BursaRay","operator":"Bursa Ulaşım Toplu Taşıma İşletmeciliği","city":"Bursa","country":"Turkey","lines":["B2"],"wikidata":null},"geometry":{"type":"Point","coordinates":[28.899866,40.2202053]}},{"type":"Feature","properties":{"station_id":"n5317020148","station_name":"Batıkent / 19 Mayıs","station_name_local":"Batıkent / 19 Mayıs","network":"BursaRay","network_local":"BursaRay","operator":"Bursa Ulaşım Toplu Taşıma İşletmeciliği","city":"Bursa","country":"Turkey","lines":["B2"],"wikidata":null},"geometry":{"type":"Point","coordinates":[28.8911674,40.2204724]}},{"type":"Feature","properties":{"station_id":"n5317020169","station_name":"Uludağ Üniversitesi","station_name_local":"Uludağ Üniversitesi","network":"BursaRay","network_local":"BursaRay","operator":"Bursa Ulaşım Toplu Taşıma İşletmeciliği","city":"Bursa","country":"Turkey","lines":["B2"],"wikidata":null},"geometry":{"type":"Point","coordinates":[28.8700453,40.218146]}},{"type":"Feature","properties":{"station_id":"n5317023689","station_name":"Özlüce / 29 Ekim","station_name_local":"Özlüce / 29 Ekim","network":"BursaRay","network_local":"BursaRay","operator":"Bursa Ulaşım Toplu Taşıma İşletmeciliği","city":"Bursa","country":"Turkey","lines":["B2"],"wikidata":null},"geometry":{"type":"Point","coordinates":[28.9112869,40.2199002]}},{"type":"Feature","properties":{"station_id":"n5317028674","station_name":"Ertuğrul / Dörtçelik Çocuk Hastanesi","station_name_local":"Ertuğrul / Dörtçelik Çocuk Hastanesi","network":"BursaRay","network_local":"BursaRay","operator":"Bursa Ulaşım Toplu Taşıma İşletmeciliği","city":"Bursa","country":"Turkey","lines":["B2"],"wikidata":null},"geometry":{"type":"Point","coordinates":[28.9219286,40.2193984]}},{"type":"Feature","properties":{"station_id":"n5317033353","station_name":"Altınşehir","station_name_local":"Altınşehir","network":"BursaRay","network_local":"BursaRay","operator":"Bursa Ulaşım Toplu Taşıma İşletmeciliği","city":"Bursa","country":"Turkey","lines":["B2"],"wikidata":null},"geometry":{"type":"Point","coordinates":[28.934079,40.2148075]}},{"type":"Feature","properties":{"station_id":"n5317041669","station_name":"Ataevler / 23 Nisan","station_name_local":"Ataevler / 23 Nisan","network":"BursaRay","network_local":"BursaRay","operator":"Bursa Ulaşım Toplu Taşıma İşletmeciliği","city":"Bursa","country":"Turkey","lines":["B2"],"wikidata":null},"geometry":{"type":"Point","coordinates":[28.9499322,40.2125595]}},{"type":"Feature","properties":{"station_id":"n5317041681","station_name":"Küçük Sanayi","station_name_local":"Küçük Sanayi","network":"BursaRay","network_local":"BursaRay","operator":"Bursa Ulaşım Toplu Taşıma İşletmeciliği","city":"Bursa","country":"Turkey","lines":["B2"],"wikidata":null},"geometry":{"type":"Point","coordinates":[28.9415857,40.2120183]}},{"type":"Feature","properties":{"station_id":"n7726391260","station_name":"Duaçınarı","station_name_local":"Duaçınarı","network":"BursaRay","network_local":"BursaRay","operator":"Bursa Ulaşım Toplu Taşıma İşletmeciliği","city":"Bursa","country":"Turkey","lines":["B1","B2"],"wikidata":null},"geometry":{"type":"Point","coordinates":[29.0992347,40.1915637]}},{"type":"Feature","properties":{"station_id":"n9132118601","station_name":"Odunluk","station_name_local":"Odunluk","network":"BursaRay","network_local":"BursaRay","operator":"Bursa Ulaşım Toplu Taşıma İşletmeciliği","city":"Bursa","country":"Turkey","lines":["B2"],"wikidata":null},"geometry":{"type":"Point","coordinates":[28.9987586,40.2120917]}},{"type":"Feature","properties":{"station_id":"n11773405295","station_name":"Geçit/Balat","station_name_local":"Geçit/Balat","network":"BursaRay","network_local":"BursaRay","operator":"Bursa Ulaşım Toplu Taşıma İşletmeciliği","city":"Bursa","country":"Turkey","lines":["B1"],"wikidata":null},"geometry":{"type":"Point","coordinates":[28.9482624,40.2673754]}}]}