{"type":"FeatureCollection","metro_system":{"continent":null,"country":null,"city":null,"osm_networks":["Linha 1","Linha 1 / Linha 2","Linha 2","Metrô de Belo Horizonte","MetrôBH","Unknown"],"operator":null,"official_website":null,"official_map":null,"wikidata":"Q10318642","line_count":1,"station_count":22},"features":[{"type":"Feature","properties":{"route_id":"rm6087653","route_name":"Linha 1 - Laranja","route_name_local":"Linha 1 - Laranja","route_ref":"1","route_color":"#ff7400","network":"Metrô de Belo Horizonte","network_local":"Metrô de Belo Horizonte","operator":null,"city":null,"country":null,"wikidata":"Q10318642","wikipedia":null,"osm_route_ids":[420605,6087652]},"geometry":{"type":"MultiLineString","coordinates":[[[-44.0415313,-19.9307048],[-44.0293215,-19.9386824],[-44.0163986,-19.9454968],[-44.0030036,-19.9386334],[-43.9883517,-19.9279558],[-43.9782949,-19.9248438],[-43.9703068,-19.9223266],[-43.9565425,-19.9174466],[-43.9425526,-19.9128369],[-43.9328952,-19.9170727],[-43.922773,-19.9197086],[-43.9126678,-19.9178605],[-43.9131314,-19.9061089],[-43.9105018,-19.8953472],[-43.9128222,-19.8836639],[-43.9251544,-19.8722683],[-43.9262466,-19.8632936],[-43.9338669,-19.8578926],[-43.9327021,-19.8477869],[-43.9404282,-19.8339962],[-43.9474439,-19.8216682]],[[-43.9474028,-19.8215615],[-43.9403182,-19.8342435],[-43.9326364,-19.8477957],[-43.9338357,-19.8578585],[-43.9261981,-19.8632815],[-43.9251208,-19.8722444],[-43.9127913,-19.8836553],[-43.9104635,-19.8953279],[-43.913012,-19.9061279],[-43.9126514,-19.9179875],[-43.9227684,-19.9197955],[-43.9331125,-19.9170261],[-43.9424731,-19.9129467],[-43.9564891,-19.9175372],[-43.9702198,-19.9224029],[-43.9882825,-19.9280351],[-44.0036236,-19.9398603],[-44.0164071,-19.9455845],[-44.0294045,-19.9387916],[-44.0415757,-19.930796]]]}},{"type":"Feature","properties":{"station_id":"n4124563097","station_name":"Estação Vila Oeste","station_name_local":"Estação Vila Oeste","network":"MetrôBH","network_local":null,"operator":"MetrôBH","city":null,"country":null,"lines":["1"],"wikidata":"Q10276220"},"geometry":{"type":"Point","coordinates":[-44.0032536,-19.9391367]}},{"type":"Feature","properties":{"station_id":"n5362545412","station_name":"Estação Eldorado","station_name_local":"Estação Eldorado","network":"Linha 1","network_local":"Linha 1","operator":"MetrôBH","city":null,"country":null,"lines":["1"],"wikidata":null},"geometry":{"type":"Point","coordinates":[-44.0294166,-19.9386989]}},{"type":"Feature","properties":{"station_id":"n5363031124","station_name":"Estação Cidade Industrial","station_name_local":"Estação Cidade Industrial","network":"Unknown","network_local":null,"operator":null,"city":null,"country":null,"lines":["1"],"wikidata":"Q10275648"},"geometry":{"type":"Point","coordinates":[-44.0164592,-19.9455273]}},{"type":"Feature","properties":{"station_id":"n5365193658","station_name":"Estação de Metrô Vilarinho","station_name_local":"Estação de Metrô Vilarinho","network":"Unknown","network_local":null,"operator":null,"city":null,"country":null,"lines":["1"],"wikidata":"Q10276225"},"geometry":{"type":"Point","coordinates":[-43.9475475,-19.8215537]}},{"type":"Feature","properties":{"station_id":"n5365199766","station_name":"Estação Floramar","station_name_local":"Estação Floramar","network":"Unknown","network_local":null,"operator":null,"city":null,"country":null,"lines":["1"],"wikidata":"Q18475571"},"geometry":{"type":"Point","coordinates":[-43.9403522,-19.8341883]}},{"type":"Feature","properties":{"station_id":"n5365202168","station_name":"Estação Waldomiro Lobo","station_name_local":"Estação Waldomiro Lobo","network":"Unknown","network_local":null,"operator":null,"city":null,"country":null,"lines":["1"],"wikidata":"Q18475886"},"geometry":{"type":"Point","coordinates":[-43.9326454,-19.8477029]}},{"type":"Feature","properties":{"station_id":"n5365204649","station_name":"Estação Primeiro de Maio","station_name_local":"Estação Primeiro de Maio","network":"Unknown","network_local":null,"operator":null,"city":null,"country":null,"lines":["1"],"wikidata":"Q18475757"},"geometry":{"type":"Point","coordinates":[-43.9339472,-19.8579007]}},{"type":"Feature","properties":{"station_id":"n5365208176","station_name":"Estação Minas Shopping","station_name_local":"Estação Minas Shopping","network":"Unknown","network_local":null,"operator":null,"city":null,"country":null,"lines":["1"],"wikidata":"Q18475686"},"geometry":{"type":"Point","coordinates":[-43.9252266,-19.8722399]}},{"type":"Feature","properties":{"station_id":"n5365389740","station_name":"Estação Horto","station_name_local":"Estação Horto","network":"Unknown","network_local":null,"operator":null,"city":null,"country":null,"lines":["1"],"wikidata":"Q10275860"},"geometry":{"type":"Point","coordinates":[-43.9131052,-19.9061348]}},{"type":"Feature","properties":{"station_id":"n5365391312","station_name":"Estação Lagoinha","station_name_local":"Estação Lagoinha","network":"Unknown","network_local":null,"operator":null,"city":null,"country":null,"lines":["1"],"wikidata":"Q10275924"},"geometry":{"type":"Point","coordinates":[-43.9425558,-19.9129311]}},{"type":"Feature","properties":{"station_id":"n5365391617","station_name":"Estação Santa Tereza","station_name_local":"Estação Santa Tereza","network":"Unknown","network_local":null,"operator":null,"city":null,"country":null,"lines":["1"],"wikidata":"Q18475791"},"geometry":{"type":"Point","coordinates":[-43.9126489,-19.9178917]}},{"type":"Feature","properties":{"station_id":"n5365392544","station_name":"Estação Santa Efigênia","station_name_local":"Estação Santa Efigênia","network":"Unknown","network_local":null,"operator":null,"city":null,"country":null,"lines":["1"],"wikidata":"Q18638234"},"geometry":{"type":"Point","coordinates":[-43.9226204,-19.9196938]}},{"type":"Feature","properties":{"station_id":"n5365396588","station_name":"Estação Carlos Prates","station_name_local":"Estação Carlos Prates","network":"Unknown","network_local":null,"operator":null,"city":null,"country":null,"lines":["1"],"wikidata":"Q10275631"},"geometry":{"type":"Point","coordinates":[-43.9564401,-19.9174707]}},{"type":"Feature","properties":{"station_id":"n5365398604","station_name":"Estação Calafate","station_name_local":"Estação Calafate","network":"Unknown","network_local":null,"operator":null,"city":null,"country":null,"lines":["1"],"wikidata":"Q10275617"},"geometry":{"type":"Point","coordinates":[-43.9703206,-19.9223787]}},{"type":"Feature","properties":{"station_id":"n5371461010","station_name":"Estação de Metrô São Gabriel","station_name_local":"Estação de Metrô São Gabriel","network":"Unknown","network_local":null,"operator":null,"city":null,"country":null,"lines":["1"],"wikidata":"Q10276166"},"geometry":{"type":"Point","coordinates":[-43.9262206,-19.8632331]}},{"type":"Feature","properties":{"station_id":"n7773976736","station_name":"Estação Central","station_name_local":"Estação Central","network":"MetrôBH","network_local":null,"operator":"MetrôBH","city":null,"country":null,"lines":["1"],"wikidata":"Q10275642"},"geometry":{"type":"Point","coordinates":[-43.9330249,-19.9170609]}},{"type":"Feature","properties":{"station_id":"n7774375164","station_name":"Estação Gameleira","station_name_local":"Estação Gameleira","network":"MetrôBH","network_local":null,"operator":"MetrôBH","city":null,"country":null,"lines":["1"],"wikidata":"Q10275822"},"geometry":{"type":"Point","coordinates":[-43.9882569,-19.927964]}},{"type":"Feature","properties":{"station_id":"n12263024333","station_name":"Novo Eldorado","station_name_local":"Novo Eldorado","network":"Linha 1","network_local":"Linha 1","operator":"MetrôBH","city":null,"country":null,"lines":["1"],"wikidata":null},"geometry":{"type":"Point","coordinates":[-44.0416189,-19.9306987]}},{"type":"Feature","properties":{"station_id":"n13931278795","station_name":"Amazonas","station_name_local":"Amazonas","network":"Linha 2","network_local":"Linha 2","operator":"MetrôBH","city":null,"country":null,"lines":null,"wikidata":"Q65162464"},"geometry":{"type":"Point","coordinates":[-43.9841858,-19.9318812]}},{"type":"Feature","properties":{"station_id":"n13931278796","station_name":"Nova Suíça","station_name_local":"Nova Suíça","network":"Linha 1 / Linha 2","network_local":"Linha 1 / Linha 2","operator":"MetrôBH","city":null,"country":null,"lines":["1"],"wikidata":"Q65162470"},"geometry":{"type":"Point","coordinates":[-43.9789348,-19.9248481]}},{"type":"Feature","properties":{"station_id":"n218479142","station_name":"Estação de Metrô José Cândido da Silveira","station_name_local":"Estação de Metrô José Cândido da Silveira","network":"Unknown","network_local":null,"operator":null,"city":null,"country":null,"lines":["1"],"wikidata":"Q10275900"},"geometry":{"type":"Point","coordinates":[-43.912946,-19.8833415]}},{"type":"Feature","properties":{"station_id":"n1015070613","station_name":"Estação Santa Inês","station_name_local":"Estação Santa Inês","network":"Unknown","network_local":null,"operator":null,"city":null,"country":null,"lines":["1"],"wikidata":"Q18475774"},"geometry":{"type":"Point","coordinates":[-43.9105189,-19.8952367]}}]}