{"type":"FeatureCollection","metro_system":{"continent":null,"country":null,"city":null,"osm_networks":["NTA","Tel Aviv LRT","Tevel Metro","Unknown"],"operator":null,"official_website":null,"official_map":"https://he.wikipedia.org/wiki/דנקל_–_הקו_האדום","wikidata":"Q7304510","line_count":1,"station_count":37,"audit":null},"features":[{"type":"Feature","properties":{"route_id":"rm16226515","route_name":"Red Line (Tel Aviv Light Rail)","route_name_local":"מערכת להסעת המונים במטרופולין תל אביב - הקו האדום","route_ref":"R","route_color":"#e6194b","network":"Tel Aviv LRT","network_local":"Tel Aviv LRT","operator":null,"city":null,"country":null,"wikidata":"Q7304510","wikipedia":"he:דנקל – הקו האדום","osm_route_ids":[2224880,16224901,16226723,16227443,16227444,16227445]},"geometry":{"type":"MultiLineString","coordinates":[[[34.7468877,32.0024058],[34.7491677,32.0061304],[34.7516786,32.0111238],[34.751753,32.0155929],[34.7479784,32.0164728],[34.7444845,32.0176344],[34.7432199,32.0220872],[34.7448382,32.0267105],[34.7491654,32.0283808],[34.7517505,32.0338046],[34.7559842,32.0390155],[34.757199,32.0423849],[34.7584624,32.046376],[34.7590386,32.050506],[34.7596167,32.0548003],[34.7635409,32.0585525],[34.7752618,32.0628271],[34.7835021,32.0657921],[34.788799,32.0705421],[34.7923093,32.0771197],[34.7968111,32.0816215],[34.8028128,32.0828549],[34.812103,32.0867255],[34.8238807,32.0909931],[34.8387166,32.092665],[34.8536196,32.0926283],[34.8616454,32.091887],[34.867081,32.0914039],[34.8728538,32.0908664],[34.8778699,32.0921365],[34.8825131,32.0938141],[34.886806,32.0946845]],[[34.8859742,32.094588],[34.8817422,32.0936487],[34.8771862,32.0917435],[34.8718125,32.0910236],[34.8611203,32.0919894],[34.8528734,32.0927232],[34.8377027,32.0927474],[34.8229052,32.0908368],[34.811462,32.0863774],[34.8018774,32.0828488],[34.7961907,32.0815155],[34.7919571,32.0766427],[34.788404,32.0701754],[34.7828678,32.0653221],[34.774639,32.0625522],[34.7624538,32.0583107],[34.7594296,32.054192],[34.7588634,32.0500173],[34.7582512,32.045695],[34.7569017,32.041854],[34.7556403,32.0383738],[34.7515492,32.0333019],[34.7487782,32.0279477],[34.7441154,32.0267327],[34.7432175,32.0213698],[34.7449649,32.0173041],[34.7487701,32.0163337],[34.7525201,32.0151882],[34.7513102,32.0105451],[34.7487499,32.0055399],[34.7465902,32.0020721]]]}},{"type":"Feature","properties":{"station_id":"n1300562198","station_name":"n1300562198","station_name_local":null,"network":"Unknown","network_local":null,"operator":null,"city":null,"country":null,"lines":["R"],"wikidata":null},"geometry":{"type":"Point","coordinates":[34.8463102,32.0989178]}},{"type":"Feature","properties":{"station_id":"n11124725529","station_name":"Dankner","station_name_local":"דנקנר","network":"Unknown","network_local":null,"operator":null,"city":null,"country":null,"lines":["R"],"wikidata":"Q121300501"},"geometry":{"type":"Point","coordinates":[34.872384,32.0909542]}},{"type":"Feature","properties":{"station_id":"n11124725530","station_name":"Shaham","station_name_local":"שחם","network":"Unknown","network_local":null,"operator":null,"city":null,"country":null,"lines":["R"],"wikidata":"Q121092441"},"geometry":{"type":"Point","coordinates":[34.861398,32.0919406]}},{"type":"Feature","properties":{"station_id":"n11124725534","station_name":"Shenkar","station_name_local":"שנקר","network":"Unknown","network_local":null,"operator":null,"city":null,"country":null,"lines":["R"],"wikidata":"Q97208395"},"geometry":{"type":"Point","coordinates":[34.8533047,32.0926625]}},{"type":"Feature","properties":{"station_id":"n11124762405","station_name":"Pinsker","station_name_local":"פינסקר","network":"Unknown","network_local":null,"operator":null,"city":null,"country":null,"lines":["R"],"wikidata":"Q121323651"},"geometry":{"type":"Point","coordinates":[34.8821238,32.0937354]}},{"type":"Feature","properties":{"station_id":"n11124762408","station_name":"Petah Tikva CBS","station_name_local":"תחנה מרכזית פתח תקווה","network":"Unknown","network_local":null,"operator":null,"city":null,"country":null,"lines":["R"],"wikidata":null},"geometry":{"type":"Point","coordinates":[34.8863929,32.0946492]}},{"type":"Feature","properties":{"station_id":"n11124762409","station_name":"Krol","station_name_local":"קרול","network":"Unknown","network_local":null,"operator":null,"city":null,"country":null,"lines":["R"],"wikidata":"Q121318499"},"geometry":{"type":"Point","coordinates":[34.877512,32.0919053]}},{"type":"Feature","properties":{"station_id":"n11124762412","station_name":"Beilinson","station_name_local":"בילינסון","network":"Unknown","network_local":null,"operator":null,"city":null,"country":null,"lines":["R"],"wikidata":"Q121092562"},"geometry":{"type":"Point","coordinates":[34.8667497,32.0914569]}},{"type":"Feature","properties":{"station_id":"n11124763767","station_name":"Allenby","station_name_local":"אלנבי","network":"Tevel Metro","network_local":null,"operator":"Tevel Metro","city":null,"country":null,"lines":["R"],"wikidata":"Q50275914"},"geometry":{"type":"Point","coordinates":[34.7748797,32.0627053]}},{"type":"Feature","properties":{"station_id":"n11124781758","station_name":"Yehudit","station_name_local":"יהודית","network":"Unknown","network_local":null,"operator":null,"city":null,"country":null,"lines":["R"],"wikidata":"Q55649392"},"geometry":{"type":"Point","coordinates":[34.7886062,32.0703643]}},{"type":"Feature","properties":{"station_id":"n11124786622","station_name":"Arlozoroff","station_name_local":"ארלוזורוב","network":"Unknown","network_local":null,"operator":null,"city":null,"country":null,"lines":["R"],"wikidata":"Q41992304"},"geometry":{"type":"Point","coordinates":[34.7965082,32.081565]}},{"type":"Feature","properties":{"station_id":"n11124793538","station_name":"Shaul HaMelech","station_name_local":"שאול המלך","network":"Unknown","network_local":null,"operator":null,"city":null,"country":null,"lines":["R"],"wikidata":"Q31197774"},"geometry":{"type":"Point","coordinates":[34.7921548,32.0769175]}},{"type":"Feature","properties":{"station_id":"n11124798243","station_name":"Bialik","station_name_local":"ביאליק","network":"Unknown","network_local":null,"operator":null,"city":null,"country":null,"lines":["R"],"wikidata":"Q41991555"},"geometry":{"type":"Point","coordinates":[34.8120485,32.0867743]}},{"type":"Feature","properties":{"station_id":"n11125350010","station_name":"HaKomemiyut","station_name_local":"הקוממיות","network":"Unknown","network_local":null,"operator":null,"city":null,"country":null,"lines":["R"],"wikidata":"Q111683892"},"geometry":{"type":"Point","coordinates":[34.7467523,32.0022588]}},{"type":"Feature","properties":{"station_id":"n11125350011","station_name":"HeAmal","station_name_local":"העמל","network":"Unknown","network_local":null,"operator":null,"city":null,"country":null,"lines":["R"],"wikidata":"Q106027929"},"geometry":{"type":"Point","coordinates":[34.7489869,32.0058745]}},{"type":"Feature","properties":{"station_id":"n11125350016","station_name":"Kaf Tet BeNovember","station_name_local":"כ\"ט בנובמבר","network":"Unknown","network_local":null,"operator":null,"city":null,"country":null,"lines":["R"],"wikidata":null},"geometry":{"type":"Point","coordinates":[34.7514884,32.0108317]}},{"type":"Feature","properties":{"station_id":"n11125350021","station_name":"Yoseftal","station_name_local":"יוספטל","network":"Unknown","network_local":null,"operator":null,"city":null,"country":null,"lines":["R"],"wikidata":null},"geometry":{"type":"Point","coordinates":[34.7521506,32.01539]}},{"type":"Feature","properties":{"station_id":"n11125350024","station_name":"Binyamin","station_name_local":"בנימין","network":"Unknown","network_local":null,"operator":null,"city":null,"country":null,"lines":["R"],"wikidata":null},"geometry":{"type":"Point","coordinates":[34.7483364,32.0164126]}},{"type":"Feature","properties":{"station_id":"n11125350025","station_name":"Balfour","station_name_local":"בלפור","network":"Unknown","network_local":null,"operator":null,"city":null,"country":null,"lines":["R"],"wikidata":null},"geometry":{"type":"Point","coordinates":[34.7447273,32.0174591]}},{"type":"Feature","properties":{"station_id":"n11125454962","station_name":"HaAtzma'ut","station_name_local":"העצמאות","network":"Unknown","network_local":null,"operator":null,"city":null,"country":null,"lines":["R"],"wikidata":"Q130244765"},"geometry":{"type":"Point","coordinates":[34.7489727,32.0281653]}},{"type":"Feature","properties":{"station_id":"n11125454967","station_name":"Mahrozet","station_name_local":"מחרוזת","network":"Unknown","network_local":null,"operator":null,"city":null,"country":null,"lines":["R"],"wikidata":"Q130466163"},"geometry":{"type":"Point","coordinates":[34.751653,32.0335751]}},{"type":"Feature","properties":{"station_id":"n11125454970","station_name":"HaBesht","station_name_local":"הבעש\"ט","network":"Unknown","network_local":null,"operator":null,"city":null,"country":null,"lines":["R"],"wikidata":"Q130464831"},"geometry":{"type":"Point","coordinates":[34.7558374,32.0387216]}},{"type":"Feature","properties":{"station_id":"n11125454973","station_name":"Isakov","station_name_local":"איסקוב","network":"Unknown","network_local":null,"operator":null,"city":null,"country":null,"lines":["R"],"wikidata":"Q130464828"},"geometry":{"type":"Point","coordinates":[34.7570772,32.0421438]}},{"type":"Feature","properties":{"station_id":"n11125454976","station_name":"Ehrlich","station_name_local":"ארליך","network":"Unknown","network_local":null,"operator":null,"city":null,"country":null,"lines":["R"],"wikidata":"Q130397552"},"geometry":{"type":"Point","coordinates":[34.7583647,32.0460687]}},{"type":"Feature","properties":{"station_id":"n11125457547","station_name":"Em HaMoshavot Bridge","station_name_local":"גשר אם המושבות","network":"Unknown","network_local":null,"operator":null,"city":null,"country":null,"lines":["R"],"wikidata":null},"geometry":{"type":"Point","coordinates":[34.846268,32.0988788]}},{"type":"Feature","properties":{"station_id":"n11125457549","station_name":"Kiryat Aryeh light rail station","station_name_local":"תחנה רכבת קלה - קריית אריה","network":"Unknown","network_local":null,"operator":null,"city":null,"country":null,"lines":["R"],"wikidata":"Q7005322"},"geometry":{"type":"Point","coordinates":[34.8626727,32.1064019]}},{"type":"Feature","properties":{"station_id":"n11132682253","station_name":"Bloomfield Stadium","station_name_local":"אצטדיון בלומפילד","network":"Unknown","network_local":null,"operator":null,"city":null,"country":null,"lines":["R"],"wikidata":"Q106846496"},"geometry":{"type":"Point","coordinates":[34.7589515,32.050258]}},{"type":"Feature","properties":{"station_id":"n11132682256","station_name":"Shalma","station_name_local":"שלמה","network":"Unknown","network_local":null,"operator":null,"city":null,"country":null,"lines":["R"],"wikidata":null},"geometry":{"type":"Point","coordinates":[34.7595214,32.0544983]}},{"type":"Feature","properties":{"station_id":"n11133645848","station_name":"Elifelet","station_name_local":"אליפלט","network":"Unknown","network_local":null,"operator":null,"city":null,"country":null,"lines":["R"],"wikidata":"Q97208382"},"geometry":{"type":"Point","coordinates":[34.7627699,32.058341]}},{"type":"Feature","properties":{"station_id":"n11133645854","station_name":"Rothschild","station_name_local":"רוטשילד","network":"Unknown","network_local":null,"operator":null,"city":null,"country":null,"lines":["R"],"wikidata":"Q130466246"},"geometry":{"type":"Point","coordinates":[34.7444659,32.0267279]}},{"type":"Feature","properties":{"station_id":"n11133645857","station_name":"Jabotinsky","station_name_local":"ז'בוטינסקי","network":"Unknown","network_local":null,"operator":null,"city":null,"country":null,"lines":["R"],"wikidata":null},"geometry":{"type":"Point","coordinates":[34.74322,32.021706]}},{"type":"Feature","properties":{"station_id":"n11133775512","station_name":"Aharonovich","station_name_local":"אהרונוביץ'","network":"Unknown","network_local":null,"operator":null,"city":null,"country":null,"lines":["R"],"wikidata":null,"merged_from":2},"geometry":{"type":"Point","coordinates":[34.83813255,32.0926774]}},{"type":"Feature","properties":{"station_id":"n11133775515","station_name":"Ben Gurion","station_name_local":"בן גוריון","network":"Unknown","network_local":null,"operator":null,"city":null,"country":null,"lines":["R"],"wikidata":"Q55649381"},"geometry":{"type":"Point","coordinates":[34.8233946,32.0909203]}},{"type":"Feature","properties":{"station_id":"n11133775519","station_name":"Abba Hillel","station_name_local":"אבא הלל","network":"NTA","network_local":null,"operator":"NTA","city":null,"country":null,"lines":["R"],"wikidata":"Q25494925"},"geometry":{"type":"Point","coordinates":[34.802366,32.082853]}},{"type":"Feature","properties":{"station_id":"n11133775525","station_name":"Carlebach","station_name_local":"קרליבך","network":"NTA","network_local":null,"operator":"NTA","city":null,"country":null,"lines":["R"],"wikidata":null,"merged_from":2},"geometry":{"type":"Point","coordinates":[34.78310205,32.065588399999996]}},{"type":"Feature","properties":{"station_id":"n382072592","station_name":"Aba Hilel Station","station_name_local":"אבא הלל","network":"NTA","network_local":null,"operator":"NTA","city":null,"country":null,"lines":["R"],"wikidata":"Q25494925"},"geometry":{"type":"Point","coordinates":[34.8023621,32.0828522]}},{"type":"Feature","properties":{"station_id":"n593477566","station_name":"Ben Gurion Light Rail Station","station_name_local":"בן גוריון","network":"Unknown","network_local":null,"operator":null,"city":null,"country":null,"lines":["R"],"wikidata":null},"geometry":{"type":"Point","coordinates":[34.8234017,32.0909582]}}]}