{"type":"FeatureCollection","metro_system":{"continent":null,"country":null,"city":null,"osm_networks":["Unknown","Utrecht Binnen"],"operator":"U-OV","official_website":null,"official_map":"https://nl.wikipedia.org/wiki/Uithoflijn","wikidata":"Q81422423","line_count":3,"station_count":32,"audit":null},"features":[{"type":"Feature","properties":{"route_id":"rm5664427","route_name":"Tram 21","route_name_local":"Tram 21","route_ref":"21","route_color":"#ff0010","network":"Utrecht Binnen","network_local":"Utrecht Binnen","operator":"U-OV","city":null,"country":null,"wikidata":"Q81422423","wikipedia":null,"osm_route_ids":[2874840,3746040]},"geometry":{"type":"MultiLineString","coordinates":[[[5.0387633,52.0093841],[5.0390933,52.0167591],[5.0288015,52.0225529],[5.0361483,52.0255053],[5.0480405,52.0264428],[5.0526563,52.0250626],[5.0740332,52.0205834],[5.0795427,52.0255155],[5.0794916,52.0285961],[5.0781339,52.0361416],[5.0803533,52.0414896],[5.0906011,52.0456877],[5.1063951,52.0568521],[5.1071992,52.0635384],[5.1019548,52.0689556],[5.0965653,52.0747674],[5.0916859,52.0800129],[5.1007697,52.0879651],[5.1058107,52.0895754],[5.1116034,52.0892274],[5.1225703,52.0788015],[5.1504465,52.079613],[5.1572691,52.0833255],[5.1679576,52.084821],[5.1750338,52.0848303],[5.1796313,52.0850685],[5.1830252,52.0895732],[5.1770604,52.0915113]],[[5.1770604,52.0915113],[5.1832873,52.0890171],[5.1786787,52.0850755],[5.1734344,52.0848709],[5.1670877,52.0848575],[5.1564831,52.0829131],[5.1504018,52.0796375],[5.122601,52.0788305],[5.1119712,52.0893536],[5.1057838,52.0896113],[5.1005286,52.087619],[5.0930629,52.0784635],[5.0965209,52.0747461],[5.1022489,52.0685715],[5.1069395,52.0628656],[5.1066509,52.056258],[5.0894487,52.0459641],[5.0779176,52.0355376],[5.0799053,52.0280122],[5.0788493,52.024822],[5.0739853,52.020598],[5.0517739,52.0252569],[5.0473455,52.0268097],[5.0354369,52.0251483],[5.028312,52.0220785],[5.040055,52.0165934],[5.0387503,52.0094656]]]}},{"type":"Feature","properties":{"route_id":"rm5664426","route_name":"Tram 20","route_name_local":"Tram 20","route_ref":"20","route_color":"#ff0010","network":"Utrecht Binnen","network_local":"Utrecht Binnen","operator":"U-OV","city":null,"country":null,"wikidata":"Q30716928","wikipedia":null,"osm_route_ids":[2874841,3746000]},"geometry":{"type":"MultiLineString","coordinates":[[[5.1770604,52.0915113],[5.1832873,52.0890171],[5.1786787,52.0850755],[5.1734344,52.0848709],[5.1670877,52.0848575],[5.1564831,52.0829131],[5.1504018,52.0796375],[5.122601,52.0788305],[5.1119712,52.0893536],[5.1057838,52.0896113],[5.1005286,52.087619],[5.0930629,52.0784635],[5.0965209,52.0747461],[5.1022489,52.0685715],[5.1069395,52.0628656],[5.1066509,52.056258],[5.0894487,52.0459641],[5.0797278,52.040704],[5.0779176,52.0355376],[5.0799053,52.0280122],[5.0861359,52.0256923],[5.0885519,52.0184932],[5.0886739,52.0119033],[5.086502,52.0062848]],[[5.0866115,52.0062639],[5.0887147,52.0118943],[5.0889293,52.0191889],[5.0853108,52.0259026],[5.0794916,52.0285961],[5.0781339,52.0361416],[5.0803533,52.0414896],[5.0906011,52.0456877],[5.1063951,52.0568521],[5.1071992,52.0635384],[5.1019548,52.0689556],[5.0965653,52.0747674],[5.0916859,52.0800129],[5.1007697,52.0879651],[5.1058107,52.0895754],[5.1116034,52.0892274],[5.1225703,52.0788015],[5.1504465,52.079613],[5.1572691,52.0833255],[5.1679576,52.084821],[5.1750338,52.0848303],[5.1796313,52.0850685],[5.1830252,52.0895732],[5.1770604,52.0915113]]]}},{"type":"Feature","properties":{"route_id":"rm10396259","route_name":"Tram 22","route_name_local":"Tram 22","route_ref":"22","route_color":"#ff0010","network":"Utrecht Binnen","network_local":"Utrecht Binnen","operator":"U-OV","city":null,"country":null,"wikidata":"Q2885972","wikipedia":"nl:Uithoflijn","osm_route_ids":[10396257,10396258]},"geometry":{"type":"MultiLineString","coordinates":[[[5.1770604,52.0915113],[5.1832873,52.0890171],[5.1786787,52.0850755],[5.1734344,52.0848709],[5.1670877,52.0848575],[5.1564831,52.0829131],[5.1504018,52.0796375],[5.122601,52.0788305],[5.1118382,52.0893025]],[[5.1117735,52.0892864],[5.1225703,52.0788015],[5.1504465,52.079613],[5.1572691,52.0833255],[5.1679576,52.084821],[5.1750338,52.0848303],[5.1796313,52.0850685],[5.1830252,52.0895732],[5.1771317,52.0915822]]]}},{"type":"Feature","properties":{"station_id":"n13887599779","station_name":"Station Vaartsche Rijn","station_name_local":"Station Vaartsche Rijn","network":"Unknown","network_local":null,"operator":null,"city":null,"country":null,"lines":["20","21","22"],"wikidata":"Q139970696"},"geometry":{"type":"Point","coordinates":[5.1225847,52.0788183]}},{"type":"Feature","properties":{"station_id":"n13887636282","station_name":"De Kromme Rijn","station_name_local":"De Kromme Rijn","network":"Unknown","network_local":null,"operator":null,"city":null,"country":null,"lines":["20","21","22"],"wikidata":"Q100354868"},"geometry":{"type":"Point","coordinates":[5.1568467,52.0831009]}},{"type":"Feature","properties":{"station_id":"n13887664282","station_name":"Padualaan","station_name_local":"Padualaan","network":"Unknown","network_local":null,"operator":null,"city":null,"country":null,"lines":["20","21","22"],"wikidata":"Q100354943"},"geometry":{"type":"Point","coordinates":[5.1675748,52.084839]}},{"type":"Feature","properties":{"station_id":"n13887664495","station_name":"Stadion Galgenwaard","station_name_local":"Stadion Galgenwaard","network":"Unknown","network_local":null,"operator":null,"city":null,"country":null,"lines":["20","21","22"],"wikidata":"Q100354652"},"geometry":{"type":"Point","coordinates":[5.1504207,52.0796191]}},{"type":"Feature","properties":{"station_id":"n13887666013","station_name":"Heidelberglaan","station_name_local":"Heidelberglaan","network":"Unknown","network_local":null,"operator":null,"city":null,"country":null,"lines":["20","21","22"],"wikidata":"Q100355054"},"geometry":{"type":"Point","coordinates":[5.1742039,52.084847]}},{"type":"Feature","properties":{"station_id":"n13887667082","station_name":"CS Centrumzijde","station_name_local":"CS Centrumzijde","network":"Unknown","network_local":null,"operator":null,"city":null,"country":null,"lines":["22"],"wikidata":"Q100354129"},"geometry":{"type":"Point","coordinates":[5.1118065,52.089287]}},{"type":"Feature","properties":{"station_id":"n13887667083","station_name":"CS Jaarbeursplein","station_name_local":"CS Jaarbeursplein","network":"Unknown","network_local":null,"operator":null,"city":null,"country":null,"lines":["20","21"],"wikidata":"Q13734579"},"geometry":{"type":"Point","coordinates":[5.1057985,52.0895904]}},{"type":"Feature","properties":{"station_id":"n13887670262","station_name":"UMC Utrecht","station_name_local":"UMC Utrecht","network":"Unknown","network_local":null,"operator":null,"city":null,"country":null,"lines":["20","21","22"],"wikidata":"Q100355159"},"geometry":{"type":"Point","coordinates":[5.179209,52.0850913]}},{"type":"Feature","properties":{"station_id":"n13887682411","station_name":"WKZ/PMC","station_name_local":"WKZ/PMC","network":"Unknown","network_local":null,"operator":null,"city":null,"country":null,"lines":["20","21","22"],"wikidata":"Q100354454"},"geometry":{"type":"Point","coordinates":[5.1831642,52.0892879]}},{"type":"Feature","properties":{"station_id":"n13887687965","station_name":"P+R Science Park","station_name_local":"P+R Science Park","network":"Unknown","network_local":null,"operator":null,"city":null,"country":null,"lines":["22"],"wikidata":"Q100354382"},"geometry":{"type":"Point","coordinates":[5.1775187,52.0914975]}},{"type":"Feature","properties":{"station_id":"n13888468864","station_name":"Graadt van Roggenweg","station_name_local":"Graadt van Roggenweg","network":"Unknown","network_local":null,"operator":null,"city":null,"country":null,"lines":["20","21"],"wikidata":"Q2745884"},"geometry":{"type":"Point","coordinates":[5.1006732,52.0878255]}},{"type":"Feature","properties":{"station_id":"n13888475104","station_name":"24 Oktoberplein-Zuid","station_name_local":"24 Oktoberplein-Zuid","network":"Unknown","network_local":null,"operator":null,"city":null,"country":null,"lines":["20","21"],"wikidata":"Q2196798"},"geometry":{"type":"Point","coordinates":[5.0924067,52.0792001]}},{"type":"Feature","properties":{"station_id":"n13888515130","station_name":"Winkelcentrum Kanaleneiland","station_name_local":"Winkelcentrum Kanaleneiland","network":"Unknown","network_local":null,"operator":null,"city":null,"country":null,"lines":["20","21"],"wikidata":"Q2869875"},"geometry":{"type":"Point","coordinates":[5.0965436,52.0747549]}},{"type":"Feature","properties":{"station_id":"n13888519249","station_name":"Vasco da Gamalaan","station_name_local":"Vasco da Gamalaan","network":"Unknown","network_local":null,"operator":null,"city":null,"country":null,"lines":["20","21"],"wikidata":"Q2725344"},"geometry":{"type":"Point","coordinates":[5.1021649,52.0686965]}},{"type":"Feature","properties":{"station_id":"n13892612172","station_name":"Wijkersloot","station_name_local":"Wijkersloot","network":"Unknown","network_local":null,"operator":null,"city":null,"country":null,"lines":["20","21"],"wikidata":"Q2597091"},"geometry":{"type":"Point","coordinates":[5.0780444,52.0359122]}},{"type":"Feature","properties":{"station_id":"n13892612173","station_name":"Sint Antonius Ziekenhuis","station_name_local":"Sint Antonius Ziekenhuis","network":"Unknown","network_local":null,"operator":null,"city":null,"country":null,"lines":["21"],"wikidata":"Q2920959"},"geometry":{"type":"Point","coordinates":[5.0792157,52.0251831]}},{"type":"Feature","properties":{"station_id":"n13892612174","station_name":"Doorslag","station_name_local":"Doorslag","network":"Unknown","network_local":null,"operator":null,"city":null,"country":null,"lines":["21"],"wikidata":"Q2471891"},"geometry":{"type":"Point","coordinates":[5.0740092,52.0205911]}},{"type":"Feature","properties":{"station_id":"n13892612175","station_name":"Hooghe Waerd","station_name_local":"Hooghe Waerd","network":"Unknown","network_local":null,"operator":null,"city":null,"country":null,"lines":["21"],"wikidata":"Q2053695"},"geometry":{"type":"Point","coordinates":[5.0521407,52.0251681]}},{"type":"Feature","properties":{"station_id":"n13892612176","station_name":"Nieuwegein City","station_name_local":"Nieuwegein City","network":"Unknown","network_local":null,"operator":null,"city":null,"country":null,"lines":["20","21"],"wikidata":"Q2456992"},"geometry":{"type":"Point","coordinates":[5.0796954,52.0283099]}},{"type":"Feature","properties":{"station_id":"n13892622465","station_name":"Clinckhoeff","station_name_local":"Clinckhoeff","network":"Unknown","network_local":null,"operator":null,"city":null,"country":null,"lines":["21"],"wikidata":"Q4666425"},"geometry":{"type":"Point","coordinates":[5.0476805,52.0266384]}},{"type":"Feature","properties":{"station_id":"n13892622466","station_name":"Eiteren","station_name_local":"Eiteren","network":"Unknown","network_local":null,"operator":null,"city":null,"country":null,"lines":["21"],"wikidata":"Q13575619"},"geometry":{"type":"Point","coordinates":[5.0357886,52.0253253]}},{"type":"Feature","properties":{"station_id":"n13892622467","station_name":"Achterveld","station_name_local":"Achterveld","network":"Unknown","network_local":null,"operator":null,"city":null,"country":null,"lines":["21"],"wikidata":"Q2640321"},"geometry":{"type":"Point","coordinates":[5.0285658,52.0223252]}},{"type":"Feature","properties":{"station_id":"n13892622468","station_name":"Binnenstad","station_name_local":"Binnenstad","network":"Unknown","network_local":null,"operator":null,"city":null,"country":null,"lines":["21"],"wikidata":"Q2752484"},"geometry":{"type":"Point","coordinates":[5.0395699,52.0166785]}},{"type":"Feature","properties":{"station_id":"n13892622469","station_name":"IJsselstein-Zuid","station_name_local":"IJsselstein-Zuid","network":"Unknown","network_local":null,"operator":null,"city":null,"country":null,"lines":["21"],"wikidata":"Q2034253"},"geometry":{"type":"Point","coordinates":[5.0387516,52.0094228]}},{"type":"Feature","properties":{"station_id":"n13892636780","station_name":"Nieuwegein-Zuid","station_name_local":"Nieuwegein-Zuid","network":"Unknown","network_local":null,"operator":null,"city":null,"country":null,"lines":["20"],"wikidata":"Q1895028"},"geometry":{"type":"Point","coordinates":[5.0865569,52.0062736]}},{"type":"Feature","properties":{"station_id":"n13892636781","station_name":"Wiersdijk","station_name_local":"Wiersdijk","network":"Unknown","network_local":null,"operator":null,"city":null,"country":null,"lines":["20"],"wikidata":"Q14518970"},"geometry":{"type":"Point","coordinates":[5.0886934,52.0118988]}},{"type":"Feature","properties":{"station_id":"n13892636782","station_name":"Merwestein","station_name_local":"Merwestein","network":"Unknown","network_local":null,"operator":null,"city":null,"country":null,"lines":["20"],"wikidata":"Q2115242"},"geometry":{"type":"Point","coordinates":[5.0855856,52.0258273]}},{"type":"Feature","properties":{"station_id":"n13892636783","station_name":"Fokkesteeg","station_name_local":"Fokkesteeg","network":"Unknown","network_local":null,"operator":null,"city":null,"country":null,"lines":["20"],"wikidata":"Q2468828"},"geometry":{"type":"Point","coordinates":[5.0887422,52.0188506]}},{"type":"Feature","properties":{"station_id":"n13892641211","station_name":"Kanaleneiland-Zuid","station_name_local":"Kanaleneiland-Zuid","network":"Unknown","network_local":null,"operator":null,"city":null,"country":null,"lines":["20","21"],"wikidata":"Q2305253"},"geometry":{"type":"Point","coordinates":[5.107081,52.0632559]}},{"type":"Feature","properties":{"station_id":"n13892641212","station_name":"P+R Westraven","station_name_local":"P+R Westraven","network":"Unknown","network_local":null,"operator":null,"city":null,"country":null,"lines":["20","21"],"wikidata":"Q2509376"},"geometry":{"type":"Point","coordinates":[5.1065479,52.0565076]}},{"type":"Feature","properties":{"station_id":"n13892641213","station_name":"Zuilenstein","station_name_local":"Zuilenstein","network":"Unknown","network_local":null,"operator":null,"city":null,"country":null,"lines":["20","21"],"wikidata":"Q2689550"},"geometry":{"type":"Point","coordinates":[5.090039,52.0458236]}},{"type":"Feature","properties":{"station_id":"n13892641214","station_name":"Batau-Noord","station_name_local":"Batau-Noord","network":"Unknown","network_local":null,"operator":null,"city":null,"country":null,"lines":["20","21"],"wikidata":"Q1851803"},"geometry":{"type":"Point","coordinates":[5.0800415,52.0411012]}}]}