{"type":"FeatureCollection","metro_system":{"continent":"south-america","country":"Brazil","city":"Recife","osm_networks":["CBTU Recife","Linha Centro 1 e 2","Metrô do Recife","Unknown"],"operator":"CBTU","official_website":null,"official_map":"https://pt.wikipedia.org/wiki/Linha_Sul_do_Metrô_do_Recife","wikidata":"Q104231463","line_count":3,"station_count":40},"features":[{"type":"Feature","properties":{"route_id":"rm7869352","route_name":"Linha Centro - 1","route_name_local":"Linha Centro - 1","route_ref":"1","route_color":"#e77405","network":"Metrô do Recife","network_local":"Metrô do Recife","operator":null,"city":"Recife","country":"Brazil","wikidata":"Q104231463","wikipedia":null,"osm_route_ids":[420618,7869351]},"geometry":{"type":"MultiLineString","coordinates":[[[-34.8854444,-8.0691306],[-34.8954792,-8.0731402],[-34.906311,-8.0772619],[-34.9133333,-8.0777175],[-34.921183,-8.0793163],[-34.9301401,-8.0841371],[-34.9362531,-8.085966],[-34.945812,-8.0888536],[-34.9566471,-8.0903303],[-34.9646905,-8.0913529],[-34.9749729,-8.0847981],[-34.9787677,-8.0759579],[-34.9809536,-8.0641438],[-34.9886082,-8.0362659],[-34.9952781,-8.0246044]]]}},{"type":"Feature","properties":{"route_id":"rm7869334","route_name":"Linha Centro - 2","route_name_local":"Linha Centro - 2","route_ref":"2","route_color":"#d9001c","network":"Metrô do Recife","network_local":"Metrô do Recife","operator":null,"city":"Recife","country":"Brazil","wikidata":"Q104231524;Q16282623","wikipedia":null,"osm_route_ids":[420619,7869333]},"geometry":{"type":"MultiLineString","coordinates":[[[-35.0152501,-8.1111675],[-35.0051572,-8.1080407],[-34.9930586,-8.1069682],[-34.9727523,-8.0940082],[-34.9647036,-8.0914021],[-34.9566334,-8.0903861],[-34.9457846,-8.0889043],[-34.9362363,-8.0860145],[-34.9301234,-8.0841959],[-34.9211716,-8.0793709],[-34.9133396,-8.077763],[-34.9062942,-8.0772882],[-34.8954669,-8.0731815],[-34.8854071,-8.0691486]]]}},{"type":"Feature","properties":{"route_id":"rm7869374","route_name":"Linha Sul","route_name_local":"Linha Sul","route_ref":"Sul","route_color":"#1a5ba3","network":"Metrô do Recife","network_local":"Metrô do Recife","operator":"CBTU","city":"Recife","country":"Brazil","wikidata":"Q10329288","wikipedia":"pt:Linha Sul do Metrô do Recife","osm_route_ids":[4510097,7869373]},"geometry":{"type":"MultiLineString","coordinates":[[[-34.8853246,-8.0691952],[-34.895374,-8.0732603],[-34.9049952,-8.0815144],[-34.9075643,-8.0901809],[-34.9091285,-8.1098814],[-34.9106033,-8.1161963],[-34.9119145,-8.122306],[-34.9147098,-8.1341688],[-34.9176079,-8.1469782],[-34.9202154,-8.1544762],[-34.9268033,-8.161069],[-34.9340995,-8.1683822]]]}},{"type":"Feature","properties":{"station_id":"n1418921322","station_name":"Antônio Falcão","station_name_local":"Antônio Falcão","network":"Unknown","network_local":null,"operator":null,"city":"Recife","country":"Brazil","lines":["Sul"],"wikidata":null},"geometry":{"type":"Point","coordinates":[-34.9090843,-8.1098917]}},{"type":"Feature","properties":{"station_id":"n2497744692","station_name":"Tancredo Neves","station_name_local":"Tancredo Neves","network":"Unknown","network_local":null,"operator":null,"city":"Recife","country":"Brazil","lines":["Sul"],"wikidata":null},"geometry":{"type":"Point","coordinates":[-34.9118225,-8.1222673]}},{"type":"Feature","properties":{"station_id":"n5279927396","station_name":"Jaboatão","station_name_local":"Jaboatão","network":"Unknown","network_local":null,"operator":null,"city":"Recife","country":"Brazil","lines":["2"],"wikidata":null},"geometry":{"type":"Point","coordinates":[-35.015257,-8.1111323]}},{"type":"Feature","properties":{"station_id":"n5279927400","station_name":"Engenho Velho","station_name_local":"Engenho Velho","network":"Unknown","network_local":null,"operator":null,"city":"Recife","country":"Brazil","lines":["2"],"wikidata":null},"geometry":{"type":"Point","coordinates":[-35.0051615,-8.1080182]}},{"type":"Feature","properties":{"station_id":"n5279927402","station_name":"Floriano","station_name_local":"Floriano","network":"Unknown","network_local":null,"operator":null,"city":"Recife","country":"Brazil","lines":["2"],"wikidata":null},"geometry":{"type":"Point","coordinates":[-34.9930597,-8.1069468]}},{"type":"Feature","properties":{"station_id":"n5279927404","station_name":"Cavaleiro","station_name_local":"Cavaleiro","network":"Unknown","network_local":null,"operator":null,"city":"Recife","country":"Brazil","lines":["2"],"wikidata":null},"geometry":{"type":"Point","coordinates":[-34.9727775,-8.0939756]}},{"type":"Feature","properties":{"station_id":"n5279927406","station_name":"Camaragibe","station_name_local":"Camaragibe","network":"Unknown","network_local":null,"operator":null,"city":"Recife","country":"Brazil","lines":["1"],"wikidata":"Q10275619"},"geometry":{"type":"Point","coordinates":[-34.9953255,-8.0246294]}},{"type":"Feature","properties":{"station_id":"n5279927410","station_name":"Cosme e Damião","station_name_local":"Cosme e Damião","network":"Unknown","network_local":null,"operator":null,"city":"Recife","country":"Brazil","lines":["1"],"wikidata":"Q19838633"},"geometry":{"type":"Point","coordinates":[-34.9885516,-8.0364239]}},{"type":"Feature","properties":{"station_id":"n5279927412","station_name":"Rodoviária","station_name_local":"Rodoviária","network":"Unknown","network_local":null,"operator":null,"city":"Recife","country":"Brazil","lines":["1"],"wikidata":"Q10276100"},"geometry":{"type":"Point","coordinates":[-34.9809709,-8.0641557]}},{"type":"Feature","properties":{"station_id":"n5279927418","station_name":"Curado","station_name_local":"Curado","network":"Unknown","network_local":null,"operator":null,"city":"Recife","country":"Brazil","lines":["1"],"wikidata":"Q10275678"},"geometry":{"type":"Point","coordinates":[-34.9787989,-8.0759644]}},{"type":"Feature","properties":{"station_id":"n5279927420","station_name":"Alto do Céu","station_name_local":"Alto do Céu","network":"Unknown","network_local":null,"operator":null,"city":"Recife","country":"Brazil","lines":["1"],"wikidata":"Q10275562"},"geometry":{"type":"Point","coordinates":[-34.9750051,-8.0848021]}},{"type":"Feature","properties":{"station_id":"n5279929221","station_name":"Coqueiral","station_name_local":"Coqueiral","network":"Unknown","network_local":null,"operator":null,"city":"Recife","country":"Brazil","lines":["2"],"wikidata":"Q10275667"},"geometry":{"type":"Point","coordinates":[-34.9647161,-8.0914369]}},{"type":"Feature","properties":{"station_id":"n5279929225","station_name":"Tejipió","station_name_local":"Tejipió","network":"Unknown","network_local":null,"operator":null,"city":"Recife","country":"Brazil","lines":["1","2"],"wikidata":null},"geometry":{"type":"Point","coordinates":[-34.9566413,-8.0903554]}},{"type":"Feature","properties":{"station_id":"n5279929229","station_name":"Barro","station_name_local":"Barro","network":"Unknown","network_local":null,"operator":null,"city":"Recife","country":"Brazil","lines":["1","2"],"wikidata":null},"geometry":{"type":"Point","coordinates":[-34.9457996,-8.088879]}},{"type":"Feature","properties":{"station_id":"n5279929231","station_name":"Werneck","station_name_local":"Werneck","network":"Unknown","network_local":null,"operator":null,"city":"Recife","country":"Brazil","lines":["1","2"],"wikidata":null},"geometry":{"type":"Point","coordinates":[-34.9362451,-8.0859893]}},{"type":"Feature","properties":{"station_id":"n5279929232","station_name":"Ipiranga","station_name_local":"Ipiranga","network":"Unknown","network_local":null,"operator":null,"city":"Recife","country":"Brazil","lines":["1","2"],"wikidata":null},"geometry":{"type":"Point","coordinates":[-34.9133376,-8.07774]}},{"type":"Feature","properties":{"station_id":"n5279929233","station_name":"Santa Luzia","station_name_local":"Santa Luzia","network":"Unknown","network_local":null,"operator":null,"city":"Recife","country":"Brazil","lines":["1","2"],"wikidata":null},"geometry":{"type":"Point","coordinates":[-34.9301332,-8.0841647]}},{"type":"Feature","properties":{"station_id":"n5279929236","station_name":"Mangueira","station_name_local":"Mangueira","network":"Unknown","network_local":null,"operator":null,"city":"Recife","country":"Brazil","lines":["1","2"],"wikidata":null},"geometry":{"type":"Point","coordinates":[-34.9211783,-8.0793417]}},{"type":"Feature","properties":{"station_id":"n5279929237","station_name":"Recife","station_name_local":"Recife","network":"Unknown","network_local":null,"operator":null,"city":"Recife","country":"Brazil","lines":["Sul"],"wikidata":null},"geometry":{"type":"Point","coordinates":[-34.8853656,-8.0691737]}},{"type":"Feature","properties":{"station_id":"n5279929241","station_name":"Afogados","station_name_local":"Afogados","network":"Unknown","network_local":null,"operator":null,"city":"Recife","country":"Brazil","lines":["1","2"],"wikidata":null},"geometry":{"type":"Point","coordinates":[-34.9062953,-8.0772839]}},{"type":"Feature","properties":{"station_id":"n5279929242","station_name":"Joana Bezerra","station_name_local":"Joana Bezerra","network":"Unknown","network_local":null,"operator":null,"city":"Recife","country":"Brazil","lines":["Sul"],"wikidata":null},"geometry":{"type":"Point","coordinates":[-34.8953949,-8.0732099]}},{"type":"Feature","properties":{"station_id":"n5280081366","station_name":"Monte dos Guararapes","station_name_local":"Monte dos Guararapes","network":"Unknown","network_local":null,"operator":null,"city":"Recife","country":"Brazil","lines":["Sul"],"wikidata":null},"geometry":{"type":"Point","coordinates":[-34.9201896,-8.1544625]}},{"type":"Feature","properties":{"station_id":"n5280081368","station_name":"Cajueiro Seco","station_name_local":"Cajueiro Seco","network":"Unknown","network_local":null,"operator":null,"city":"Recife","country":"Brazil","lines":["Sul"],"wikidata":null},"geometry":{"type":"Point","coordinates":[-34.9340785,-8.1683987]}},{"type":"Feature","properties":{"station_id":"n5280081370","station_name":"Prazeres","station_name_local":"Prazeres","network":"CBTU Recife","network_local":null,"operator":"CBTU Recife","city":"Recife","country":"Brazil","lines":["Sul"],"wikidata":null},"geometry":{"type":"Point","coordinates":[-34.9267699,-8.1611032]}},{"type":"Feature","properties":{"station_id":"n5280081371","station_name":"Porta Larga","station_name_local":"Porta Larga","network":"Unknown","network_local":null,"operator":null,"city":"Recife","country":"Brazil","lines":["Sul"],"wikidata":null},"geometry":{"type":"Point","coordinates":[-34.9176151,-8.1470626]}},{"type":"Feature","properties":{"station_id":"n5280081373","station_name":"Shopping","station_name_local":"Shopping","network":"Unknown","network_local":null,"operator":null,"city":"Recife","country":"Brazil","lines":["Sul"],"wikidata":null},"geometry":{"type":"Point","coordinates":[-34.9105544,-8.1162006]}},{"type":"Feature","properties":{"station_id":"n5280081375","station_name":"Aeroporto","station_name_local":"Aeroporto","network":"Unknown","network_local":null,"operator":null,"city":"Recife","country":"Brazil","lines":["Sul"],"wikidata":null},"geometry":{"type":"Point","coordinates":[-34.9146661,-8.1341737]}},{"type":"Feature","properties":{"station_id":"n5280081384","station_name":"Imbiribeira","station_name_local":"Imbiribeira","network":"Unknown","network_local":null,"operator":null,"city":"Recife","country":"Brazil","lines":["Sul"],"wikidata":null},"geometry":{"type":"Point","coordinates":[-34.9075129,-8.0902049]}},{"type":"Feature","properties":{"station_id":"n128375001","station_name":"Antônio Falcão","station_name_local":"Antônio Falcão","network":"Unknown","network_local":null,"operator":null,"city":"Recife","country":"Brazil","lines":["Sul"],"wikidata":null},"geometry":{"type":"Point","coordinates":[-34.9090407,-8.1098801]}},{"type":"Feature","properties":{"station_id":"n128475764","station_name":"Afogados","station_name_local":"Afogados","network":"Linha Centro 1 e 2","network_local":"Linha Centro 1 e 2","operator":"CBTU Recife","city":"Recife","country":"Brazil","lines":["1","2"],"wikidata":null},"geometry":{"type":"Point","coordinates":[-34.9063671,-8.0773126]}},{"type":"Feature","properties":{"station_id":"n129480960","station_name":"Shopping","station_name_local":"Shopping","network":"Unknown","network_local":null,"operator":null,"city":"Recife","country":"Brazil","lines":["Sul"],"wikidata":null},"geometry":{"type":"Point","coordinates":[-34.9105122,-8.1161776]}},{"type":"Feature","properties":{"station_id":"n129481073","station_name":"Tancredo Neves","station_name_local":"Tancredo Neves","network":"Unknown","network_local":null,"operator":null,"city":"Recife","country":"Brazil","lines":["Sul"],"wikidata":null},"geometry":{"type":"Point","coordinates":[-34.9118582,-8.1223473]}},{"type":"Feature","properties":{"station_id":"n129483316","station_name":"Porta Larga","station_name_local":"Porta Larga","network":"Unknown","network_local":null,"operator":null,"city":"Recife","country":"Brazil","lines":["Sul"],"wikidata":null},"geometry":{"type":"Point","coordinates":[-34.9175694,-8.1470968]}},{"type":"Feature","properties":{"station_id":"n141710681","station_name":"Monte dos Guararapes","station_name_local":"Monte dos Guararapes","network":"Unknown","network_local":null,"operator":null,"city":"Recife","country":"Brazil","lines":["Sul"],"wikidata":null},"geometry":{"type":"Point","coordinates":[-34.9201082,-8.1544626]}},{"type":"Feature","properties":{"station_id":"n371261853","station_name":"Ipiranga","station_name_local":"Ipiranga","network":"Unknown","network_local":null,"operator":null,"city":"Recife","country":"Brazil","lines":["1","2"],"wikidata":null},"geometry":{"type":"Point","coordinates":[-34.9133068,-8.0777379]}},{"type":"Feature","properties":{"station_id":"n371261858","station_name":"Mangueira","station_name_local":"Mangueira","network":"Unknown","network_local":null,"operator":null,"city":"Recife","country":"Brazil","lines":["1","2"],"wikidata":null},"geometry":{"type":"Point","coordinates":[-34.9211219,-8.0793264]}},{"type":"Feature","properties":{"station_id":"n371261870","station_name":"n371261870","station_name_local":null,"network":"Unknown","network_local":null,"operator":null,"city":"Recife","country":"Brazil","lines":["1","2"],"wikidata":null},"geometry":{"type":"Point","coordinates":[-34.9362433,-8.0859903]}},{"type":"Feature","properties":{"station_id":"n373786302","station_name":"Tejipió","station_name_local":"Tejipió","network":"Unknown","network_local":null,"operator":null,"city":"Recife","country":"Brazil","lines":["1","2"],"wikidata":"Q10276180"},"geometry":{"type":"Point","coordinates":[-34.9566024,-8.0903432]}},{"type":"Feature","properties":{"station_id":"n428121165","station_name":"n428121165","station_name_local":null,"network":"Unknown","network_local":null,"operator":null,"city":"Recife","country":"Brazil","lines":["1","2"],"wikidata":null},"geometry":{"type":"Point","coordinates":[-34.9457781,-8.0888747]}},{"type":"Feature","properties":{"station_id":"n625817765","station_name":"Largo da Paz","station_name_local":"Largo da Paz","network":"Unknown","network_local":null,"operator":null,"city":"Recife","country":"Brazil","lines":["Sul"],"wikidata":"Q18475649"},"geometry":{"type":"Point","coordinates":[-34.9048986,-8.0815252]}}]}