{"type":"FeatureCollection","metro_system":{"continent":"south-america","country":"Brazil","city":"Água Preta","osm_networks":["CBTU","CBTU Natal","Unknown","VLT João Pessoa","VLT Natal","VLT Natal - Linha Branca","VLT Natal - Linha Norte","VLT Natal - Linha SUl","VLT Natal - Linha Sul","VLT de Natal - Linha Branca","VLT de Natal - Linha Norte"],"operator":"CBTU","official_website":null,"official_map":"https://pt.wikipedia.org/wiki/Sistema_de_Trens_Urbanos_de_João_Pessoa","wikidata":"Q10374984","line_count":3,"station_count":32,"audit":{"strategies_tried":[],"passed":true,"checks":[{"id":"has_lines","ok":true,"detail":"3 lines","level":"error"},{"id":"has_stations","ok":true,"detail":"32 stations","level":"error"},{"id":"stations_have_lines","ok":true,"detail":"32/32 站皆有所屬路線","level":"error"},{"id":"stations_named","ok":true,"detail":"32/32 站有名稱","level":"warn"},{"id":"station_order","ok":true,"detail":"所有線路站序合理","level":"warn"}],"reasons":[],"warnings":[],"audited_at":"2026-07-10T08:36:15.518Z"}},"features":[{"type":"Feature","properties":{"route_id":"rm9881792","route_name":"North Line","route_name_local":"Linha Norte","route_ref":"Norte","route_color":"#0000ff","network":"CBTU Natal","network_local":"CBTU Natal","operator":"CBTU","city":"Água Preta","country":"Brazil","wikidata":"Q10374984","wikipedia":null,"osm_route_ids":[1229611,9881791]},"geometry":{"type":"MultiLineString","coordinates":[[[-35.2062609,-5.7802358],[-35.2240439,-5.7933876],[-35.2375946,-5.7959326],[-35.2511107,-5.7712632],[-35.2417614,-5.7565179],[-35.2516642,-5.7523361],[-35.2700472,-5.7380083],[-35.2768928,-5.7283759],[-35.2885152,-5.7075507],[-35.3044911,-5.7061188],[-35.334169,-5.6621021],[-35.3520903,-5.646226],[-35.3858176,-5.6369016],[-35.4213032,-5.6322453]]]}},{"type":"Feature","properties":{"route_id":"rm10570416","route_name":"CBTU: Santa Rita/Cabedelo","route_name_local":"CBTU: Santa Rita/Cabedelo","route_ref":"CBTU","route_color":"#3cb44b","network":"CBTU","network_local":"CBTU","operator":"CBTU","city":"Água Preta","country":"Brazil","wikidata":"Q18484877","wikipedia":"pt:Sistema de Trens Urbanos de João Pessoa","osm_route_ids":[3182693,10570415]},"geometry":{"type":"MultiLineString","coordinates":[[[-34.9802378,-7.124943],[-34.955446,-7.1199696],[-34.9280124,-7.1274447],[-34.9128901,-7.1303871],[-34.9015707,-7.1272041],[-34.8906741,-7.1151287],[-34.8638671,-7.1000712],[-34.8552367,-7.0751845],[-34.8503263,-7.0364432],[-34.8415715,-7.0196154],[-34.8335592,-7.0039317],[-34.8326928,-6.990218],[-34.8359576,-6.9741177]]]}},{"type":"Feature","properties":{"route_id":"rm15268630","route_name":"South Line","route_name_local":"Linha Sul","route_ref":"Sul","route_color":"#0000ff","network":"CBTU Natal","network_local":"CBTU Natal","operator":"CBTU","city":"Água Preta","country":"Brazil","wikidata":"Q10374983","wikipedia":null,"osm_route_ids":[9881790,15268627]},"geometry":{"type":"MultiLineString","coordinates":[[[-35.2062479,-5.7803401],[-35.2234971,-5.7944835],[-35.2268892,-5.8036518],[-35.2351767,-5.8113194],[-35.2426501,-5.8227365],[-35.245221,-5.8331376],[-35.2451418,-5.8466758],[-35.2475918,-5.8546786],[-35.2551675,-5.8827194],[-35.2578198,-5.9160095],[-35.2591156,-5.9320568],[-35.2418164,-5.9431602],[-35.2308717,-6.0252144],[-35.2346241,-6.0703655]]]}},{"type":"Feature","properties":{"station_id":"n302592195","station_name":"Quintas","station_name_local":"Quintas","network":"Unknown","network_local":null,"operator":null,"city":"Água Preta","country":"Brazil","lines":["Norte"],"wikidata":null},"geometry":{"type":"Point","coordinates":[-35.2375946,-5.7959326]}},{"type":"Feature","properties":{"station_id":"n317024128","station_name":"Bom Pastor","station_name_local":"Bom Pastor","network":"CBTU","network_local":null,"operator":"CBTU","city":"Água Preta","country":"Brazil","lines":["Sul"],"wikidata":null},"geometry":{"type":"Point","coordinates":[-35.2351767,-5.8113194]}},{"type":"Feature","properties":{"station_id":"n4986974431","station_name":"Santa Rita","station_name_local":"Santa Rita","network":"VLT João Pessoa","network_local":"VLT João Pessoa","operator":"CBTU","city":"Água Preta","country":"Brazil","lines":["CBTU"],"wikidata":"Q18475783"},"geometry":{"type":"Point","coordinates":[-34.9802981,-7.1248907]}},{"type":"Feature","properties":{"station_id":"n6080723226","station_name":"Cidade Esperança","station_name_local":"Cidade Esperança","network":"VLT Natal - Linha Sul","network_local":"VLT Natal - Linha Sul","operator":"CBTU","city":"Água Preta","country":"Brazil","lines":["Sul"],"wikidata":null},"geometry":{"type":"Point","coordinates":[-35.2426088,-5.8227763]}},{"type":"Feature","properties":{"station_id":"n6080723244","station_name":"Cidade Satélite","station_name_local":"Cidade Satélite","network":"Unknown","network_local":null,"operator":null,"city":"Água Preta","country":"Brazil","lines":["Sul"],"wikidata":null},"geometry":{"type":"Point","coordinates":[-35.2475641,-5.8547327]}},{"type":"Feature","properties":{"station_id":"n6080726309","station_name":"Estrela do Mar","station_name_local":"Estrela do Mar","network":"Unknown","network_local":null,"operator":null,"city":"Água Preta","country":"Brazil","lines":["Norte"],"wikidata":null},"geometry":{"type":"Point","coordinates":[-35.2884598,-5.7074644]}},{"type":"Feature","properties":{"station_id":"n6080726318","station_name":"Nordelândia","station_name_local":"Nordelândia","network":"Unknown","network_local":null,"operator":null,"city":"Água Preta","country":"Brazil","lines":["Norte"],"wikidata":null},"geometry":{"type":"Point","coordinates":[-35.2768168,-5.7283995]}},{"type":"Feature","properties":{"station_id":"n6080726319","station_name":"Nova Natal","station_name_local":"Nova Natal","network":"Unknown","network_local":null,"operator":null,"city":"Água Preta","country":"Brazil","lines":["Norte"],"wikidata":null},"geometry":{"type":"Point","coordinates":[-35.2700093,-5.7380057]}},{"type":"Feature","properties":{"station_id":"n6495150328","station_name":"Jardim Manguinhos","station_name_local":"Jardim Manguinhos","network":"VLT João Pessoa","network_local":"VLT João Pessoa","operator":"CBTU","city":"Água Preta","country":"Brazil","lines":["CBTU"],"wikidata":null,"merged_from":2},"geometry":{"type":"Point","coordinates":[-34.832660849999996,-6.9901781]}},{"type":"Feature","properties":{"station_id":"n6680674500","station_name":"Pitimbu","station_name_local":"Pitimbu","network":"VLT Natal - Linha Sul","network_local":"VLT Natal - Linha Sul","operator":"CBTU","city":"Água Preta","country":"Brazil","lines":["Sul"],"wikidata":null},"geometry":{"type":"Point","coordinates":[-35.2451972,-5.8467109]}},{"type":"Feature","properties":{"station_id":"n6698231201","station_name":"Extremoz","station_name_local":"Extremoz","network":"Unknown","network_local":null,"operator":null,"city":"Água Preta","country":"Brazil","lines":["Norte"],"wikidata":null},"geometry":{"type":"Point","coordinates":[-35.3045032,-5.706056]}},{"type":"Feature","properties":{"station_id":"n6761485860","station_name":"Raposa","station_name_local":"Raposa","network":"Unknown","network_local":null,"operator":null,"city":"Água Preta","country":"Brazil","lines":["Norte"],"wikidata":null},"geometry":{"type":"Point","coordinates":[-35.334282,-5.6620674]}},{"type":"Feature","properties":{"station_id":"n6761501461","station_name":"Lagoa Grande","station_name_local":"Lagoa Grande","network":"Unknown","network_local":null,"operator":null,"city":"Água Preta","country":"Brazil","lines":["Norte"],"wikidata":"Q20053920"},"geometry":{"type":"Point","coordinates":[-35.3861984,-5.6367998]}},{"type":"Feature","properties":{"station_id":"n6761532962","station_name":"Ceará-Mirim","station_name_local":"Ceará-Mirim","network":"Unknown","network_local":null,"operator":null,"city":"Água Preta","country":"Brazil","lines":["Norte"],"wikidata":"Q1759622"},"geometry":{"type":"Point","coordinates":[-35.4213484,-5.6322688]}},{"type":"Feature","properties":{"station_id":"n6977862963","station_name":"Soledade","station_name_local":"Soledade","network":"CBTU Natal","network_local":"CBTU Natal","operator":null,"city":"Água Preta","country":"Brazil","lines":["Norte"],"wikidata":null},"geometry":{"type":"Point","coordinates":[-35.2516712,-5.7523495]}},{"type":"Feature","properties":{"station_id":"n10542646322","station_name":"São José de Mipibu","station_name_local":"São José de Mipibu","network":"Unknown","network_local":null,"operator":null,"city":"Água Preta","country":"Brazil","lines":["Sul"],"wikidata":null},"geometry":{"type":"Point","coordinates":[-35.2346302,-6.0703725]}},{"type":"Feature","properties":{"station_id":"n10542646323","station_name":"Cajupiranga","station_name_local":"Cajupiranga","network":"Unknown","network_local":null,"operator":null,"city":"Água Preta","country":"Brazil","lines":["Sul"],"wikidata":null,"merged_from":2},"geometry":{"type":"Point","coordinates":[-35.24186105,-5.943142999999999]}},{"type":"Feature","properties":{"station_id":"n10542646324","station_name":"Bonfim","station_name_local":"Bonfim","network":"Unknown","network_local":null,"operator":null,"city":"Água Preta","country":"Brazil","lines":["Sul"],"wikidata":null},"geometry":{"type":"Point","coordinates":[-35.2309053,-6.0252104]}},{"type":"Feature","properties":{"station_id":"n13276502331","station_name":"Jardim Camboinha","station_name_local":"Jardim Camboinha","network":"VLT João Pessoa","network_local":"VLT João Pessoa","operator":"CBTU","city":"Água Preta","country":"Brazil","lines":["CBTU"],"wikidata":null,"merged_from":2},"geometry":{"type":"Point","coordinates":[-34.83361885,-7.003868649999999]}},{"type":"Feature","properties":{"station_id":"n13276541417","station_name":"Cabedelo","station_name_local":"Cabedelo","network":"VLT João Pessoa","network_local":"VLT João Pessoa","operator":"CBTU","city":"Água Preta","country":"Brazil","lines":["CBTU"],"wikidata":null},"geometry":{"type":"Point","coordinates":[-34.835986,-6.974217]}},{"type":"Feature","properties":{"station_id":"n13276675019","station_name":"Ilha do Bispo","station_name_local":"Ilha do Bispo","network":"VLT João Pessoa","network_local":"VLT João Pessoa","operator":"VLT João Pessoa","city":"Água Preta","country":"Brazil","lines":["CBTU"],"wikidata":null},"geometry":{"type":"Point","coordinates":[-34.9016162,-7.1272919]}},{"type":"Feature","properties":{"station_id":"n13277590992","station_name":"Igapó","station_name_local":"Igapó","network":"VLT de Natal - Linha Norte","network_local":"VLT de Natal - Linha Norte","operator":"CBTU","city":"Água Preta","country":"Brazil","lines":["Norte"],"wikidata":null},"geometry":{"type":"Point","coordinates":[-35.2511347,-5.7712694]}},{"type":"Feature","properties":{"station_id":"n13277590993","station_name":"Santa Catarina","station_name_local":"Santa Catarina","network":"VLT de Natal - Linha Norte","network_local":"VLT de Natal - Linha Norte","operator":"CBTU","city":"Água Preta","country":"Brazil","lines":["Norte"],"wikidata":null},"geometry":{"type":"Point","coordinates":[-35.24182,-5.7565515]}},{"type":"Feature","properties":{"station_id":"n13286945960","station_name":"Bela Vista","station_name_local":"Bela Vista","network":"VLT Natal","network_local":"VLT Natal","operator":"CBTU","city":"Água Preta","country":"Brazil","lines":["Norte"],"wikidata":null},"geometry":{"type":"Point","coordinates":[-35.2797494,-5.7224533]}},{"type":"Feature","properties":{"station_id":"n13286956112","station_name":"Alecrim I","station_name_local":"Alecrim I","network":"VLT Natal - Linha Norte","network_local":"VLT Natal - Linha Norte","operator":null,"city":"Água Preta","country":"Brazil","lines":["Norte"],"wikidata":null},"geometry":{"type":"Point","coordinates":[-35.2240078,-5.7934281]}},{"type":"Feature","properties":{"station_id":"n13286956113","station_name":"Alecrim II","station_name_local":"Alecrim II","network":"VLT Natal - Linha Branca","network_local":"VLT Natal - Linha Branca","operator":null,"city":"Água Preta","country":"Brazil","lines":["Sul"],"wikidata":null},"geometry":{"type":"Point","coordinates":[-35.223344,-5.7943234]}},{"type":"Feature","properties":{"station_id":"n13286960241","station_name":"Padre João Maria","station_name_local":"Padre João Maria","network":"VLT Natal - Linha Sul","network_local":"VLT Natal - Linha Sul","operator":"CBTU","city":"Água Preta","country":"Brazil","lines":["Sul"],"wikidata":null},"geometry":{"type":"Point","coordinates":[-35.2269272,-5.8036166]}},{"type":"Feature","properties":{"station_id":"n13286998128","station_name":"Prómorar","station_name_local":"Prómorar","network":"VLT Natal - Linha SUl","network_local":"VLT Natal - Linha SUl","operator":"CBTU","city":"Água Preta","country":"Brazil","lines":["Sul"],"wikidata":null},"geometry":{"type":"Point","coordinates":[-35.245169,-5.8331935]}},{"type":"Feature","properties":{"station_id":"n13287035191","station_name":"Jardim Aeroporto","station_name_local":"Jardim Aeroporto","network":"VLT Natal - Linha Sul","network_local":"VLT Natal - Linha Sul","operator":"CBTU","city":"Água Preta","country":"Brazil","lines":["Sul"],"wikidata":null},"geometry":{"type":"Point","coordinates":[-35.2550911,-5.8827087]}},{"type":"Feature","properties":{"station_id":"n647501402","station_name":"Parnamirim","station_name_local":"Parnamirim","network":"VLT Natal","network_local":"VLT Natal","operator":"CBTU Natal","city":"Água Preta","country":"Brazil","lines":["Sul"],"wikidata":null},"geometry":{"type":"Point","coordinates":[-35.2578504,-5.9159883]}},{"type":"Feature","properties":{"station_id":"n901823025","station_name":"Boa Esperança","station_name_local":"Boa Esperança","network":"Unknown","network_local":null,"operator":null,"city":"Água Preta","country":"Brazil","lines":["Sul"],"wikidata":null},"geometry":{"type":"Point","coordinates":[-35.2591424,-5.9320732]}},{"type":"Feature","properties":{"station_id":"n990456038","station_name":"Bayeux","station_name_local":"Bayeux","network":"Unknown","network_local":null,"operator":null,"city":"Água Preta","country":"Brazil","lines":["CBTU"],"wikidata":null},"geometry":{"type":"Point","coordinates":[-34.9280405,-7.1274742]}}]}