{"type":"FeatureCollection","metro_system":{"continent":"south-america","country":"Brazil","city":"Salvador","osm_networks":["CCR","CCR - Metro Bahia","CCR Metro Bahia","CCR Metrô Bahia","Linha 2","Metrô de Salvador","Metrô de Salvador - Linha 1","Unknown"],"operator":"CCR Metro Bahia","official_website":null,"official_map":"https://pt.wikipedia.org/wiki/Linha_1_do_Metropolitano_de_Salvador","wikidata":"Q10318644","line_count":2,"station_count":23},"features":[{"type":"Feature","properties":{"route_id":"rm6774704","route_name":"Linha 1","route_name_local":"Linha 1","route_ref":"1","route_color":"#791714","network":"Metrô de Salvador","network_local":"Metrô de Salvador","operator":null,"city":"Salvador","country":"Brazil","wikidata":"Q10318644","wikipedia":"pt:Linha 1 do Metropolitano de Salvador","osm_route_ids":[4511874,6774703]},"geometry":{"type":"MultiLineString","coordinates":[[[-38.5122751,-12.9823868],[-38.5078983,-12.9793505],[-38.4991165,-12.9793719],[-38.4837665,-12.9839008],[-38.4771862,-12.9689433],[-38.4721059,-12.9560176],[-38.4705235,-12.9406106],[-38.4675047,-12.9243703],[-38.4624133,-12.9156386],[-38.4446526,-12.8961049]]]}},{"type":"Feature","properties":{"route_id":"rm7857258","route_name":"Linha 2","route_name_local":"Linha 2","route_ref":"2","route_color":"#02406f","network":"Metrô de Salvador","network_local":"Metrô de Salvador","operator":"CCR Metro Bahia","city":"Salvador","country":"Brazil","wikidata":"Q10318650","wikipedia":"pt:Linha 2 do Metrô de Salvador","osm_route_ids":[6771624,7857257]},"geometry":{"type":"MultiLineString","coordinates":[[[-38.476825,-12.9693757],[-38.4711008,-12.9780131],[-38.4634585,-12.9784534],[-38.4577043,-12.975744],[-38.4361352,-12.964418],[-38.4289714,-12.9557671],[-38.4213097,-12.9454033],[-38.4056007,-12.9379933],[-38.3944504,-12.9346598],[-38.3812366,-12.9257564],[-38.3589751,-12.9215276],[-38.3410162,-12.90422]]]}},{"type":"Feature","properties":{"station_id":"n1196075755","station_name":"Bonocô","station_name_local":"Bonocô","network":"Unknown","network_local":null,"operator":null,"city":"Salvador","country":"Brazil","lines":["1"],"wikidata":null},"geometry":{"type":"Point","coordinates":[-38.4837886,-12.983874]}},{"type":"Feature","properties":{"station_id":"n4313768777","station_name":"Detran","station_name_local":"Detran","network":"CCR Metro Bahia","network_local":null,"operator":"CCR Metro Bahia","city":"Salvador","country":"Brazil","lines":["2"],"wikidata":null},"geometry":{"type":"Point","coordinates":[-38.4711008,-12.9780131]}},{"type":"Feature","properties":{"station_id":"n5330886492","station_name":"Acesso Norte","station_name_local":"Acesso Norte","network":"CCR Metrô Bahia","network_local":null,"operator":"CCR Metrô Bahia","city":"Salvador","country":"Brazil","lines":["1"],"wikidata":null},"geometry":{"type":"Point","coordinates":[-38.4770136,-12.9689224]}},{"type":"Feature","properties":{"station_id":"n5455666755","station_name":"Aeroporto","station_name_local":"Aeroporto","network":"Linha 2","network_local":"Linha 2","operator":null,"city":"Salvador","country":"Brazil","lines":["2"],"wikidata":null},"geometry":{"type":"Point","coordinates":[-38.3410162,-12.90422]}},{"type":"Feature","properties":{"station_id":"n5800854929","station_name":"Lapa","station_name_local":"Lapa","network":"Unknown","network_local":null,"operator":null,"city":"Salvador","country":"Brazil","lines":["1"],"wikidata":"Q306253"},"geometry":{"type":"Point","coordinates":[-38.5122905,-12.9823694]}},{"type":"Feature","properties":{"station_id":"n6551418971","station_name":"Aeroporto","station_name_local":"Aeroporto","network":"Linha 2","network_local":"Linha 2","operator":null,"city":"Salvador","country":"Brazil","lines":["2"],"wikidata":null},"geometry":{"type":"Point","coordinates":[-38.3410358,-12.9041679]}},{"type":"Feature","properties":{"station_id":"n8591328843","station_name":"Pirajá","station_name_local":"Pirajá","network":"CCR - Metro Bahia","network_local":null,"operator":"CCR - Metro Bahia","city":"Salvador","country":"Brazil","lines":["1"],"wikidata":null},"geometry":{"type":"Point","coordinates":[-38.4675301,-12.9243223]}},{"type":"Feature","properties":{"station_id":"n10750562215","station_name":"Campo da Pólvora","station_name_local":"Campo da Pólvora","network":"Unknown","network_local":null,"operator":null,"city":"Salvador","country":"Brazil","lines":["1"],"wikidata":null},"geometry":{"type":"Point","coordinates":[-38.507914,-12.9793303]}},{"type":"Feature","properties":{"station_id":"n10997645478","station_name":"Campinas","station_name_local":"Campinas","network":"CCR Metrô Bahia","network_local":null,"operator":"CCR Metrô Bahia","city":"Salvador","country":"Brazil","lines":["1"],"wikidata":null},"geometry":{"type":"Point","coordinates":[-38.4623272,-12.915567]}},{"type":"Feature","properties":{"station_id":"n11462474653","station_name":"Águas Claras","station_name_local":"Águas Claras","network":"Metrô de Salvador - Linha 1","network_local":"Metrô de Salvador - Linha 1","operator":"CCR Metrô Bahia","city":"Salvador","country":"Brazil","lines":["1"],"wikidata":null},"geometry":{"type":"Point","coordinates":[-38.4445992,-12.8961271]}},{"type":"Feature","properties":{"station_id":"n103595147","station_name":"Brotas","station_name_local":"Brotas","network":"CCR Metrô Bahia","network_local":null,"operator":"CCR Metrô Bahia","city":"Salvador","country":"Brazil","lines":["1"],"wikidata":null},"geometry":{"type":"Point","coordinates":[-38.4990823,-12.9793282]}},{"type":"Feature","properties":{"station_id":"n116425037","station_name":"Rodoviária","station_name_local":"Rodoviária","network":"CCR Metrô Bahia","network_local":null,"operator":"CCR Metrô Bahia","city":"Salvador","country":"Brazil","lines":["2"],"wikidata":"Q30939696"},"geometry":{"type":"Point","coordinates":[-38.4634336,-12.9783877]}},{"type":"Feature","properties":{"station_id":"n303051460","station_name":"Retiro","station_name_local":"Retiro","network":"Unknown","network_local":null,"operator":null,"city":"Salvador","country":"Brazil","lines":["1"],"wikidata":"Q17631144"},"geometry":{"type":"Point","coordinates":[-38.4721295,-12.9560311]}},{"type":"Feature","properties":{"station_id":"n432297470","station_name":"Pernambués","station_name_local":"Pernambués","network":"CCR Metrô Bahia","network_local":null,"operator":"CCR Metrô Bahia","city":"Salvador","country":"Brazil","lines":["2"],"wikidata":"Q30937857"},"geometry":{"type":"Point","coordinates":[-38.4578522,-12.9756589]}},{"type":"Feature","properties":{"station_id":"n460845823","station_name":"Imbuí","station_name_local":"Imbuí","network":"CCR","network_local":null,"operator":"CCR","city":"Salvador","country":"Brazil","lines":["2"],"wikidata":"Q30937856"},"geometry":{"type":"Point","coordinates":[-38.4362287,-12.9644948]}},{"type":"Feature","properties":{"station_id":"n492578619","station_name":"Mussurunga","station_name_local":"Mussurunga","network":"Linha 2","network_local":"Linha 2","operator":"CCR Metrô Bahia","city":"Salvador","country":"Brazil","lines":["2"],"wikidata":"Q51882201"},"geometry":{"type":"Point","coordinates":[-38.3590218,-12.9215109]}},{"type":"Feature","properties":{"station_id":"n492578621","station_name":"Tamburugy","station_name_local":"Tamburugy","network":"Unknown","network_local":null,"operator":null,"city":"Salvador","country":"Brazil","lines":["2"],"wikidata":"Q51882197"},"geometry":{"type":"Point","coordinates":[-38.3944972,-12.934592]}},{"type":"Feature","properties":{"station_id":"n492578622","station_name":"Flamboyant","station_name_local":"Flamboyant","network":"Metrô de Salvador","network_local":"Metrô de Salvador","operator":"CCR Metrô Bahia","city":"Salvador","country":"Brazil","lines":["2"],"wikidata":"Q51882196"},"geometry":{"type":"Point","coordinates":[-38.4057385,-12.9379391]}},{"type":"Feature","properties":{"station_id":"n492578624","station_name":"Pituaçu","station_name_local":"Pituaçu","network":"Unknown","network_local":null,"operator":null,"city":"Salvador","country":"Brazil","lines":["2"],"wikidata":"Q30937876"},"geometry":{"type":"Point","coordinates":[-38.4213443,-12.9454241]}},{"type":"Feature","properties":{"station_id":"n492578626","station_name":"CAB","station_name_local":"CAB","network":"CCR","network_local":null,"operator":"CCR","city":"Salvador","country":"Brazil","lines":["2"],"wikidata":"Q30937866"},"geometry":{"type":"Point","coordinates":[-38.4290143,-12.9557339]}},{"type":"Feature","properties":{"station_id":"n514627272","station_name":"Bom Juá","station_name_local":"Bom Juá","network":"CCR Metrô Bahia","network_local":null,"operator":"CCR Metrô Bahia","city":"Salvador","country":"Brazil","lines":["1"],"wikidata":"Q20052816"},"geometry":{"type":"Point","coordinates":[-38.4705388,-12.940722]}},{"type":"Feature","properties":{"station_id":"n531671017","station_name":"Aeroporto","station_name_local":"Aeroporto","network":"Unknown","network_local":null,"operator":null,"city":"Salvador","country":"Brazil","lines":["2"],"wikidata":"Q54046252"},"geometry":{"type":"Point","coordinates":[-38.3410928,-12.9041913]}},{"type":"Feature","properties":{"station_id":"n931025680","station_name":"Estação Campinas","station_name_local":"Estação Campinas","network":"Unknown","network_local":null,"operator":null,"city":"Salvador","country":"Brazil","lines":["1"],"wikidata":"Q104635887"},"geometry":{"type":"Point","coordinates":[-38.4623728,-12.9155508]}}]}