{"type":"FeatureCollection","metro_system":{"continent":"south-america","country":"Brazil","city":"Recife","osm_networks":["CBTU","CBTU Recife","Linha Centro 1 e 2","Metro","Metrô do Recife","Unknown","VLT"],"operator":"CBTU","official_website":null,"official_map":"https://pt.wikipedia.org/wiki/Linha_Sul_do_Metrô_do_Recife","wikidata":"Q104231463","line_count":5,"station_count":40,"audit":{"strategies_tried":[],"passed":true,"checks":[{"id":"system_exists","ok":true,"detail":"matched OSM system systems/south-america/brazil/south-america-brazil-recife.geojson","level":"error"},{"id":"has_lines","ok":true,"detail":"5 lines","level":"error"},{"id":"has_stations","ok":true,"detail":"40 stations","level":"error"},{"id":"station_ratio","ok":true,"detail":"OSM 40 vs Wikipedia 28（比值 1.43）","level":"error"},{"id":"stations_have_lines","ok":true,"detail":"40/40 站皆有所屬路線","level":"error"},{"id":"stations_named","ok":true,"detail":"36/40 站有名稱","level":"warn"},{"id":"station_order","ok":true,"detail":"所有線路站序合理","level":"warn"}],"reasons":[],"warnings":[],"audited_at":"2026-07-10T08:31:28.803Z"}},"features":[{"type":"Feature","properties":{"route_id":"rm7869352","route_name":"Linha Centro - 1","route_name_local":"Linha Centro - 1","route_ref":"1","route_color":"#e77405","network":"Metrô do Recife","network_local":"Metrô do Recife","operator":null,"city":"Recife","country":"Brazil","wikidata":"Q104231463","wikipedia":null,"osm_route_ids":[420618,7869351]},"geometry":{"type":"MultiLineString","coordinates":[[[-34.8854444,-8.0691306],[-34.8954792,-8.0731402],[-34.906311,-8.0772619],[-34.9133333,-8.0777175],[-34.921183,-8.0793163],[-34.9301401,-8.0841371],[-34.9362531,-8.085966],[-34.945812,-8.0888536],[-34.9566471,-8.0903303],[-34.9646905,-8.0913529],[-34.9749729,-8.0847981],[-34.9787677,-8.0759579],[-34.9809536,-8.0641438],[-34.9886082,-8.0362659],[-34.9952781,-8.0246044]]]}},{"type":"Feature","properties":{"route_id":"rm7869334","route_name":"Linha Centro - 2","route_name_local":"Linha Centro - 2","route_ref":"2","route_color":"#d9001c","network":"Metrô do Recife","network_local":"Metrô do Recife","operator":null,"city":"Recife","country":"Brazil","wikidata":"Q104231524;Q16282623","wikipedia":null,"osm_route_ids":[420619,7869333]},"geometry":{"type":"MultiLineString","coordinates":[[[-35.0152501,-8.1111675],[-35.0051572,-8.1080407],[-34.9930586,-8.1069682],[-34.9727523,-8.0940082],[-34.9647036,-8.0914021],[-34.9566334,-8.0903861],[-34.9457846,-8.0889043],[-34.9362363,-8.0860145],[-34.9301234,-8.0841959],[-34.9211716,-8.0793709],[-34.9133396,-8.077763],[-34.9062942,-8.0772882],[-34.8954669,-8.0731815],[-34.8854071,-8.0691486]]]}},{"type":"Feature","properties":{"route_id":"rm7869374","route_name":"Linha Sul","route_name_local":"Linha Sul","route_ref":"Sul","route_color":"#1a5ba3","network":"Metrô do Recife","network_local":"Metrô do Recife","operator":"CBTU","city":"Recife","country":"Brazil","wikidata":"Q10329288","wikipedia":"pt:Linha Sul do Metrô do Recife","osm_route_ids":[4510097,7869373]},"geometry":{"type":"MultiLineString","coordinates":[[[-34.8853246,-8.0691952],[-34.895374,-8.0732603],[-34.9049952,-8.0815144],[-34.9075643,-8.0901809],[-34.9091285,-8.1098814],[-34.9106033,-8.1161963],[-34.9119145,-8.122306],[-34.9147098,-8.1341688],[-34.9176079,-8.1469782],[-34.9202154,-8.1544762],[-34.9268033,-8.161069],[-34.9340995,-8.1683822]]]}},{"type":"Feature","properties":{"route_id":"rm7945223","route_name":"VLT Curado - Cajueiro Seco","route_name_local":"VLT Curado - Cajueiro Seco","route_ref":"VLT Curado-Cajueiro Seco","route_color":"#999e9e","network":"Metrô do Recife","network_local":"Metrô do Recife","operator":"CBTU Recife","city":"Recife","country":"Brazil","wikidata":"Q18473919","wikipedia":"pt:Linha Curado–Cajueiro Seco do Sistema de Trens Urbanos do Recife","osm_route_ids":[4510189,7945216]},"geometry":{"type":"MultiLineString","coordinates":[[[-34.9792506,-8.0754769],[-34.9833979,-8.1061171],[-34.9681595,-8.138343],[-34.934003,-8.1685194]]]}},{"type":"Feature","properties":{"route_id":"rm9697674","route_name":"VLT Cabo - Cajueiro Seco","route_name_local":"VLT Cabo - Cajueiro Seco","route_ref":"VLT Cabo - Cajueiro Seco","route_color":"#008000","network":"Metrô do Recife","network_local":"Metrô do Recife","operator":"CBTU Recife","city":"Recife","country":"Brazil","wikidata":"Q18473915","wikipedia":"pt:Linha Cajueiro Seco–Cabo do Sistema de Trens Urbanos do Recife","osm_route_ids":[4510254,9699109]},"geometry":{"type":"MultiLineString","coordinates":[[[-34.934003,-8.1685194],[-34.9567324,-8.1948561],[-34.9653867,-8.2217682],[-34.9772736,-8.2454204],[-35.0239446,-8.2797886],[-35.0365603,-8.286574]]]}},{"type":"Feature","properties":{"station_id":"n141711185","station_name":"n141711185","station_name_local":null,"network":"Unknown","network_local":null,"operator":null,"city":"Recife","country":"Brazil","lines":["Sul"],"wikidata":null},"geometry":{"type":"Point","coordinates":[-34.9340039,-8.1684474]}},{"type":"Feature","properties":{"station_id":"n371261870","station_name":"n371261870","station_name_local":null,"network":"Unknown","network_local":null,"operator":null,"city":"Recife","country":"Brazil","lines":["1","2"],"wikidata":null},"geometry":{"type":"Point","coordinates":[-34.9362433,-8.0859903]}},{"type":"Feature","properties":{"station_id":"n428121165","station_name":"n428121165","station_name_local":null,"network":"Unknown","network_local":null,"operator":null,"city":"Recife","country":"Brazil","lines":["1","2"],"wikidata":null},"geometry":{"type":"Point","coordinates":[-34.9457781,-8.0888747]}},{"type":"Feature","properties":{"station_id":"n675502120","station_name":"n675502120","station_name_local":null,"network":"Unknown","network_local":null,"operator":null,"city":"Recife","country":"Brazil","lines":["VLT Curado-Cajueiro Seco"],"wikidata":null},"geometry":{"type":"Point","coordinates":[-34.9683682,-8.138214]}},{"type":"Feature","properties":{"station_id":"n1418921322","station_name":"Antônio Falcão","station_name_local":"Antônio Falcão","network":"Unknown","network_local":null,"operator":null,"city":"Recife","country":"Brazil","lines":["Sul"],"wikidata":null,"merged_from":2},"geometry":{"type":"Point","coordinates":[-34.909062500000005,-8.1098859]}},{"type":"Feature","properties":{"station_id":"n1689602072","station_name":"Cabo","station_name_local":"Cabo","network":"Metro","network_local":null,"operator":"Metro","city":"Recife","country":"Brazil","lines":["VLT Cabo - Cajueiro Seco"],"wikidata":null,"merged_from":3},"geometry":{"type":"Point","coordinates":[-35.03643613333333,-8.286437366666666]}},{"type":"Feature","properties":{"station_id":"n2458671718","station_name":"Marcos Freire","station_name_local":"Marcos Freire","network":"VLT","network_local":"VLT","operator":"CBTU Recife","city":"Recife","country":"Brazil","lines":["VLT Curado-Cajueiro Seco"],"wikidata":null,"merged_from":3},"geometry":{"type":"Point","coordinates":[-34.96811863333333,-8.138336166666667]}},{"type":"Feature","properties":{"station_id":"n2497744692","station_name":"Tancredo Neves","station_name_local":"Tancredo Neves","network":"Unknown","network_local":null,"operator":null,"city":"Recife","country":"Brazil","lines":["Sul"],"wikidata":null,"merged_from":2},"geometry":{"type":"Point","coordinates":[-34.91184035,-8.1223073]}},{"type":"Feature","properties":{"station_id":"n5279927396","station_name":"Jaboatão","station_name_local":"Jaboatão","network":"Unknown","network_local":null,"operator":null,"city":"Recife","country":"Brazil","lines":["2"],"wikidata":null},"geometry":{"type":"Point","coordinates":[-35.015257,-8.1111323]}},{"type":"Feature","properties":{"station_id":"n5279927400","station_name":"Engenho Velho","station_name_local":"Engenho Velho","network":"Unknown","network_local":null,"operator":null,"city":"Recife","country":"Brazil","lines":["2"],"wikidata":null},"geometry":{"type":"Point","coordinates":[-35.0051615,-8.1080182]}},{"type":"Feature","properties":{"station_id":"n5279927402","station_name":"Floriano","station_name_local":"Floriano","network":"Unknown","network_local":null,"operator":null,"city":"Recife","country":"Brazil","lines":["2"],"wikidata":null},"geometry":{"type":"Point","coordinates":[-34.9930597,-8.1069468]}},{"type":"Feature","properties":{"station_id":"n5279927404","station_name":"Cavaleiro","station_name_local":"Cavaleiro","network":"Unknown","network_local":null,"operator":null,"city":"Recife","country":"Brazil","lines":["2"],"wikidata":null},"geometry":{"type":"Point","coordinates":[-34.9727775,-8.0939756]}},{"type":"Feature","properties":{"station_id":"n5279927406","station_name":"Camaragibe","station_name_local":"Camaragibe","network":"Unknown","network_local":null,"operator":null,"city":"Recife","country":"Brazil","lines":["1"],"wikidata":"Q10275619"},"geometry":{"type":"Point","coordinates":[-34.9953255,-8.0246294]}},{"type":"Feature","properties":{"station_id":"n5279927410","station_name":"Cosme e Damião","station_name_local":"Cosme e Damião","network":"Unknown","network_local":null,"operator":null,"city":"Recife","country":"Brazil","lines":["1"],"wikidata":"Q19838633"},"geometry":{"type":"Point","coordinates":[-34.9885516,-8.0364239]}},{"type":"Feature","properties":{"station_id":"n5279927412","station_name":"Rodoviária","station_name_local":"Rodoviária","network":"Unknown","network_local":null,"operator":null,"city":"Recife","country":"Brazil","lines":["1"],"wikidata":"Q10276100"},"geometry":{"type":"Point","coordinates":[-34.9809709,-8.0641557]}},{"type":"Feature","properties":{"station_id":"n5279927418","station_name":"Curado","station_name_local":"Curado","network":"Unknown","network_local":null,"operator":null,"city":"Recife","country":"Brazil","lines":["1","VLT Curado-Cajueiro Seco"],"wikidata":"Q10275678","merged_from":2},"geometry":{"type":"Point","coordinates":[-34.97905955,-8.075575950000001]}},{"type":"Feature","properties":{"station_id":"n5279927420","station_name":"Alto do Céu","station_name_local":"Alto do Céu","network":"Unknown","network_local":null,"operator":null,"city":"Recife","country":"Brazil","lines":["1"],"wikidata":"Q10275562"},"geometry":{"type":"Point","coordinates":[-34.9750051,-8.0848021]}},{"type":"Feature","properties":{"station_id":"n5279929221","station_name":"Coqueiral","station_name_local":"Coqueiral","network":"Unknown","network_local":null,"operator":null,"city":"Recife","country":"Brazil","lines":["2"],"wikidata":"Q10275667"},"geometry":{"type":"Point","coordinates":[-34.9647161,-8.0914369]}},{"type":"Feature","properties":{"station_id":"n5279929225","station_name":"Tejipió","station_name_local":"Tejipió","network":"Unknown","network_local":null,"operator":null,"city":"Recife","country":"Brazil","lines":["1","2"],"wikidata":null,"merged_from":2},"geometry":{"type":"Point","coordinates":[-34.956621850000005,-8.0903493]}},{"type":"Feature","properties":{"station_id":"n5279929229","station_name":"Barro","station_name_local":"Barro","network":"Unknown","network_local":null,"operator":null,"city":"Recife","country":"Brazil","lines":["1","2"],"wikidata":null},"geometry":{"type":"Point","coordinates":[-34.9457996,-8.088879]}},{"type":"Feature","properties":{"station_id":"n5279929231","station_name":"Werneck","station_name_local":"Werneck","network":"Unknown","network_local":null,"operator":null,"city":"Recife","country":"Brazil","lines":["1","2"],"wikidata":null},"geometry":{"type":"Point","coordinates":[-34.9362451,-8.0859893]}},{"type":"Feature","properties":{"station_id":"n5279929232","station_name":"Ipiranga","station_name_local":"Ipiranga","network":"Unknown","network_local":null,"operator":null,"city":"Recife","country":"Brazil","lines":["1","2"],"wikidata":null,"merged_from":2},"geometry":{"type":"Point","coordinates":[-34.913322199999996,-8.07773895]}},{"type":"Feature","properties":{"station_id":"n5279929233","station_name":"Santa Luzia","station_name_local":"Santa Luzia","network":"Unknown","network_local":null,"operator":null,"city":"Recife","country":"Brazil","lines":["1","2"],"wikidata":null},"geometry":{"type":"Point","coordinates":[-34.9301332,-8.0841647]}},{"type":"Feature","properties":{"station_id":"n5279929236","station_name":"Mangueira","station_name_local":"Mangueira","network":"Unknown","network_local":null,"operator":null,"city":"Recife","country":"Brazil","lines":["1","2"],"wikidata":null,"merged_from":2},"geometry":{"type":"Point","coordinates":[-34.921150100000006,-8.07933405]}},{"type":"Feature","properties":{"station_id":"n5279929237","station_name":"Recife","station_name_local":"Recife","network":"Unknown","network_local":null,"operator":null,"city":"Recife","country":"Brazil","lines":["Sul"],"wikidata":null},"geometry":{"type":"Point","coordinates":[-34.8853656,-8.0691737]}},{"type":"Feature","properties":{"station_id":"n5279929241","station_name":"Afogados","station_name_local":"Afogados","network":"Unknown","network_local":null,"operator":null,"city":"Recife","country":"Brazil","lines":["1","2"],"wikidata":null,"merged_from":2},"geometry":{"type":"Point","coordinates":[-34.9063312,-8.07729825]}},{"type":"Feature","properties":{"station_id":"n5279929242","station_name":"Joana Bezerra","station_name_local":"Joana Bezerra","network":"Unknown","network_local":null,"operator":null,"city":"Recife","country":"Brazil","lines":["Sul"],"wikidata":null},"geometry":{"type":"Point","coordinates":[-34.8953949,-8.0732099]}},{"type":"Feature","properties":{"station_id":"n5280081366","station_name":"Monte dos Guararapes","station_name_local":"Monte dos Guararapes","network":"Unknown","network_local":null,"operator":null,"city":"Recife","country":"Brazil","lines":["Sul"],"wikidata":null,"merged_from":2},"geometry":{"type":"Point","coordinates":[-34.9201489,-8.15446255]}},{"type":"Feature","properties":{"station_id":"n5280081368","station_name":"Cajueiro Seco","station_name_local":"Cajueiro Seco","network":"Unknown","network_local":null,"operator":null,"city":"Recife","country":"Brazil","lines":["Sul","VLT Cabo - Cajueiro Seco","VLT Curado-Cajueiro Seco"],"wikidata":null,"merged_from":2},"geometry":{"type":"Point","coordinates":[-34.93402725,-8.16846075]}},{"type":"Feature","properties":{"station_id":"n5280081370","station_name":"Prazeres","station_name_local":"Prazeres","network":"CBTU Recife","network_local":null,"operator":"CBTU Recife","city":"Recife","country":"Brazil","lines":["Sul"],"wikidata":null},"geometry":{"type":"Point","coordinates":[-34.9267699,-8.1611032]}},{"type":"Feature","properties":{"station_id":"n5280081371","station_name":"Porta Larga","station_name_local":"Porta Larga","network":"Unknown","network_local":null,"operator":null,"city":"Recife","country":"Brazil","lines":["Sul"],"wikidata":null,"merged_from":2},"geometry":{"type":"Point","coordinates":[-34.91759225,-8.147079699999999]}},{"type":"Feature","properties":{"station_id":"n5280081373","station_name":"Shopping","station_name_local":"Shopping","network":"Unknown","network_local":null,"operator":null,"city":"Recife","country":"Brazil","lines":["Sul"],"wikidata":null,"merged_from":2},"geometry":{"type":"Point","coordinates":[-34.9105333,-8.1161891]}},{"type":"Feature","properties":{"station_id":"n5280081375","station_name":"Aeroporto","station_name_local":"Aeroporto","network":"Unknown","network_local":null,"operator":null,"city":"Recife","country":"Brazil","lines":["Sul"],"wikidata":null},"geometry":{"type":"Point","coordinates":[-34.9146661,-8.1341737]}},{"type":"Feature","properties":{"station_id":"n5280081384","station_name":"Imbiribeira","station_name_local":"Imbiribeira","network":"Unknown","network_local":null,"operator":null,"city":"Recife","country":"Brazil","lines":["Sul"],"wikidata":null},"geometry":{"type":"Point","coordinates":[-34.9075129,-8.0902049]}},{"type":"Feature","properties":{"station_id":"n5508744319","station_name":"Santo Inácio","station_name_local":"Santo Inácio","network":"CBTU Recife","network_local":null,"operator":"CBTU Recife","city":"Recife","country":"Brazil","lines":["VLT Cabo - Cajueiro Seco"],"wikidata":null,"merged_from":3},"geometry":{"type":"Point","coordinates":[-35.0239247,-8.279829399999999]}},{"type":"Feature","properties":{"station_id":"n6467050377","station_name":"Pontezinha","station_name_local":"Pontezinha","network":"Unknown","network_local":null,"operator":null,"city":"Recife","country":"Brazil","lines":["VLT Cabo - Cajueiro Seco"],"wikidata":null,"merged_from":3},"geometry":{"type":"Point","coordinates":[-34.965368766666664,-8.221771866666666]}},{"type":"Feature","properties":{"station_id":"n6467050561","station_name":"Ponte dos Carvalhos","station_name_local":"Ponte dos Carvalhos","network":"Unknown","network_local":null,"operator":null,"city":"Recife","country":"Brazil","lines":["VLT Cabo - Cajueiro Seco"],"wikidata":null,"merged_from":3},"geometry":{"type":"Point","coordinates":[-34.97724763333333,-8.245449166666667]}},{"type":"Feature","properties":{"station_id":"n6554813281","station_name":"Ângelo de Souza","station_name_local":"Ângelo de Souza","network":"Unknown","network_local":null,"operator":null,"city":"Recife","country":"Brazil","lines":["VLT Cabo - Cajueiro Seco"],"wikidata":null},"geometry":{"type":"Point","coordinates":[-34.9565864,-8.1947016]}},{"type":"Feature","properties":{"station_id":"n625817765","station_name":"Largo da Paz","station_name_local":"Largo da Paz","network":"Unknown","network_local":null,"operator":null,"city":"Recife","country":"Brazil","lines":["Sul"],"wikidata":"Q18475649"},"geometry":{"type":"Point","coordinates":[-34.9048986,-8.0815252]}},{"type":"Feature","properties":{"station_id":"n675502126","station_name":"Jorge Lins","station_name_local":"Jorge Lins","network":"Unknown","network_local":null,"operator":null,"city":"Recife","country":"Brazil","lines":["VLT Curado-Cajueiro Seco"],"wikidata":null},"geometry":{"type":"Point","coordinates":[-34.9834104,-8.1061431]}}]}