{"type":"FeatureCollection","metro_system":{"continent":"south-america","country":"Brazil","city":"Salvador","osm_networks":["CCR","CCR - Metro Bahia","CCR Metro Bahia","CCR Metrô Bahia","Linha 2","Linha 3 - Laranja","Metrô de Salvador","Metrô de Salvador - Linha 1","Unknown"],"operator":"CCR Metro Bahia","official_website":null,"official_map":"https://pt.wikipedia.org/wiki/Linha_1_do_Metropolitano_de_Salvador","wikidata":"Q10318644","line_count":2,"segment_count":2,"station_count":21,"audit":{"strategies_tried":[],"passed":true,"checks":[{"id":"system_exists","ok":true,"detail":"matched OSM system systems/south-america/brazil/south-america-brazil-salvador.geojson","level":"error"},{"id":"has_lines","ok":true,"detail":"2 lines","level":"error"},{"id":"has_stations","ok":true,"detail":"21 stations","level":"error"},{"id":"station_ratio","ok":true,"detail":"OSM 21 vs Wikipedia 22（比值 0.95）","level":"error"},{"id":"stations_have_lines","ok":true,"detail":"21/21 站皆有所屬路線","level":"error"},{"id":"line_geometry_stations","ok":true,"detail":"21 個折點/端點皆為車站","level":"error"},{"id":"stations_named","ok":true,"detail":"21/21 站有名稱","level":"warn"},{"id":"station_order","ok":true,"detail":"所有線路站序合理","level":"warn"}],"reasons":[],"warnings":[],"audited_at":"2026-07-10T10:07:31.351Z"}},"features":[{"type":"Feature","properties":{"seg_id":"salvador-0","routes":[{"route_id":"rm6774704","route_name":"Linha 1","route_name_local":"Linha 1","route_ref":"1","route_color":"#791714","network":"Metrô de Salvador","network_local":"Metrô de Salvador","operator":null,"wikidata":"Q10318644","wikipedia":"pt:Linha 1 do Metropolitano de Salvador","osm_route_ids":[4511874,6774703],"order_suspect":0}],"route_count":1,"route_refs":["1"],"route_colors":["#791714"],"route_color":"#791714","city":"Salvador","country":"Brazil"},"geometry":{"type":"MultiLineString","coordinates":[[[-38.5122905,-12.9823694],[-38.507914,-12.9793303],[-38.4990823,-12.9793282],[-38.4837886,-12.983874],[-38.4770136,-12.9689224],[-38.4721295,-12.9560311],[-38.4705388,-12.940722],[-38.4675301,-12.9243223],[-38.4623728,-12.9155508],[-38.4445992,-12.8961271]]]}},{"type":"Feature","properties":{"seg_id":"salvador-1","routes":[{"route_id":"rm7857258","route_name":"Linha 2","route_name_local":"Linha 2","route_ref":"2","route_color":"#02406f","network":"Metrô de Salvador","network_local":"Metrô de Salvador","operator":"CCR Metro Bahia","wikidata":"Q10318650","wikipedia":"pt:Linha 2 do Metrô de Salvador","osm_route_ids":[6771624,7857257],"order_suspect":0}],"route_count":1,"route_refs":["2"],"route_colors":["#02406f"],"route_color":"#02406f","city":"Salvador","country":"Brazil"},"geometry":{"type":"MultiLineString","coordinates":[[[-38.4770136,-12.9689224],[-38.4711008,-12.9780131],[-38.4634336,-12.9783877],[-38.4578522,-12.9756589],[-38.4362287,-12.9644948],[-38.4290143,-12.9557339],[-38.4213443,-12.9454241],[-38.4057385,-12.9379391],[-38.3944972,-12.934592],[-38.3590218,-12.9215109],[-38.34104826666667,-12.904193066666666]]]}},{"type":"Feature","properties":{"station_id":"n1196075755","station_name":"Bonocô","station_name_local":"Bonocô","network":"Unknown","network_local":null,"operator":null,"city":"Salvador","country":"Brazil","lines":["1"],"wikidata":null},"geometry":{"type":"Point","coordinates":[-38.4837886,-12.983874]}},{"type":"Feature","properties":{"station_id":"n4313768777","station_name":"Detran","station_name_local":"Detran","network":"CCR Metro Bahia","network_local":null,"operator":"CCR Metro Bahia","city":"Salvador","country":"Brazil","lines":["2"],"wikidata":null},"geometry":{"type":"Point","coordinates":[-38.4711008,-12.9780131]}},{"type":"Feature","properties":{"station_id":"n5330886492","station_name":"Acesso Norte","station_name_local":"Acesso Norte","network":"CCR Metrô Bahia","network_local":null,"operator":"CCR Metrô Bahia","city":"Salvador","country":"Brazil","lines":["1"],"wikidata":null},"geometry":{"type":"Point","coordinates":[-38.4770136,-12.9689224]}},{"type":"Feature","properties":{"station_id":"n5455666755","station_name":"Aeroporto","station_name_local":"Aeroporto","network":"Linha 2","network_local":"Linha 2","operator":null,"city":"Salvador","country":"Brazil","lines":["2"],"wikidata":null,"merged_from":3},"geometry":{"type":"Point","coordinates":[-38.34104826666667,-12.904193066666666]}},{"type":"Feature","properties":{"station_id":"n5800854929","station_name":"Lapa","station_name_local":"Lapa","network":"Unknown","network_local":null,"operator":null,"city":"Salvador","country":"Brazil","lines":["1"],"wikidata":"Q306253"},"geometry":{"type":"Point","coordinates":[-38.5122905,-12.9823694]}},{"type":"Feature","properties":{"station_id":"n8591328843","station_name":"Pirajá","station_name_local":"Pirajá","network":"CCR - Metro Bahia","network_local":null,"operator":"CCR - Metro Bahia","city":"Salvador","country":"Brazil","lines":["1"],"wikidata":null},"geometry":{"type":"Point","coordinates":[-38.4675301,-12.9243223]}},{"type":"Feature","properties":{"station_id":"n10750562215","station_name":"Campo da Pólvora","station_name_local":"Campo da Pólvora","network":"Unknown","network_local":null,"operator":null,"city":"Salvador","country":"Brazil","lines":["1"],"wikidata":null},"geometry":{"type":"Point","coordinates":[-38.507914,-12.9793303]}},{"type":"Feature","properties":{"station_id":"n10997645478","station_name":"Campinas","station_name_local":"Campinas","network":"CCR Metrô Bahia","network_local":null,"operator":"CCR Metrô Bahia","city":"Salvador","country":"Brazil","lines":["1"],"wikidata":null},"geometry":{"type":"Point","coordinates":[-38.4623272,-12.915567]}},{"type":"Feature","properties":{"station_id":"n11462474653","station_name":"Águas Claras","station_name_local":"Águas Claras","network":"Metrô de Salvador - Linha 1","network_local":"Metrô de Salvador - Linha 1","operator":"CCR Metrô Bahia","city":"Salvador","country":"Brazil","lines":["1"],"wikidata":null},"geometry":{"type":"Point","coordinates":[-38.4445992,-12.8961271]}},{"type":"Feature","properties":{"station_id":"n103595147","station_name":"Brotas","station_name_local":"Brotas","network":"CCR Metrô Bahia","network_local":null,"operator":"CCR Metrô Bahia","city":"Salvador","country":"Brazil","lines":["1"],"wikidata":null},"geometry":{"type":"Point","coordinates":[-38.4990823,-12.9793282]}},{"type":"Feature","properties":{"station_id":"n116425037","station_name":"Rodoviária","station_name_local":"Rodoviária","network":"CCR Metrô Bahia","network_local":null,"operator":"CCR Metrô Bahia","city":"Salvador","country":"Brazil","lines":["2"],"wikidata":"Q30939696"},"geometry":{"type":"Point","coordinates":[-38.4634336,-12.9783877]}},{"type":"Feature","properties":{"station_id":"n303051460","station_name":"Retiro","station_name_local":"Retiro","network":"Unknown","network_local":null,"operator":null,"city":"Salvador","country":"Brazil","lines":["1"],"wikidata":"Q17631144"},"geometry":{"type":"Point","coordinates":[-38.4721295,-12.9560311]}},{"type":"Feature","properties":{"station_id":"n432297470","station_name":"Pernambués","station_name_local":"Pernambués","network":"CCR Metrô Bahia","network_local":null,"operator":"CCR Metrô Bahia","city":"Salvador","country":"Brazil","lines":["2"],"wikidata":"Q30937857"},"geometry":{"type":"Point","coordinates":[-38.4578522,-12.9756589]}},{"type":"Feature","properties":{"station_id":"n460845823","station_name":"Imbuí","station_name_local":"Imbuí","network":"CCR","network_local":null,"operator":"CCR","city":"Salvador","country":"Brazil","lines":["2"],"wikidata":"Q30937856"},"geometry":{"type":"Point","coordinates":[-38.4362287,-12.9644948]}},{"type":"Feature","properties":{"station_id":"n492578619","station_name":"Mussurunga","station_name_local":"Mussurunga","network":"Linha 2","network_local":"Linha 2","operator":"CCR Metrô Bahia","city":"Salvador","country":"Brazil","lines":["2"],"wikidata":"Q51882201"},"geometry":{"type":"Point","coordinates":[-38.3590218,-12.9215109]}},{"type":"Feature","properties":{"station_id":"n492578621","station_name":"Tamburugy","station_name_local":"Tamburugy","network":"Unknown","network_local":null,"operator":null,"city":"Salvador","country":"Brazil","lines":["2"],"wikidata":"Q51882197"},"geometry":{"type":"Point","coordinates":[-38.3944972,-12.934592]}},{"type":"Feature","properties":{"station_id":"n492578622","station_name":"Flamboyant","station_name_local":"Flamboyant","network":"Metrô de Salvador","network_local":"Metrô de Salvador","operator":"CCR Metrô Bahia","city":"Salvador","country":"Brazil","lines":["2"],"wikidata":"Q51882196"},"geometry":{"type":"Point","coordinates":[-38.4057385,-12.9379391]}},{"type":"Feature","properties":{"station_id":"n492578624","station_name":"Pituaçu","station_name_local":"Pituaçu","network":"Unknown","network_local":null,"operator":null,"city":"Salvador","country":"Brazil","lines":["2"],"wikidata":"Q30937876"},"geometry":{"type":"Point","coordinates":[-38.4213443,-12.9454241]}},{"type":"Feature","properties":{"station_id":"n492578626","station_name":"CAB","station_name_local":"CAB","network":"CCR","network_local":null,"operator":"CCR","city":"Salvador","country":"Brazil","lines":["2"],"wikidata":"Q30937866"},"geometry":{"type":"Point","coordinates":[-38.4290143,-12.9557339]}},{"type":"Feature","properties":{"station_id":"n514627272","station_name":"Bom Juá","station_name_local":"Bom Juá","network":"CCR Metrô Bahia","network_local":null,"operator":"CCR Metrô Bahia","city":"Salvador","country":"Brazil","lines":["1"],"wikidata":"Q20052816"},"geometry":{"type":"Point","coordinates":[-38.4705388,-12.940722]}},{"type":"Feature","properties":{"station_id":"n931025680","station_name":"Estação Campinas","station_name_local":"Estação Campinas","network":"Unknown","network_local":null,"operator":null,"city":"Salvador","country":"Brazil","lines":["1"],"wikidata":"Q104635887"},"geometry":{"type":"Point","coordinates":[-38.4623728,-12.9155508]}}]}