{"type":"FeatureCollection","metro_system":{"continent":"south-america","country":"Brazil","city":"Piracuruca","osm_networks":["VLT Teresina"],"operator":null,"official_website":null,"official_map":null,"wikidata":null,"line_count":0,"station_count":15},"features":[{"type":"Feature","properties":{"station_id":"n4933555172","station_name":"Piripiri","station_name_local":"Piripiri","network":"VLT Teresina","network_local":"VLT Teresina","operator":"CFLP","city":"Piracuruca","country":"Brazil","lines":null,"wikidata":null},"geometry":{"type":"Point","coordinates":[-41.7852532,-4.2734829]}},{"type":"Feature","properties":{"station_id":"n13829181757","station_name":"Miradouro","station_name_local":"Miradouro","network":"VLT Teresina","network_local":"VLT Teresina","operator":"CFLP","city":"Piracuruca","country":"Brazil","lines":null,"wikidata":null},"geometry":{"type":"Point","coordinates":[-42.3005669,-4.9307767]}},{"type":"Feature","properties":{"station_id":"n13829181760","station_name":"Campo Maior","station_name_local":"Campo Maior","network":"VLT Teresina","network_local":"VLT Teresina","operator":"CFLP","city":"Piracuruca","country":"Brazil","lines":null,"wikidata":null},"geometry":{"type":"Point","coordinates":[-42.1620608,-4.8314642]}},{"type":"Feature","properties":{"station_id":"n13829181762","station_name":"Sambaíba","station_name_local":"Sambaíba","network":"VLT Teresina","network_local":"VLT Teresina","operator":"CFLP","city":"Piracuruca","country":"Brazil","lines":null,"wikidata":null},"geometry":{"type":"Point","coordinates":[-42.0418364,-4.6132858]}},{"type":"Feature","properties":{"station_id":"n13829181764","station_name":"Capitão de Campos","station_name_local":"Capitão de Campos","network":"VLT Teresina","network_local":"VLT Teresina","operator":"CFLP","city":"Piracuruca","country":"Brazil","lines":null,"wikidata":null},"geometry":{"type":"Point","coordinates":[-41.9504189,-4.4512995]}},{"type":"Feature","properties":{"station_id":"n13829181766","station_name":"Brasileira","station_name_local":"Brasileira","network":"VLT Teresina","network_local":"VLT Teresina","operator":"CFLP","city":"Piracuruca","country":"Brazil","lines":null,"wikidata":null},"geometry":{"type":"Point","coordinates":[-41.779072,-4.1282155]}},{"type":"Feature","properties":{"station_id":"n13829181768","station_name":"Piracuruca","station_name_local":"Piracuruca","network":"VLT Teresina","network_local":"VLT Teresina","operator":"CFLP","city":"Piracuruca","country":"Brazil","lines":null,"wikidata":null},"geometry":{"type":"Point","coordinates":[-41.7031376,-3.9343039]}},{"type":"Feature","properties":{"station_id":"n13829181770","station_name":"Deserto","station_name_local":"Deserto","network":"VLT Teresina","network_local":"VLT Teresina","operator":"CFLP","city":"Piracuruca","country":"Brazil","lines":null,"wikidata":null},"geometry":{"type":"Point","coordinates":[-41.5895075,-3.6529444]}},{"type":"Feature","properties":{"station_id":"n13829181772","station_name":"Cocal","station_name_local":"Cocal","network":"VLT Teresina","network_local":"VLT Teresina","operator":"CFLP","city":"Piracuruca","country":"Brazil","lines":null,"wikidata":null},"geometry":{"type":"Point","coordinates":[-41.5592324,-3.4693111]}},{"type":"Feature","properties":{"station_id":"n13829181774","station_name":"Freixeiras","station_name_local":"Freixeiras","network":"VLT Teresina","network_local":"VLT Teresina","operator":"CFLP","city":"Piracuruca","country":"Brazil","lines":null,"wikidata":null},"geometry":{"type":"Point","coordinates":[-41.5932218,-3.3684149]}},{"type":"Feature","properties":{"station_id":"n13829181776","station_name":"Bom Princípio","station_name_local":"Bom Princípio","network":"VLT Teresina","network_local":"VLT Teresina","operator":"CFLP","city":"Piracuruca","country":"Brazil","lines":null,"wikidata":null},"geometry":{"type":"Point","coordinates":[-41.6464414,-3.1928255]}},{"type":"Feature","properties":{"station_id":"n13829181778","station_name":"Parnaíba","station_name_local":"Parnaíba","network":"VLT Teresina","network_local":"VLT Teresina","operator":"CFLP","city":"Piracuruca","country":"Brazil","lines":null,"wikidata":null},"geometry":{"type":"Point","coordinates":[-41.7717445,-2.9050749]}},{"type":"Feature","properties":{"station_id":"n13829181780","station_name":"Floriópolis","station_name_local":"Floriópolis","network":"VLT Teresina","network_local":"VLT Teresina","operator":"CFLP","city":"Piracuruca","country":"Brazil","lines":null,"wikidata":null},"geometry":{"type":"Point","coordinates":[-41.7203539,-2.8942782]}},{"type":"Feature","properties":{"station_id":"n13829181785","station_name":"Luís Correia","station_name_local":"Luís Correia","network":"VLT Teresina","network_local":"VLT Teresina","operator":"CFLP","city":"Piracuruca","country":"Brazil","lines":null,"wikidata":null},"geometry":{"type":"Point","coordinates":[-41.6667774,-2.881497]}},{"type":"Feature","properties":{"station_id":"n13869499439","station_name":"Altos","station_name_local":"Altos","network":"VLT Teresina","network_local":"VLT Teresina","operator":"CFLP","city":"Piracuruca","country":"Brazil","lines":null,"wikidata":null},"geometry":{"type":"Point","coordinates":[-42.4580118,-5.0314429]}}]}