{"type":"FeatureCollection","metro_system":{"continent":"asia","country":"Saudi Arabia","city":"Mecca","osm_networks":["Unknown","قطارات مكة للنقل العام"],"operator":null,"official_website":null,"official_map":"https://en.wikipedia.org/wiki/Al_Mashaaer_Al_Mugaddassah_Metro_Southern_Line","wikidata":"Q16240707","line_count":1,"station_count":9,"audit":null},"features":[{"type":"Feature","properties":{"route_id":"rm7734268","route_name":"Al Mashaaer Al Mugaddassah Metro Southern Line","route_name_local":"قطار المشاعر المقدسة الخط الجنوبي","route_ref":"S","route_color":"#ffc0cb","network":"قطارات مكة للنقل العام","network_local":"قطارات مكة للنقل العام","operator":null,"city":"Mecca","country":"Saudi Arabia","wikidata":"Q16240707","wikipedia":"en:Al Mashaaer Al Mugaddassah Metro Southern Line","osm_route_ids":[1273546,7734267]},"geometry":{"type":"MultiLineString","coordinates":[[[39.9754184,21.3369021],[39.9690282,21.341484],[39.9612224,21.34583],[39.9179715,21.3789163],[39.9067503,21.3830287],[39.9004901,21.3905913],[39.8978933,21.3991802],[39.8912638,21.4044709],[39.87064,21.4183961]]]}},{"type":"Feature","properties":{"station_id":"n4534822205","station_name":"Mina Station 2","station_name_local":"محطة منى رقم 2","network":"Unknown","network_local":null,"operator":null,"city":"Mecca","country":"Saudi Arabia","lines":["S"],"wikidata":null},"geometry":{"type":"Point","coordinates":[39.8912638,21.4044709]}},{"type":"Feature","properties":{"station_id":"n4534822206","station_name":"Mina Station 1","station_name_local":"محطة منى رقم 1","network":"Unknown","network_local":null,"operator":null,"city":"Mecca","country":"Saudi Arabia","lines":["S"],"wikidata":null},"geometry":{"type":"Point","coordinates":[39.8978933,21.3991802]}},{"type":"Feature","properties":{"station_id":"n4534824625","station_name":"Muzdalifah Station 3","station_name_local":"محطة مزدلفة رقم 3","network":"Unknown","network_local":null,"operator":null,"city":"Mecca","country":"Saudi Arabia","lines":["S"],"wikidata":null},"geometry":{"type":"Point","coordinates":[39.9004901,21.3905913]}},{"type":"Feature","properties":{"station_id":"n4534834974","station_name":"Muzdalifah Station 2","station_name_local":"محطة مزدلفة رقم 2","network":"Unknown","network_local":null,"operator":null,"city":"Mecca","country":"Saudi Arabia","lines":["S"],"wikidata":null},"geometry":{"type":"Point","coordinates":[39.9067503,21.3830287]}},{"type":"Feature","properties":{"station_id":"n4534838647","station_name":"Muzdalifah Station 1","station_name_local":"محطة مزدلفة رقم 1","network":"Unknown","network_local":null,"operator":null,"city":"Mecca","country":"Saudi Arabia","lines":["S"],"wikidata":null},"geometry":{"type":"Point","coordinates":[39.9179715,21.3789163]}},{"type":"Feature","properties":{"station_id":"n4534861098","station_name":"Arafat 3","station_name_local":"محطة عرفات رقم 3","network":"Unknown","network_local":null,"operator":null,"city":"Mecca","country":"Saudi Arabia","lines":["S"],"wikidata":null},"geometry":{"type":"Point","coordinates":[39.9612224,21.34583]}},{"type":"Feature","properties":{"station_id":"n4534861099","station_name":"Arafat 2","station_name_local":"محطة عرفات رقم 2","network":"Unknown","network_local":null,"operator":null,"city":"Mecca","country":"Saudi Arabia","lines":["S"],"wikidata":null},"geometry":{"type":"Point","coordinates":[39.9690282,21.341484]}},{"type":"Feature","properties":{"station_id":"n4534861100","station_name":"Arafat 1","station_name_local":"محطة عرفات رقم 1","network":"Unknown","network_local":null,"operator":null,"city":"Mecca","country":"Saudi Arabia","lines":["S"],"wikidata":null},"geometry":{"type":"Point","coordinates":[39.9754184,21.3369021]}},{"type":"Feature","properties":{"station_id":"n6024783454","station_name":"Jamarat (Mina Station 3)","station_name_local":"قطار المشاعر - محطة منى 3 - الجمرات","network":"Unknown","network_local":null,"operator":null,"city":"Mecca","country":"Saudi Arabia","lines":["S"],"wikidata":null},"geometry":{"type":"Point","coordinates":[39.87064,21.4183961]}}]}