{"type":"FeatureCollection","metro_system":{"continent":"north-america","country":"United States","city":"San Diego","osm_networks":["Amtrak","SDMTS"],"operator":"San Diego Metropolitan Transit System","official_website":"https://www.sdmts.com/","official_map":null,"wikidata":"Q597476","line_count":4,"station_count":62,"audit":{"strategies_tried":[],"passed":true,"checks":[{"id":"has_lines","ok":true,"detail":"4 lines","level":"error"},{"id":"has_stations","ok":true,"detail":"62 stations","level":"error"},{"id":"stations_have_lines","ok":true,"detail":"62/62 站皆有所屬路線","level":"error"},{"id":"stations_named","ok":true,"detail":"62/62 站有名稱","level":"warn"},{"id":"station_order","ok":true,"detail":"所有線路站序合理","level":"warn"}],"reasons":[],"warnings":[],"audited_at":"2026-07-10T08:36:15.508Z"}},"features":[{"type":"Feature","properties":{"route_id":"rm9946503","route_name":"Orange Line","route_name_local":"Orange Line","route_ref":"520","route_color":"#f6821e","network":"SDMTS","network_local":"SDMTS","operator":"San Diego Metropolitan Transit System","city":"San Diego","country":"United States","wikidata":"Q597476","wikipedia":null,"osm_route_ids":[2846984,9946499]},"geometry":{"type":"MultiLineString","coordinates":[[[-117.1660188,32.7166859],[-117.1621373,32.7167234],[-117.1593504,32.7167382],[-117.154021,32.7159735],[-117.1537726,32.7105328],[-117.1532671,32.7057188],[-117.1383481,32.7052927],[-117.1242876,32.7063145],[-117.0944604,32.7085566],[-117.085344,32.7095164],[-117.0627316,32.7101457],[-117.0392852,32.7238339],[-117.0305764,32.7437906],[-117.0172286,32.7571803],[-117.020745,32.7654147],[-117.0109696,32.7818384],[-117.0012196,32.7855201],[-116.976162,32.7923815]],[[-116.976188,32.7915383],[-117.0022277,32.7852578],[-117.0117664,32.7813689],[-117.0203292,32.7646049],[-117.0175594,32.7564279],[-117.0308004,32.7429984],[-117.0398927,32.7231797],[-117.0637273,32.7100631],[-117.0865344,32.7095802],[-117.095426,32.7083074],[-117.1250825,32.7055414],[-117.1415704,32.7052679],[-117.1531796,32.7057558],[-117.1537386,32.7113695],[-117.1544428,32.7166425],[-117.1600869,32.7167649],[-117.1627766,32.7167541],[-117.1660188,32.7166859]]]}},{"type":"Feature","properties":{"route_id":"rm9946502","route_name":"Green Line","route_name_local":"Green Line","route_ref":"530","route_color":"#04aa4f","network":"SDMTS","network_local":"SDMTS","operator":"San Diego Metropolitan Transit System","city":"San Diego","country":"United States","wikidata":"Q11681429","wikipedia":null,"osm_route_ids":[2847013,9946500]},"geometry":{"type":"MultiLineString","coordinates":[[[-116.976188,32.7915383],[-117.0022277,32.7852578],[-117.0117664,32.7813689],[-117.0428859,32.7723937],[-117.0573182,32.7774816],[-117.0707152,32.7732866],[-117.0979378,32.780642],[-117.1114914,32.7811892],[-117.120158,32.7809702],[-117.1275431,32.7779356],[-117.1423634,32.7735307],[-117.1504913,32.770973],[-117.1587705,32.7700272],[-117.1695392,32.7653618],[-117.1972165,32.7635557],[-117.1994267,32.7544435],[-117.1839412,32.7413757],[-117.1745383,32.7332483],[-117.169965,32.721062],[-117.169838,32.7172458],[-117.1681501,32.7115099],[-117.1629682,32.708644],[-117.1592253,32.7065774],[-117.1535246,32.7052236]],[[-117.1535246,32.7052236],[-117.1601462,32.7071302],[-117.1638564,32.7091594],[-117.1689749,32.7123759],[-117.1697965,32.7172395],[-117.1699242,32.7218262],[-117.1751474,32.7340148],[-117.1847852,32.7418648],[-117.1996197,32.7551687],[-117.1961803,32.7635682],[-117.1685256,32.765564],[-117.1577797,32.7703861],[-117.1495558,32.7711614],[-117.1413428,32.7737216],[-117.1267549,32.7786187],[-117.119027,32.7809817],[-117.1106466,32.7806469],[-117.0969879,32.7802742],[-117.070728,32.7732098],[-117.0562871,32.7772484],[-117.0419383,32.7720508],[-117.0109696,32.7818384],[-117.0012196,32.7855201],[-116.976162,32.7923815]]]}},{"type":"Feature","properties":{"route_id":"rm7572438","route_name":"UC San Diego Blue Line","route_name_local":"UC San Diego Blue Line","route_ref":"510","route_color":"#005cb9","network":"SDMTS","network_local":"SDMTS","operator":"San Diego Metropolitan Transit System","city":"San Diego","country":"United States","wikidata":"Q4929374","wikipedia":null,"osm_route_ids":[13466482,13466483]},"geometry":{"type":"MultiLineString","coordinates":[[[-117.214024,32.8696608],[-117.214025,32.8745103],[-117.2239,32.882037],[-117.231803,32.8780751],[-117.230089,32.8739069],[-117.230462,32.8664974],[-117.213873,32.8054316],[-117.206181,32.7896339],[-117.204996,32.769473],[-117.1994267,32.7544435],[-117.1839412,32.7413757],[-117.1745383,32.7332483],[-117.169965,32.721062],[-117.169838,32.7172458],[-117.1687515,32.7165622],[-117.1621373,32.7167234],[-117.1593504,32.7167382],[-117.154021,32.7159735],[-117.1537726,32.7105328],[-117.1532671,32.7057188],[-117.1461388,32.6976871],[-117.1322455,32.6909956],[-117.1243211,32.6856888],[-117.1129525,32.6744694],[-117.1078596,32.661389],[-117.098926,32.6385415],[-117.0954235,32.6295826],[-117.0848985,32.6026186],[-117.083836,32.5841617],[-117.0666863,32.5693588],[-117.0465391,32.5573209],[-117.0293042,32.5441079]],[[-117.0291887,32.5441583],[-117.0473522,32.5577841],[-117.0675074,32.56993],[-117.0837899,32.5850428],[-117.0848426,32.6026371],[-117.0957095,32.6304783],[-117.0991911,32.6393931],[-117.1081469,32.6622568],[-117.1132134,32.6752487],[-117.1251114,32.6862903],[-117.1332318,32.6914304],[-117.1469255,32.6982801],[-117.1531796,32.7057558],[-117.1537386,32.7113695],[-117.1544428,32.7166425],[-117.1600869,32.7167649],[-117.1627766,32.7167541],[-117.1690277,32.7161117],[-117.1697965,32.7172395],[-117.1699242,32.7218262],[-117.1751474,32.7340148],[-117.1847852,32.7418648],[-117.1996197,32.7551687],[-117.205178,32.7702292],[-117.20616,32.7903993],[-117.21426,32.8061375],[-117.230386,32.8672866],[-117.229692,32.8746036],[-117.231882,32.878721],[-117.223008,32.8816752],[-117.21407,32.8737003],[-117.214064,32.8688505]]]}},{"type":"Feature","properties":{"route_id":"rm18108501","route_name":"Copper Line","route_name_local":"Copper Line","route_ref":null,"route_color":"#b06433","network":"SDMTS","network_local":"SDMTS","operator":"San Diego Metropolitan Transit System","city":"San Diego","country":"United States","wikidata":"Q126454170","wikipedia":null,"osm_route_ids":[18108499,18108500]},"geometry":{"type":"MultiLineString","coordinates":[[[-116.9807682,32.8419404],[-116.981798,32.8264753],[-116.9757444,32.8041168],[-116.976188,32.7915383]],[[-116.976162,32.7923815],[-116.9756989,32.8049562],[-116.9822719,32.8272918],[-116.9807286,32.8419193]]]}},{"type":"Feature","properties":{"station_id":"n1630990751","station_name":"70th Street","station_name_local":"70th Street","network":"SDMTS","network_local":"SDMTS","operator":"San Diego Metropolitan Transit System","city":"San Diego","country":"United States","lines":["530"],"wikidata":"Q4643050"},"geometry":{"type":"Point","coordinates":[-117.0420326,32.7721712]}},{"type":"Feature","properties":{"station_id":"n2607827443","station_name":"SDSU Transit Center","station_name_local":"SDSU Transit Center","network":"SDMTS","network_local":"SDMTS","operator":"San Diego Metropolitan Transit System","city":"San Diego","country":"United States","lines":["530"],"wikidata":"Q7389488"},"geometry":{"type":"Point","coordinates":[-117.0706227,32.7733084]}},{"type":"Feature","properties":{"station_id":"n3248672743","station_name":"UC San Diego Central Campus","station_name_local":"UC San Diego Central Campus","network":"SDMTS","network_local":"SDMTS","operator":"San Diego Metropolitan Transit System","city":"San Diego","country":"United States","lines":["510"],"wikidata":"Q85811511"},"geometry":{"type":"Point","coordinates":[-117.231831,32.8783398]}},{"type":"Feature","properties":{"station_id":"n3248672745","station_name":"VA Medical Center","station_name_local":"VA Medical Center","network":"SDMTS","network_local":"SDMTS","operator":"San Diego Metropolitan Transit System","city":"San Diego","country":"United States","lines":["510"],"wikidata":"Q85812590"},"geometry":{"type":"Point","coordinates":[-117.229883,32.8742475]}},{"type":"Feature","properties":{"station_id":"n3344517046","station_name":"Nobel Drive","station_name_local":"Nobel Drive","network":"SDMTS","network_local":"SDMTS","operator":"San Diego Metropolitan Transit System","city":"San Diego","country":"United States","lines":["510"],"wikidata":"Q85789326"},"geometry":{"type":"Point","coordinates":[-117.230425,32.8668507]}},{"type":"Feature","properties":{"station_id":"n4515886253","station_name":"UC San Diego Health La Jolla","station_name_local":"UC San Diego Health La Jolla","network":"SDMTS","network_local":"SDMTS","operator":"San Diego Metropolitan Transit System","city":"San Diego","country":"United States","lines":["510"],"wikidata":"Q85811505"},"geometry":{"type":"Point","coordinates":[-117.223517,32.8818572]}},{"type":"Feature","properties":{"station_id":"n5388551999","station_name":"UTC Transit Center","station_name_local":"UTC Transit Center","network":"SDMTS","network_local":"SDMTS","operator":"San Diego Metropolitan Transit System","city":"San Diego","country":"United States","lines":["510"],"wikidata":"Q65053884"},"geometry":{"type":"Point","coordinates":[-117.214043,32.869228]}},{"type":"Feature","properties":{"station_id":"n5388552006","station_name":"Executive Drive","station_name_local":"Executive Drive","network":"SDMTS","network_local":"SDMTS","operator":"San Diego Metropolitan Transit System","city":"San Diego","country":"United States","lines":["510"],"wikidata":"Q85760059"},"geometry":{"type":"Point","coordinates":[-117.214048,32.8740037]}},{"type":"Feature","properties":{"station_id":"n5388552267","station_name":"Balboa Avenue Transit Center","station_name_local":"Balboa Avenue Transit Center","network":"SDMTS","network_local":"SDMTS","operator":"San Diego Metropolitan Transit System","city":"San Diego","country":"United States","lines":["510"],"wikidata":"Q85745012"},"geometry":{"type":"Point","coordinates":[-117.214053,32.8057535]}},{"type":"Feature","properties":{"station_id":"n5388552277","station_name":"Clairemont Drive","station_name_local":"Clairemont Drive","network":"SDMTS","network_local":"SDMTS","operator":"San Diego Metropolitan Transit System","city":"San Diego","country":"United States","lines":["510"],"wikidata":"Q85752659"},"geometry":{"type":"Point","coordinates":[-117.206168,32.7900532]}},{"type":"Feature","properties":{"station_id":"n6184515857","station_name":"Encanto/62nd Street","station_name_local":"Encanto/62nd Street","network":"SDMTS","network_local":"SDMTS","operator":"San Diego Metropolitan Transit System","city":"San Diego","country":"United States","lines":["520"],"wikidata":"Q5375307"},"geometry":{"type":"Point","coordinates":[-117.0631993,32.7101857]}},{"type":"Feature","properties":{"station_id":"n6184515875","station_name":"Rio Vista","station_name_local":"Rio Vista","network":"SDMTS","network_local":"SDMTS","operator":"San Diego Metropolitan Transit System","city":"San Diego","country":"United States","lines":["530"],"wikidata":"Q7335358"},"geometry":{"type":"Point","coordinates":[-117.1420972,32.7736302]}},{"type":"Feature","properties":{"station_id":"n6184516238","station_name":"Palomar Street","station_name_local":"Palomar Street","network":"SDMTS","network_local":"SDMTS","operator":"San Diego Metropolitan Transit System","city":"San Diego","country":"United States","lines":["510"],"wikidata":"Q7128611"},"geometry":{"type":"Point","coordinates":[-117.0849068,32.6029243]}},{"type":"Feature","properties":{"station_id":"n6184516239","station_name":"Palm Avenue","station_name_local":"Palm Avenue","network":"SDMTS","network_local":"SDMTS","operator":"San Diego Metropolitan Transit System","city":"San Diego","country":"United States","lines":["510"],"wikidata":"Q7127967"},"geometry":{"type":"Point","coordinates":[-117.0838845,32.5843352]}},{"type":"Feature","properties":{"station_id":"n6184516260","station_name":"Pacific Fleet","station_name_local":"Pacific Fleet","network":"SDMTS","network_local":"SDMTS","operator":"San Diego Metropolitan Transit System","city":"San Diego","country":"United States","lines":["510"],"wikidata":"Q7122455"},"geometry":{"type":"Point","coordinates":[-117.1250818,32.6862501]}},{"type":"Feature","properties":{"station_id":"n6184516270","station_name":"Amaya Drive","station_name_local":"Amaya Drive","network":"SDMTS","network_local":"SDMTS","operator":"San Diego Metropolitan Transit System","city":"San Diego","country":"United States","lines":["520","530"],"wikidata":"Q4740750"},"geometry":{"type":"Point","coordinates":[-117.0017632,32.7854902]}},{"type":"Feature","properties":{"station_id":"n6184516275","station_name":"Spring Street","station_name_local":"Spring Street","network":"SDMTS","network_local":"SDMTS","operator":"San Diego Metropolitan Transit System","city":"San Diego","country":"United States","lines":["520"],"wikidata":"Q7580686"},"geometry":{"type":"Point","coordinates":[-117.0173702,32.7568238]}},{"type":"Feature","properties":{"station_id":"n6184516276","station_name":"Harborside","station_name_local":"Harborside","network":"SDMTS","network_local":"SDMTS","operator":"San Diego Metropolitan Transit System","city":"San Diego","country":"United States","lines":["510"],"wikidata":"Q2835870"},"geometry":{"type":"Point","coordinates":[-117.1329724,32.6912561]}},{"type":"Feature","properties":{"station_id":"n6184516277","station_name":"Hazard Center","station_name_local":"Hazard Center","network":"SDMTS","network_local":"SDMTS","operator":"San Diego Metropolitan Transit System","city":"San Diego","country":"United States","lines":["530"],"wikidata":"Q5687647"},"geometry":{"type":"Point","coordinates":[-117.1581332,32.7703654]}},{"type":"Feature","properties":{"station_id":"n6184516278","station_name":"Mission Valley Center","station_name_local":"Mission Valley Center","network":"SDMTS","network_local":"SDMTS","operator":"San Diego Metropolitan Transit System","city":"San Diego","country":"United States","lines":["530"],"wikidata":"Q6878792"},"geometry":{"type":"Point","coordinates":[-117.1500822,32.7710136]}},{"type":"Feature","properties":{"station_id":"n6184516279","station_name":"El Cajon","station_name_local":"El Cajon","network":"SDMTS","network_local":"SDMTS","operator":"San Diego Metropolitan Transit System","city":"San Diego","country":"United States","lines":["520","530","Copper Line"],"wikidata":"Q5350864"},"geometry":{"type":"Point","coordinates":[-116.97607,32.7919757]}},{"type":"Feature","properties":{"station_id":"n6184516281","station_name":"Massachusetts Avenue","station_name_local":"Massachusetts Avenue","network":"SDMTS","network_local":"SDMTS","operator":"San Diego Metropolitan Transit System","city":"San Diego","country":"United States","lines":["520"],"wikidata":"Q6784189"},"geometry":{"type":"Point","coordinates":[-117.0396605,32.7235621]}},{"type":"Feature","properties":{"station_id":"n6184516283","station_name":"Lemon Grove Depot","station_name_local":"Lemon Grove Depot","network":"SDMTS","network_local":"SDMTS","operator":"San Diego Metropolitan Transit System","city":"San Diego","country":"United States","lines":["520"],"wikidata":"Q6521310"},"geometry":{"type":"Point","coordinates":[-117.030829,32.7433352]}},{"type":"Feature","properties":{"station_id":"n6184516284","station_name":"Barrio Logan","station_name_local":"Barrio Logan","network":"SDMTS","network_local":"SDMTS","operator":"San Diego Metropolitan Transit System","city":"San Diego","country":"United States","lines":["510"],"wikidata":"Q2839517"},"geometry":{"type":"Point","coordinates":[-117.1467326,32.6980605]}},{"type":"Feature","properties":{"station_id":"n6184516686","station_name":"Arnele Avenue","station_name_local":"Arnele Avenue","network":"SDMTS","network_local":"SDMTS","operator":"San Diego Metropolitan Transit System","city":"San Diego","country":"United States","lines":["Copper Line"],"wikidata":"Q4794718"},"geometry":{"type":"Point","coordinates":[-116.9757839,32.8045154]}},{"type":"Feature","properties":{"station_id":"n6184516687","station_name":"Grossmont","station_name_local":"Grossmont","network":"SDMTS","network_local":"SDMTS","operator":"San Diego Metropolitan Transit System","city":"San Diego","country":"United States","lines":["520","530"],"wikidata":"Q5610608"},"geometry":{"type":"Point","coordinates":[-117.0113209,32.7817742]}},{"type":"Feature","properties":{"station_id":"n6184516691","station_name":"Euclid Avenue","station_name_local":"Euclid Avenue","network":"SDMTS","network_local":"SDMTS","operator":"San Diego Metropolitan Transit System","city":"San Diego","country":"United States","lines":["520"],"wikidata":"Q5406102"},"geometry":{"type":"Point","coordinates":[-117.086031,32.7096389]}},{"type":"Feature","properties":{"station_id":"n6184516692","station_name":"H Street","station_name_local":"H Street","network":"SDMTS","network_local":"SDMTS","operator":"San Diego Metropolitan Transit System","city":"San Diego","country":"United States","lines":["510"],"wikidata":"Q976617"},"geometry":{"type":"Point","coordinates":[-117.0953052,32.6295665]}},{"type":"Feature","properties":{"station_id":"n6184516693","station_name":"Middletown","station_name_local":"Middletown","network":"SDMTS","network_local":"SDMTS","operator":"San Diego Metropolitan Transit System","city":"San Diego","country":"United States","lines":["510","530"],"wikidata":"Q9032566"},"geometry":{"type":"Point","coordinates":[-117.1748622,32.7336529]}},{"type":"Feature","properties":{"station_id":"n6184516695","station_name":"UC San Diego Health East","station_name_local":"UC San Diego Health East","network":"SDMTS","network_local":"SDMTS","operator":"San Diego Metropolitan Transit System","city":"San Diego","country":"United States","lines":["530"],"wikidata":"Q4737877"},"geometry":{"type":"Point","coordinates":[-117.0570009,32.7772993]}},{"type":"Feature","properties":{"station_id":"n6184516696","station_name":"Gillespie Field","station_name_local":"Gillespie Field","network":"SDMTS","network_local":"SDMTS","operator":"San Diego Metropolitan Transit System","city":"San Diego","country":"United States","lines":["Copper Line"],"wikidata":"Q5562118"},"geometry":{"type":"Point","coordinates":[-116.9821338,32.8268628]}},{"type":"Feature","properties":{"station_id":"n6184516697","station_name":"La Mesa Boulevard","station_name_local":"La Mesa Boulevard","network":"SDMTS","network_local":"SDMTS","operator":"San Diego Metropolitan Transit System","city":"San Diego","country":"United States","lines":["520"],"wikidata":"Q9018733"},"geometry":{"type":"Point","coordinates":[-117.0206095,32.7649694]}},{"type":"Feature","properties":{"station_id":"n6184516698","station_name":"Washington Street","station_name_local":"Washington Street","network":"SDMTS","network_local":"SDMTS","operator":"San Diego Metropolitan Transit System","city":"San Diego","country":"United States","lines":["510","530"],"wikidata":"Q7972318"},"geometry":{"type":"Point","coordinates":[-117.1842436,32.7415586]}},{"type":"Feature","properties":{"station_id":"n6184516701","station_name":"County Center/Little Italy","station_name_local":"County Center/Little Italy","network":"SDMTS","network_local":"SDMTS","operator":"San Diego Metropolitan Transit System","city":"San Diego","country":"United States","lines":["510","530"],"wikidata":"Q5177635"},"geometry":{"type":"Point","coordinates":[-117.169937,32.7214084]}},{"type":"Feature","properties":{"station_id":"n6184516703","station_name":"47th Street","station_name_local":"47th Street","network":"SDMTS","network_local":"SDMTS","operator":"San Diego Metropolitan Transit System","city":"San Diego","country":"United States","lines":["520"],"wikidata":"Q4638573"},"geometry":{"type":"Point","coordinates":[-117.0949474,32.7083421]}},{"type":"Feature","properties":{"station_id":"n6184516704","station_name":"8th Street","station_name_local":"8th Street","network":"SDMTS","network_local":"SDMTS","operator":"San Diego Metropolitan Transit System","city":"San Diego","country":"United States","lines":["510"],"wikidata":"Q4645482"},"geometry":{"type":"Point","coordinates":[-117.113073,32.674664]}},{"type":"Feature","properties":{"station_id":"n6184516707","station_name":"Fenton Parkway","station_name_local":"Fenton Parkway","network":"SDMTS","network_local":"SDMTS","operator":"San Diego Metropolitan Transit System","city":"San Diego","country":"United States","lines":["530"],"wikidata":"Q965329"},"geometry":{"type":"Point","coordinates":[-117.1272545,32.778303]}},{"type":"Feature","properties":{"station_id":"n6184516708","station_name":"Santee Town Center","station_name_local":"Santee Town Center","network":"SDMTS","network_local":"SDMTS","operator":"San Diego Metropolitan Transit System","city":"San Diego","country":"United States","lines":["Copper Line"],"wikidata":"Q7420115"},"geometry":{"type":"Point","coordinates":[-116.9806821,32.8418655]}},{"type":"Feature","properties":{"station_id":"n6184516709","station_name":"E Street","station_name_local":"E Street","network":"SDMTS","network_local":"SDMTS","operator":"San Diego Metropolitan Transit System","city":"San Diego","country":"United States","lines":["510"],"wikidata":"Q4874521"},"geometry":{"type":"Point","coordinates":[-117.0984864,32.6391693]}},{"type":"Feature","properties":{"station_id":"n6184516710","station_name":"San Ysidro Transit Center","station_name_local":"San Ysidro Transit Center","network":"SDMTS","network_local":"SDMTS","operator":null,"city":"San Diego","country":"United States","lines":["510"],"wikidata":"Q7415405"},"geometry":{"type":"Point","coordinates":[-117.0295724,32.544414]}},{"type":"Feature","properties":{"station_id":"n7715031112","station_name":"Santa Fe Depot","station_name_local":"Santa Fe Depot","network":"Amtrak","network_local":"Amtrak","operator":"Amtrak","city":"San Diego","country":"United States","lines":["510","530"],"wikidata":"Q114008715"},"geometry":{"type":"Point","coordinates":[-117.169815,32.7169625]}},{"type":"Feature","properties":{"station_id":"n7715031113","station_name":"Old Town Transit Center","station_name_local":"Old Town Transit Center","network":"SDMTS","network_local":"SDMTS","operator":"San Diego Metropolitan Transit System","city":"San Diego","country":"United States","lines":["510","530"],"wikidata":"Q3098253"},"geometry":{"type":"Point","coordinates":[-117.19952,32.7547968]}},{"type":"Feature","properties":{"station_id":"n7965227040","station_name":"Tecolote Road","station_name_local":"Tecolote Road","network":"SDMTS","network_local":"SDMTS","operator":"San Diego Metropolitan Transit System","city":"San Diego","country":"United States","lines":["510"],"wikidata":"Q76381247"},"geometry":{"type":"Point","coordinates":[-117.205086,32.7698224]}},{"type":"Feature","properties":{"station_id":"n13959095187","station_name":"Fashion Valley","station_name_local":"Fashion Valley","network":"SDMTS","network_local":"SDMTS","operator":"San Diego Metropolitan Transit System","city":"San Diego","country":"United States","lines":["530"],"wikidata":"Q5436762"},"geometry":{"type":"Point","coordinates":[-117.1691304,32.7654875]}},{"type":"Feature","properties":{"station_id":"n402399352","station_name":"Union Grantville","station_name_local":"Union Grantville","network":"SDMTS","network_local":"SDMTS","operator":"San Diego Metropolitan Transit System","city":"San Diego","country":"United States","lines":["530"],"wikidata":"Q5596705"},"geometry":{"type":"Point","coordinates":[-117.0974826,32.7804673]}},{"type":"Feature","properties":{"station_id":"n1494158024","station_name":"24th Street","station_name_local":"24th Street","network":"SDMTS","network_local":"SDMTS","operator":"San Diego Metropolitan Transit System","city":"San Diego","country":"United States","lines":["510"],"wikidata":"Q921739"},"geometry":{"type":"Point","coordinates":[-117.1076677,32.6620626]}},{"type":"Feature","properties":{"station_id":"n1518548688","station_name":"Park & Market","station_name_local":"Park & Market","network":"SDMTS","network_local":"SDMTS","operator":"San Diego Metropolitan Transit System","city":"San Diego","country":"United States","lines":["510","520"],"wikidata":"Q7137594"},"geometry":{"type":"Point","coordinates":[-117.153765,32.7109678]}},{"type":"Feature","properties":{"station_id":"n1518555821","station_name":"5th Avenue","station_name_local":"5th Avenue","network":"SDMTS","network_local":"SDMTS","operator":"San Diego Metropolitan Transit System","city":"San Diego","country":"United States","lines":["510","520"],"wikidata":"Q5447468"},"geometry":{"type":"Point","coordinates":[-117.1597271,32.7167557]}},{"type":"Feature","properties":{"station_id":"n1521960689","station_name":"City College","station_name_local":"City College","network":"SDMTS","network_local":"SDMTS","operator":"San Diego Metropolitan Transit System","city":"San Diego","country":"United States","lines":["510","520"],"wikidata":"Q5123116"},"geometry":{"type":"Point","coordinates":[-117.1542679,32.7162982]}},{"type":"Feature","properties":{"station_id":"n1521961882","station_name":"America Plaza","station_name_local":"America Plaza","network":"SDMTS","network_local":"SDMTS","operator":"Metropolitan Transit System","city":"San Diego","country":"United States","lines":["510"],"wikidata":"Q4742787"},"geometry":{"type":"Point","coordinates":[-117.1687662,32.7164135]}},{"type":"Feature","properties":{"station_id":"n1521964624","station_name":"12th & Imperial Transit Center","station_name_local":"12th & Imperial Transit Center","network":"SDMTS","network_local":"SDMTS","operator":"San Diego Metropolitan Transit System","city":"San Diego","country":"United States","lines":["530"],"wikidata":"Q4548767"},"geometry":{"type":"Point","coordinates":[-117.1538242,32.7056879]}},{"type":"Feature","properties":{"station_id":"n1523176020","station_name":"Civic Center","station_name_local":"Civic Center","network":"SDMTS","network_local":"SDMTS","operator":"San Diego Metropolitan Transit System","city":"San Diego","country":"United States","lines":["510","520"],"wikidata":"Q5124280"},"geometry":{"type":"Point","coordinates":[-117.1624844,32.7167438]}},{"type":"Feature","properties":{"station_id":"n1523176021","station_name":"Courthouse","station_name_local":"Courthouse","network":"SDMTS","network_local":"SDMTS","operator":"San Diego Metropolitan Transit System","city":"San Diego","country":"United States","lines":["520"],"wikidata":"Q55608497"},"geometry":{"type":"Point","coordinates":[-117.1660414,32.7166655]}},{"type":"Feature","properties":{"station_id":"n1523188581","station_name":"25th/Commercial","station_name_local":"25th/Commercial","network":"SDMTS","network_local":"SDMTS","operator":"San Diego Metropolitan Transit System","city":"San Diego","country":"United States","lines":["520"],"wikidata":"Q4632221"},"geometry":{"type":"Point","coordinates":[-117.1399609,32.7052843]}},{"type":"Feature","properties":{"station_id":"n1523188600","station_name":"32nd/Commercial","station_name_local":"32nd/Commercial","network":"SDMTS","network_local":"SDMTS","operator":"San Diego Metropolitan Transit System","city":"San Diego","country":"United States","lines":["520"],"wikidata":"Q4635044"},"geometry":{"type":"Point","coordinates":[-117.124654,32.7060333]}},{"type":"Feature","properties":{"station_id":"n1523874531","station_name":"Seaport Village","station_name_local":"Seaport Village","network":"SDMTS","network_local":"SDMTS","operator":"San Diego Metropolitan Transit System","city":"San Diego","country":"United States","lines":["530"],"wikidata":null},"geometry":{"type":"Point","coordinates":[-117.1685294,32.7119276]}},{"type":"Feature","properties":{"station_id":"n1523874532","station_name":"Convention Center","station_name_local":"Convention Center","network":"SDMTS","network_local":"SDMTS","operator":"San Diego Metropolitan Transit System","city":"San Diego","country":"United States","lines":["530"],"wikidata":"Q971562"},"geometry":{"type":"Point","coordinates":[-117.1634057,32.7088886]}},{"type":"Feature","properties":{"station_id":"n1523874533","station_name":"Gaslamp Quarter","station_name_local":"Gaslamp Quarter","network":"SDMTS","network_local":"SDMTS","operator":"San Diego Metropolitan Transit System","city":"San Diego","country":"United States","lines":["530"],"wikidata":"Q5526483"},"geometry":{"type":"Point","coordinates":[-117.1597033,32.7068808]}},{"type":"Feature","properties":{"station_id":"n1524227721","station_name":"Morena/Linda Vista","station_name_local":"Morena/Linda Vista","network":"SDMTS","network_local":"SDMTS","operator":"San Diego Metropolitan Transit System","city":"San Diego","country":"United States","lines":["530"],"wikidata":"Q6911369"},"geometry":{"type":"Point","coordinates":[-117.1964299,32.7635677]}},{"type":"Feature","properties":{"station_id":"n1531326657","station_name":"Mission San Diego","station_name_local":"Mission San Diego","network":"SDMTS","network_local":"SDMTS","operator":"San Diego Metropolitan Transit System","city":"San Diego","country":"United States","lines":["530"],"wikidata":"Q11693094"},"geometry":{"type":"Point","coordinates":[-117.1112433,32.7809903]}},{"type":"Feature","properties":{"station_id":"n1532141933","station_name":"Beyer Boulevard","station_name_local":"Beyer Boulevard","network":"SDMTS","network_local":"SDMTS","operator":"San Diego Metropolitan Transit System","city":"San Diego","country":"United States","lines":["510"],"wikidata":"Q4899852"},"geometry":{"type":"Point","coordinates":[-117.0469487,32.5576637]}},{"type":"Feature","properties":{"station_id":"n1533370393","station_name":"Iris Avenue","station_name_local":"Iris Avenue","network":"SDMTS","network_local":"SDMTS","operator":"San Diego Metropolitan Transit System","city":"San Diego","country":"United States","lines":["510"],"wikidata":"Q6070144","merged_from":2},"geometry":{"type":"Point","coordinates":[-117.06674155,32.56969235]}}]}