{"type":"FeatureCollection","metro_system":{"continent":"north-america","country":"United States","city":"Miami","osm_networks":["MDT"],"operator":"Miami-Dade Transit","official_website":null,"official_map":null,"wikidata":"Q55734269","line_count":2,"station_count":23,"audit":{"strategies_tried":[],"passed":true,"checks":[{"id":"system_exists","ok":true,"detail":"matched OSM system systems/north-america/united-states/north-america-united-states-miami.geojson","level":"error"},{"id":"has_lines","ok":true,"detail":"2 lines","level":"error"},{"id":"has_stations","ok":true,"detail":"23 stations","level":"error"},{"id":"station_ratio","ok":true,"detail":"OSM 23 vs Wikipedia 23（比值 1.00）","level":"error"},{"id":"stations_have_lines","ok":true,"detail":"23/23 站皆有所屬路線","level":"error"},{"id":"stations_named","ok":true,"detail":"23/23 站有名稱","level":"warn"},{"id":"station_order","ok":true,"detail":"所有線路站序合理","level":"warn"}],"reasons":[],"warnings":[],"audited_at":"2026-07-10T07:57:11.004Z"}},"features":[{"type":"Feature","properties":{"route_id":"rm7924528","route_name":"Orange Line","route_name_local":"Orange Line","route_ref":"Orange","route_color":"#f78f1e","network":"MDT","network_local":"MDT","operator":"Miami-Dade Transit","city":"Miami","country":"United States","wikidata":"Q55734269","wikipedia":null,"osm_route_ids":[1589528,7924525]},"geometry":{"type":"MultiLineString","coordinates":[[[-80.3132999,25.6852844],[-80.3045406,25.6923512],[-80.2885539,25.7054121],[-80.2765252,25.7151158],[-80.2544386,25.7330541],[-80.2384351,25.7399207],[-80.2113399,25.7498087],[-80.1954173,25.7642421],[-80.1960502,25.7766624],[-80.1962479,25.7813848],[-80.2081143,25.7845261],[-80.2150216,25.7901131],[-80.2151993,25.7962012],[-80.2154331,25.8091711],[-80.2305847,25.8124967],[-80.2587221,25.7975515]],[[-80.2585789,25.7975521],[-80.2294061,25.8124248],[-80.2155068,25.8082214],[-80.2152077,25.7953916],[-80.2150479,25.7892763],[-80.2071581,25.7845632],[-80.1963186,25.7805129],[-80.1961293,25.7753538],[-80.1955103,25.7633616],[-80.2122722,25.749575],[-80.2393572,25.7396929],[-80.2552921,25.732492],[-80.2773547,25.7145746],[-80.2894338,25.7048293],[-80.3054939,25.69171],[-80.3140461,25.6848047]]]}},{"type":"Feature","properties":{"route_id":"rm7924527","route_name":"Green Line","route_name_local":"Green Line","route_ref":"Green","route_color":"#62bb46","network":"MDT","network_local":"MDT","operator":"Miami-Dade Transit","city":"Miami","country":"United States","wikidata":"Q55734262","wikipedia":null,"osm_route_ids":[4499117,7924526]},"geometry":{"type":"MultiLineString","coordinates":[[[-80.3242345,25.8433223],[-80.3010806,25.8397794],[-80.2784991,25.8411338],[-80.2591735,25.8454635],[-80.2484256,25.8458097],[-80.2412027,25.8319898],[-80.2407247,25.8216547],[-80.2294061,25.8124248],[-80.2155068,25.8082214],[-80.2152077,25.7953916],[-80.2150479,25.7892763],[-80.2071581,25.7845632],[-80.1963186,25.7805129],[-80.1961293,25.7753538],[-80.1955103,25.7633616],[-80.2122722,25.749575],[-80.2393572,25.7396929],[-80.2552921,25.732492],[-80.2773547,25.7145746],[-80.2894338,25.7048293],[-80.3054939,25.69171],[-80.3140461,25.6848047]],[[-80.3132999,25.6852844],[-80.3045406,25.6923512],[-80.2885539,25.7054121],[-80.2765252,25.7151158],[-80.2544386,25.7330541],[-80.2384351,25.7399207],[-80.2113399,25.7498087],[-80.1954173,25.7642421],[-80.1960502,25.7766624],[-80.1962479,25.7813848],[-80.2081143,25.7845261],[-80.2150216,25.7901131],[-80.2151993,25.7962012],[-80.2154331,25.8091711],[-80.2305847,25.8124967],[-80.2407097,25.8224044],[-80.2411953,25.832764],[-80.2492321,25.8458221],[-80.2600174,25.8454744],[-80.2794909,25.841201],[-80.3018913,25.8398752],[-80.3242401,25.8434197]]]}},{"type":"Feature","properties":{"station_id":"n462234896","station_name":"Dadeland South","station_name_local":"Dadeland South","network":"MDT","network_local":"MDT","operator":"Miami-Dade Transit","city":"Miami","country":"United States","lines":["Green","Orange"],"wikidata":"Q5208056"},"geometry":{"type":"Point","coordinates":[-80.3136848,25.6850336]}},{"type":"Feature","properties":{"station_id":"n462237456","station_name":"Dadeland North","station_name_local":"Dadeland North","network":"MDT","network_local":"MDT","operator":null,"city":"Miami","country":"United States","lines":["Green","Orange"],"wikidata":"Q5208055"},"geometry":{"type":"Point","coordinates":[-80.3051175,25.691956]}},{"type":"Feature","properties":{"station_id":"n462341030","station_name":"South Miami","station_name_local":"South Miami","network":"MDT","network_local":"MDT","operator":null,"city":"Miami","country":"United States","lines":["Green","Orange"],"wikidata":"Q7567942"},"geometry":{"type":"Point","coordinates":[-80.2890739,25.7050582]}},{"type":"Feature","properties":{"station_id":"n462347481","station_name":"University","station_name_local":"University","network":"MDT","network_local":"MDT","operator":null,"city":"Miami","country":"United States","lines":["Green","Orange"],"wikidata":"Q7894490"},"geometry":{"type":"Point","coordinates":[-80.2769765,25.7148148]}},{"type":"Feature","properties":{"station_id":"n462351565","station_name":"Douglas Road","station_name_local":"Douglas Road","network":"MDT","network_local":"MDT","operator":null,"city":"Miami","country":"United States","lines":["Green","Orange"],"wikidata":"Q5301934"},"geometry":{"type":"Point","coordinates":[-80.2548678,25.7327678]}},{"type":"Feature","properties":{"station_id":"n462354527","station_name":"Coconut Grove","station_name_local":"Coconut Grove","network":"MDT","network_local":"MDT","operator":null,"city":"Miami","country":"United States","lines":["Green","Orange"],"wikidata":"Q5139824"},"geometry":{"type":"Point","coordinates":[-80.2388468,25.7398164]}},{"type":"Feature","properties":{"station_id":"n462429749","station_name":"Vizcaya","station_name_local":"Vizcaya","network":"MDT","network_local":"MDT","operator":null,"city":"Miami","country":"United States","lines":["Green","Orange"],"wikidata":"Q7938003"},"geometry":{"type":"Point","coordinates":[-80.2117456,25.7497117]}},{"type":"Feature","properties":{"station_id":"n462517397","station_name":"Brickell","station_name_local":"Brickell","network":"MDT","network_local":"MDT","operator":null,"city":"Miami","country":"United States","lines":["Green","Orange"],"wikidata":null},"geometry":{"type":"Point","coordinates":[-80.1954604,25.7637907]}},{"type":"Feature","properties":{"station_id":"n462599402","station_name":"Historic Overtown/Lyric Theatre","station_name_local":"Historic Overtown/Lyric Theatre","network":"MDT","network_local":"MDT","operator":null,"city":"Miami","country":"United States","lines":["Green","Orange"],"wikidata":"Q14685898"},"geometry":{"type":"Point","coordinates":[-80.1962822,25.7809166]}},{"type":"Feature","properties":{"station_id":"n462625340","station_name":"Culmer","station_name_local":"Culmer","network":"MDT","network_local":"MDT","operator":null,"city":"Miami","country":"United States","lines":["Green","Orange"],"wikidata":"Q5193079"},"geometry":{"type":"Point","coordinates":[-80.2075405,25.7845569]}},{"type":"Feature","properties":{"station_id":"n462636623","station_name":"UHealth | Jackson","station_name_local":"UHealth | Jackson","network":"MDT","network_local":"MDT","operator":null,"city":"Miami","country":"United States","lines":["Green","Orange"],"wikidata":"Q5124277"},"geometry":{"type":"Point","coordinates":[-80.2150352,25.7896904]}},{"type":"Feature","properties":{"station_id":"n462639220","station_name":"Santa Clara","station_name_local":"Santa Clara","network":"MDT","network_local":"MDT","operator":null,"city":"Miami","country":"United States","lines":["Green","Orange"],"wikidata":"Q7419305"},"geometry":{"type":"Point","coordinates":[-80.2152009,25.7957871]}},{"type":"Feature","properties":{"station_id":"n462648893","station_name":"Allapattah","station_name_local":"Allapattah","network":"MDT","network_local":"MDT","operator":null,"city":"Miami","country":"United States","lines":["Green","Orange"],"wikidata":"Q4731124"},"geometry":{"type":"Point","coordinates":[-80.2154675,25.808706]}},{"type":"Feature","properties":{"station_id":"n462658627","station_name":"Earlington Heights","station_name_local":"Earlington Heights","network":"MDT","network_local":"MDT","operator":null,"city":"Miami","country":"United States","lines":["Green","Orange"],"wikidata":"Q5326523"},"geometry":{"type":"Point","coordinates":[-80.2299699,25.8124614]}},{"type":"Feature","properties":{"station_id":"n462671720","station_name":"Brownsville","station_name_local":"Brownsville","network":"MDT","network_local":"MDT","operator":null,"city":"Miami","country":"United States","lines":["Green"],"wikidata":"Q4976769"},"geometry":{"type":"Point","coordinates":[-80.2407144,25.8220299]}},{"type":"Feature","properties":{"station_id":"n462678359","station_name":"Dr. Martin Luther King, Jr.","station_name_local":"Dr. Martin Luther King, Jr.","network":"MDT","network_local":"MDT","operator":null,"city":"Miami","country":"United States","lines":["Green"],"wikidata":"Q5304277"},"geometry":{"type":"Point","coordinates":[-80.2411958,25.8323868]}},{"type":"Feature","properties":{"station_id":"n462685985","station_name":"Northside","station_name_local":"Northside","network":"MDT","network_local":"MDT","operator":null,"city":"Miami","country":"United States","lines":["Green"],"wikidata":"Q7059725"},"geometry":{"type":"Point","coordinates":[-80.2488239,25.8458214]}},{"type":"Feature","properties":{"station_id":"n462688749","station_name":"Tri-Rail","station_name_local":"Tri-Rail","network":"MDT","network_local":"MDT","operator":null,"city":"Miami","country":"United States","lines":["Green"],"wikidata":"Q4411105"},"geometry":{"type":"Point","coordinates":[-80.2596553,25.8454673]}},{"type":"Feature","properties":{"station_id":"n462691978","station_name":"Hialeah","station_name_local":"Hialeah","network":"MDT","network_local":"MDT","operator":null,"city":"Miami","country":"United States","lines":["Green"],"wikidata":"Q5750480"},"geometry":{"type":"Point","coordinates":[-80.2790512,25.8411684]}},{"type":"Feature","properties":{"station_id":"n462693507","station_name":"Okeechobee","station_name_local":"Okeechobee","network":"MDT","network_local":"MDT","operator":null,"city":"Miami","country":"United States","lines":["Green"],"wikidata":"Q7081896"},"geometry":{"type":"Point","coordinates":[-80.3015392,25.8398296]}},{"type":"Feature","properties":{"station_id":"n462721823","station_name":"Palmetto","station_name_local":"Palmetto","network":"MDT","network_local":"MDT","operator":null,"city":"Miami","country":"United States","lines":["Green"],"wikidata":"Q7128351"},"geometry":{"type":"Point","coordinates":[-80.3236991,25.8433852]}},{"type":"Feature","properties":{"station_id":"n6416386201","station_name":"Miami International Airport","station_name_local":"Miami International Airport","network":"MDT","network_local":"MDT","operator":"Miami-Dade Transit","city":"Miami","country":"United States","lines":["Orange"],"wikidata":"Q3095577"},"geometry":{"type":"Point","coordinates":[-80.2586662,25.7979241]}},{"type":"Feature","properties":{"station_id":"n6612182883","station_name":"Government Center","station_name_local":"Government Center","network":"MDT","network_local":"MDT","operator":null,"city":"Miami","country":"United States","lines":["Green","Orange"],"wikidata":"Q5588707"},"geometry":{"type":"Point","coordinates":[-80.1961058,25.7760632]}}]}