{"type":"FeatureCollection","metro_system":{"continent":"north-america","country":"United States","city":"Taylorsville","osm_networks":["TRAX","UTA"],"operator":"Utah Transit Authority","official_website":null,"official_map":null,"wikidata":"Q4929373","line_count":3,"station_count":52,"audit":{"strategies_tried":[],"passed":true,"checks":[{"id":"has_lines","ok":true,"detail":"3 lines","level":"error"},{"id":"has_stations","ok":true,"detail":"52 stations","level":"error"},{"id":"stations_have_lines","ok":true,"detail":"52/52 站皆有所屬路線","level":"error"},{"id":"stations_named","ok":true,"detail":"52/52 站有名稱","level":"warn"},{"id":"station_order","ok":true,"detail":"所有線路站序合理","level":"warn"}],"reasons":[],"warnings":[],"audited_at":"2026-07-10T07:57:11.056Z"}},"features":[{"type":"Feature","properties":{"route_id":"rm6073253","route_name":"TRAX Blue Line","route_name_local":"TRAX Blue Line","route_ref":"701","route_color":"#004a97","network":"TRAX","network_local":"TRAX","operator":"Utah Transit Authority","city":"Taylorsville","country":"United States","wikidata":"Q4929373","wikipedia":null,"osm_route_ids":[907522,6073250]},"geometry":{"type":"MultiLineString","coordinates":[[[-111.9082492,40.7617194],[-111.9058277,40.7649788],[-111.902508,40.7668504],[-111.9001046,40.7692937],[-111.8943451,40.769312],[-111.8911629,40.7674533],[-111.8911583,40.7631014],[-111.8911489,40.7587786],[-111.8911272,40.7552073],[-111.8968529,40.7500731],[-111.8968574,40.7419012],[-111.8969311,40.7240986],[-111.8970018,40.700377],[-111.8965919,40.6873187],[-111.8941232,40.6764587],[-111.8957088,40.659641],[-111.8983897,40.6331275],[-111.8983508,40.6187666],[-111.8926892,40.6099782],[-111.8857947,40.5891227],[-111.8864051,40.5810172],[-111.8845448,40.5703055],[-111.8785244,40.5445917],[-111.8719128,40.535864],[-111.8587944,40.5254628]],[[-111.8587768,40.5255342],[-111.872392,40.5365313],[-111.8787093,40.5453374],[-111.8846491,40.5711059],[-111.8862914,40.5816961],[-111.8856497,40.5898166],[-111.893184,40.6105511],[-111.8983756,40.6194707],[-111.8982922,40.6338241],[-111.8952514,40.6602577],[-111.894022,40.6771612],[-111.8966964,40.6880236],[-111.8969063,40.7010724],[-111.8968387,40.7247943],[-111.8967604,40.7425824],[-111.8967557,40.7508153],[-111.8910339,40.7560734],[-111.8910574,40.7595196],[-111.8910606,40.7638563],[-111.8910659,40.7682085],[-111.8953121,40.7693856],[-111.9011191,40.7694027],[-111.9026016,40.7661022],[-111.9068414,40.7650474],[-111.9083485,40.7617243]]]}},{"type":"Feature","properties":{"route_id":"rm4789075","route_name":"TRAX Red Line","route_name_local":"TRAX Red Line","route_ref":"703","route_color":"#be2036","network":"TRAX","network_local":"TRAX","operator":"Utah Transit Authority","city":"Taylorsville","country":"United States","wikidata":"Q7304509","wikipedia":null,"osm_route_ids":[1516765,1963852]},"geometry":{"type":"MultiLineString","coordinates":[[[-111.8392278,40.7698524],[-111.836488,40.764057],[-111.8400334,40.7601137],[-111.8522283,40.7592913],[-111.8667331,40.7607007],[-111.873539,40.7607045],[-111.884977,40.7606774],[-111.8911489,40.7587786],[-111.8911272,40.7552073],[-111.8968529,40.7500731],[-111.8968574,40.7419012],[-111.8969311,40.7240986],[-111.8970018,40.700377],[-111.8965919,40.6873187],[-111.8941232,40.6764587],[-111.8957088,40.659641],[-111.8984819,40.6329796],[-111.9159633,40.6170745],[-111.9249009,40.6078334],[-111.9370451,40.6047719],[-111.957412,40.5989539],[-111.9723461,40.5946846],[-112.0047354,40.5812538],[-112.0249309,40.5686883],[-112.0247409,40.5582499],[-112.0194821,40.5495643],[-112.0137751,40.5437142]],[[-112.0144686,40.5444239],[-112.0203418,40.5505167],[-112.0246882,40.5591794],[-112.0248343,40.5695821],[-112.0036017,40.5817292],[-111.9711687,40.5949431],[-111.9562407,40.5992104],[-111.9358765,40.6050263],[-111.9237923,40.6082479],[-111.9147365,40.6171015],[-111.8982922,40.6338241],[-111.8952514,40.6602577],[-111.894022,40.6771612],[-111.8966964,40.6880236],[-111.8969063,40.7010724],[-111.8968387,40.7247943],[-111.8967604,40.7425824],[-111.8967557,40.7508153],[-111.8910339,40.7560734],[-111.8910574,40.7595196],[-111.883978,40.7606113],[-111.872545,40.7606402],[-111.865767,40.7606309],[-111.852178,40.7601209],[-111.8391768,40.7604803],[-111.8367656,40.7647582],[-111.8391871,40.7698761]]]}},{"type":"Feature","properties":{"route_id":"rm6073252","route_name":"TRAX Green Line","route_name_local":"TRAX Green Line","route_ref":"704","route_color":"#2eb566","network":"TRAX","network_local":"TRAX","operator":"Utah Transit Authority","city":"Taylorsville","country":"United States","wikidata":"Q5602824","wikipedia":null,"osm_route_ids":[2882403,6073251]},"geometry":{"type":"MultiLineString","coordinates":[[[-111.9820519,40.7843119],[-111.9455769,40.7715059],[-111.9333711,40.7714908],[-111.9236556,40.7714625],[-111.9142948,40.7715023],[-111.904392,40.7715764],[-111.9001046,40.7692937],[-111.8943451,40.769312],[-111.8911629,40.7674533],[-111.8911583,40.7631014],[-111.8911489,40.7587786],[-111.8911272,40.7552073],[-111.8968529,40.7500731],[-111.8968574,40.7419012],[-111.8969311,40.7240986],[-111.9238876,40.7198001],[-111.9403623,40.711153],[-111.9487344,40.7042016],[-111.95998,40.6943866]],[[-111.9599788,40.6943489],[-111.9486397,40.7050936],[-111.939297,40.711081],[-111.9237878,40.7206345],[-111.8968387,40.7247943],[-111.8967604,40.7425824],[-111.8967557,40.7508153],[-111.8910339,40.7560734],[-111.8910574,40.7595196],[-111.8910606,40.7638563],[-111.8910659,40.7682085],[-111.8953121,40.7693856],[-111.9011191,40.7694027],[-111.9052791,40.7716415],[-111.9154164,40.7715706],[-111.9248468,40.7715317],[-111.9345454,40.7715545],[-111.9467009,40.7715724],[-111.9833422,40.7843138]]]}},{"type":"Feature","properties":{"station_id":"n365478084","station_name":"Courthouse","station_name_local":"Courthouse","network":"TRAX","network_local":"TRAX","operator":null,"city":"Taylorsville","country":"United States","lines":["701","703","704"],"wikidata":"Q5178503"},"geometry":{"type":"Point","coordinates":[-111.891103,40.7591491]}},{"type":"Feature","properties":{"station_id":"n365739926","station_name":"900 South","station_name_local":"900 South","network":"TRAX","network_local":"TRAX","operator":"Utah Transit Authority","city":"Taylorsville","country":"United States","lines":["701","703","704"],"wikidata":"Q4645582"},"geometry":{"type":"Point","coordinates":[-111.896824,40.7504444]}},{"type":"Feature","properties":{"station_id":"n365760053","station_name":"University Medical Center","station_name_local":"University Medical Center","network":"TRAX","network_local":"TRAX","operator":null,"city":"Taylorsville","country":"United States","lines":["703"],"wikidata":"Q7894825"},"geometry":{"type":"Point","coordinates":[-111.8388623,40.769541]}},{"type":"Feature","properties":{"station_id":"n1226595377","station_name":"Gallivan Plaza","station_name_local":"Gallivan Plaza","network":"TRAX","network_local":"TRAX","operator":null,"city":"Taylorsville","country":"United States","lines":["701","704"],"wikidata":"Q5519114"},"geometry":{"type":"Point","coordinates":[-111.891109,40.7634789]}},{"type":"Feature","properties":{"station_id":"n2009611004","station_name":"Arena","station_name_local":"Arena","network":"TRAX","network_local":"TRAX","operator":"Utah Transit Authority","city":"Taylorsville","country":"United States","lines":["701","704"],"wikidata":"Q4788868"},"geometry":{"type":"Point","coordinates":[-111.900611,40.7693482]}},{"type":"Feature","properties":{"station_id":"n2009611005","station_name":"City Center","station_name_local":"City Center","network":"TRAX","network_local":"TRAX","operator":null,"city":"Taylorsville","country":"United States","lines":["701","704"],"wikidata":"Q5123060"},"geometry":{"type":"Point","coordinates":[-111.891114,40.7678309]}},{"type":"Feature","properties":{"station_id":"n2009611007","station_name":"Library","station_name_local":"Library","network":"TRAX","network_local":"TRAX","operator":"Utah Transit Authority","city":"Taylorsville","country":"United States","lines":["703"],"wikidata":"Q6542481"},"geometry":{"type":"Point","coordinates":[-111.8844777,40.7606443]}},{"type":"Feature","properties":{"station_id":"n2009611008","station_name":"Old GreekTown","station_name_local":"Old GreekTown","network":"TRAX","network_local":"TRAX","operator":"Utah Transit Authority","city":"Taylorsville","country":"United States","lines":["701"],"wikidata":"Q7084138"},"geometry":{"type":"Point","coordinates":[-111.9063115,40.7650151]}},{"type":"Feature","properties":{"station_id":"n2009611009","station_name":"Planetarium","station_name_local":"Planetarium","network":"TRAX","network_local":"TRAX","operator":"Utah Transit Authority","city":"Taylorsville","country":"United States","lines":["701"],"wikidata":"Q7201218"},"geometry":{"type":"Point","coordinates":[-111.9025548,40.7664763]}},{"type":"Feature","properties":{"station_id":"n2009611011","station_name":"Temple Square","station_name_local":"Temple Square","network":"TRAX","network_local":"TRAX","operator":null,"city":"Taylorsville","country":"United States","lines":["701","704"],"wikidata":"Q14711882"},"geometry":{"type":"Point","coordinates":[-111.894828,40.7693488]}},{"type":"Feature","properties":{"station_id":"n2009611012","station_name":"Trolley","station_name_local":"Trolley","network":"TRAX","network_local":"TRAX","operator":"UTA","city":"Taylorsville","country":"United States","lines":["703"],"wikidata":"Q7845183"},"geometry":{"type":"Point","coordinates":[-111.8730332,40.7606932]}},{"type":"Feature","properties":{"station_id":"n2009611014","station_name":"900 East","station_name_local":"900 East","network":"TRAX","network_local":"TRAX","operator":"UTA","city":"Taylorsville","country":"United States","lines":["703"],"wikidata":"Q4645580"},"geometry":{"type":"Point","coordinates":[-111.866247,40.760674]}},{"type":"Feature","properties":{"station_id":"n2009615246","station_name":"Decker Lake","station_name_local":"Decker Lake","network":"TRAX","network_local":"TRAX","operator":null,"city":"Taylorsville","country":"United States","lines":["704"],"wikidata":"Q5249295"},"geometry":{"type":"Point","coordinates":[-111.9486871,40.7046476]}},{"type":"Feature","properties":{"station_id":"n2009615253","station_name":"Redwood Junction","station_name_local":"Redwood Junction","network":"TRAX","network_local":"TRAX","operator":null,"city":"Taylorsville","country":"United States","lines":["704"],"wikidata":"Q7306510"},"geometry":{"type":"Point","coordinates":[-111.9398297,40.711117]}},{"type":"Feature","properties":{"station_id":"n2009615254","station_name":"River Trail","station_name_local":"River Trail","network":"TRAX","network_local":"TRAX","operator":null,"city":"Taylorsville","country":"United States","lines":["704"],"wikidata":"Q7337900"},"geometry":{"type":"Point","coordinates":[-111.9238377,40.7202173]}},{"type":"Feature","properties":{"station_id":"n2009615255","station_name":"West Valley Central","station_name_local":"West Valley Central","network":"TRAX","network_local":"TRAX","operator":null,"city":"Taylorsville","country":"United States","lines":["704"],"wikidata":"Q7986753"},"geometry":{"type":"Point","coordinates":[-111.9593581,40.6943714]}},{"type":"Feature","properties":{"station_id":"n2009622613","station_name":"Historic Sandy","station_name_local":"Historic Sandy","network":"TRAX","network_local":"TRAX","operator":"Utah Transit Authority","city":"Taylorsville","country":"United States","lines":["701"],"wikidata":"Q5773653"},"geometry":{"type":"Point","coordinates":[-111.885722,40.5894696]}},{"type":"Feature","properties":{"station_id":"n2009622617","station_name":"Midvale Center","station_name_local":"Midvale Center","network":"TRAX","network_local":"TRAX","operator":"Utah Transit Authority","city":"Taylorsville","country":"United States","lines":["701"],"wikidata":"Q6843126"},"geometry":{"type":"Point","coordinates":[-111.892936,40.6102647]}},{"type":"Feature","properties":{"station_id":"n2009622619","station_name":"Millcreek","station_name_local":"Millcreek","network":"TRAX","network_local":"TRAX","operator":null,"city":"Taylorsville","country":"United States","lines":["701","703"],"wikidata":"Q6858665"},"geometry":{"type":"Point","coordinates":[-111.896954,40.7007247]}},{"type":"Feature","properties":{"station_id":"n2009622620","station_name":"Murray North","station_name_local":"Murray North","network":"TRAX","network_local":"TRAX","operator":null,"city":"Taylorsville","country":"United States","lines":["701","703"],"wikidata":"Q6939402"},"geometry":{"type":"Point","coordinates":[-111.894072,40.6768595]}},{"type":"Feature","properties":{"station_id":"n2009622622","station_name":"Sandy Expo","station_name_local":"Sandy Expo","network":"TRAX","network_local":"TRAX","operator":"Utah Transit Authority","city":"Taylorsville","country":"United States","lines":["701"],"wikidata":"Q7417244"},"geometry":{"type":"Point","coordinates":[-111.886348,40.5813566]}},{"type":"Feature","properties":{"station_id":"n2009690299","station_name":"Jordan Valley","station_name_local":"Jordan Valley","network":"TRAX","network_local":"TRAX","operator":null,"city":"Taylorsville","country":"United States","lines":["703"],"wikidata":"Q6277095"},"geometry":{"type":"Point","coordinates":[-111.9717574,40.5948139]}},{"type":"Feature","properties":{"station_id":"n2009690302","station_name":"South Jordan Parkway","station_name_local":"South Jordan Parkway","network":"TRAX","network_local":"TRAX","operator":null,"city":"Taylorsville","country":"United States","lines":["703"],"wikidata":"Q7567583"},"geometry":{"type":"Point","coordinates":[-112.0246989,40.5587142]}},{"type":"Feature","properties":{"station_id":"n2009690305","station_name":"West Jordan City Center","station_name_local":"West Jordan City Center","network":"TRAX","network_local":"TRAX","operator":null,"city":"Taylorsville","country":"United States","lines":["703"],"wikidata":"Q7985590"},"geometry":{"type":"Point","coordinates":[-111.9364608,40.6048991]}},{"type":"Feature","properties":{"station_id":"n2009690843","station_name":"4800 West Old Bingham Highway","station_name_local":"4800 West Old Bingham Highway","network":"TRAX","network_local":"TRAX","operator":null,"city":"Taylorsville","country":"United States","lines":["703"],"wikidata":"Q14711420"},"geometry":{"type":"Point","coordinates":[-112.0041689,40.581492]}},{"type":"Feature","properties":{"station_id":"n2009690846","station_name":"5600 West Old Bingham Highway","station_name_local":"5600 West Old Bingham Highway","network":"TRAX","network_local":"TRAX","operator":null,"city":"Taylorsville","country":"United States","lines":["703"],"wikidata":"Q14711421"},"geometry":{"type":"Point","coordinates":[-112.0248826,40.5691352]}},{"type":"Feature","properties":{"station_id":"n2009690849","station_name":"2700 West Sugar Factory Road","station_name_local":"2700 West Sugar Factory Road","network":"TRAX","network_local":"TRAX","operator":null,"city":"Taylorsville","country":"United States","lines":["703"],"wikidata":"Q14711419"},"geometry":{"type":"Point","coordinates":[-111.9568264,40.5990822]}},{"type":"Feature","properties":{"station_id":"n2424306683","station_name":"Kimballs Lane","station_name_local":"Kimballs Lane","network":"TRAX","network_local":"TRAX","operator":"Utah Transit Authority","city":"Taylorsville","country":"United States","lines":["701"],"wikidata":"Q14711743"},"geometry":{"type":"Point","coordinates":[-111.872147,40.5361918]}},{"type":"Feature","properties":{"station_id":"n5271105175","station_name":"Sandy Civic Center","station_name_local":"Sandy Civic Center","network":"TRAX","network_local":"TRAX","operator":"Utah Transit Authority (UTA)","city":"Taylorsville","country":"United States","lines":["701"],"wikidata":"Q7417199"},"geometry":{"type":"Point","coordinates":[-111.8846,40.5707387]}},{"type":"Feature","properties":{"station_id":"n6574982623","station_name":"Ballpark","station_name_local":"Ballpark","network":"UTA","network_local":"UTA","operator":"UTA","city":"Taylorsville","country":"United States","lines":["701","703","704"],"wikidata":"Q4851206"},"geometry":{"type":"Point","coordinates":[-111.896808,40.7422418]}},{"type":"Feature","properties":{"station_id":"n6624819688","station_name":"Crescent View","station_name_local":"Crescent View","network":"TRAX","network_local":"TRAX","operator":"Utah Transit Authority","city":"Taylorsville","country":"United States","lines":["701"],"wikidata":"Q15211984"},"geometry":{"type":"Point","coordinates":[-111.878606,40.5449436]}},{"type":"Feature","properties":{"station_id":"n6661798571","station_name":"Daybreak Parkway","station_name_local":"Daybreak Parkway","network":"TRAX","network_local":"TRAX","operator":"UTA","city":"Taylorsville","country":"United States","lines":["703"],"wikidata":"Q5243099"},"geometry":{"type":"Point","coordinates":[-112.0141006,40.5440852]}},{"type":"Feature","properties":{"station_id":"n6662239192","station_name":"1940 West North Temple","station_name_local":"1940 West North Temple","network":"TRAX","network_local":"TRAX","operator":null,"city":"Taylorsville","country":"United States","lines":["704"],"wikidata":"Q14711417"},"geometry":{"type":"Point","coordinates":[-111.946129,40.7715353]}},{"type":"Feature","properties":{"station_id":"n7123084646","station_name":"North Temple Bridge/Guadalupe","station_name_local":"North Temple Bridge/Guadalupe","network":"UTA","network_local":"UTA","operator":"Utah Transit Authority","city":"Taylorsville","country":"United States","lines":["704"],"wikidata":"Q7056953"},"geometry":{"type":"Point","coordinates":[-111.904822,40.7716056]}},{"type":"Feature","properties":{"station_id":"n7123084654","station_name":"Salt Lake Central","station_name_local":"Salt Lake Central","network":"TRAX","network_local":"TRAX","operator":"Utah Transit Authority","city":"Taylorsville","country":"United States","lines":["701"],"wikidata":null},"geometry":{"type":"Point","coordinates":[-111.9083037,40.7621224]}},{"type":"Feature","properties":{"station_id":"n8468307883","station_name":"600 South","station_name_local":"600 South","network":"TRAX","network_local":"TRAX","operator":"Utah Transit Authority","city":"Taylorsville","country":"United States","lines":["701","703","704"],"wikidata":"Q112081384"},"geometry":{"type":"Point","coordinates":[-111.89108,40.7555109]}},{"type":"Feature","properties":{"station_id":"n8473579174","station_name":"Power","station_name_local":"Power","network":"TRAX","network_local":"TRAX","operator":"Utah Transit Authority","city":"Taylorsville","country":"United States","lines":["704"],"wikidata":"Q7236257"},"geometry":{"type":"Point","coordinates":[-111.933964,40.7715241]}},{"type":"Feature","properties":{"station_id":"n8473579178","station_name":"Fairpark","station_name_local":"Fairpark","network":"TRAX","network_local":"TRAX","operator":"Utah Transit Authority","city":"Taylorsville","country":"United States","lines":["704"],"wikidata":"Q5430680"},"geometry":{"type":"Point","coordinates":[-111.924251,40.7714971]}},{"type":"Feature","properties":{"station_id":"n8473579188","station_name":"Jackson/Euclid","station_name_local":"Jackson/Euclid","network":"TRAX","network_local":"TRAX","operator":"Utah Transit Authority","city":"Taylorsville","country":"United States","lines":["704"],"wikidata":"Q6116927"},"geometry":{"type":"Point","coordinates":[-111.914855,40.7715364]}},{"type":"Feature","properties":{"station_id":"n9241313353","station_name":"Airport","station_name_local":"Airport","network":"TRAX","network_local":"TRAX","operator":"Utah Transit Authority","city":"Taylorsville","country":"United States","lines":["704"],"wikidata":"Q109945066"},"geometry":{"type":"Point","coordinates":[-111.982745,40.7843099]}},{"type":"Feature","properties":{"station_id":"n12358867047","station_name":"Central Pointe","station_name_local":"Central Pointe","network":"TRAX","network_local":"TRAX","operator":"Utah Transit Authority","city":"Taylorsville","country":"United States","lines":["701","703","704"],"wikidata":"Q5061678"},"geometry":{"type":"Point","coordinates":[-111.8968693,40.7244959]}},{"type":"Feature","properties":{"station_id":"n12358867048","station_name":"Stadium","station_name_local":"Stadium","network":"TRAX","network_local":"TRAX","operator":"Utah Transit Authority","city":"Taylorsville","country":"United States","lines":["703"],"wikidata":"Q7596466"},"geometry":{"type":"Point","coordinates":[-111.8522085,40.7597123]}},{"type":"Feature","properties":{"station_id":"n12358867049","station_name":"University South Campus","station_name_local":"University South Campus","network":"TRAX","network_local":"TRAX","operator":"Utah Transit Authority","city":"Taylorsville","country":"United States","lines":["703"],"wikidata":"Q7894933"},"geometry":{"type":"Point","coordinates":[-111.8395834,40.7603035]}},{"type":"Feature","properties":{"station_id":"n12358867050","station_name":"Fort Douglas","station_name_local":"Fort Douglas","network":"TRAX","network_local":"TRAX","operator":"Utah Transit Authority","city":"Taylorsville","country":"United States","lines":["703"],"wikidata":"Q5471087"},"geometry":{"type":"Point","coordinates":[-111.8366209,40.7644215]}},{"type":"Feature","properties":{"station_id":"n12699251352","station_name":"South Jordan Downtown","station_name_local":"South Jordan Downtown","network":"TRAX","network_local":"TRAX","operator":null,"city":"Taylorsville","country":"United States","lines":["703"],"wikidata":null},"geometry":{"type":"Point","coordinates":[-112.0198859,40.5500183]}},{"type":"Feature","properties":{"station_id":"n688449156","station_name":"Fashion Place West","station_name_local":"Fashion Place West","network":"TRAX","network_local":"TRAX","operator":"Utah Transit Authority","city":"Taylorsville","country":"United States","lines":["701"],"wikidata":"Q5436749"},"geometry":{"type":"Point","coordinates":[-111.8983788,40.633477]}},{"type":"Feature","properties":{"station_id":"n696229096","station_name":"Draper Town Center","station_name_local":"Draper Town Center","network":"TRAX","network_local":"TRAX","operator":"Utah Transit Authority","city":"Taylorsville","country":"United States","lines":["701"],"wikidata":"Q5305862"},"geometry":{"type":"Point","coordinates":[-111.85936,40.5255677]}},{"type":"Feature","properties":{"station_id":"n696301207","station_name":"Midvale Fort Union","station_name_local":"Midvale Fort Union","network":"TRAX","network_local":"TRAX","operator":"Utah Transit Authority","city":"Taylorsville","country":"United States","lines":["701"],"wikidata":"Q6843127"},"geometry":{"type":"Point","coordinates":[-111.8983573,40.6191036]}},{"type":"Feature","properties":{"station_id":"n696545094","station_name":"Meadowbrook","station_name_local":"Meadowbrook","network":"TRAX","network_local":"TRAX","operator":null,"city":"Taylorsville","country":"United States","lines":["701","703"],"wikidata":"Q6803331"},"geometry":{"type":"Point","coordinates":[-111.8966451,40.6876724]}},{"type":"Feature","properties":{"station_id":"n696810301","station_name":"Bingham Junction","station_name_local":"Bingham Junction","network":"TRAX","network_local":"TRAX","operator":"Utah Transit Authority","city":"Taylorsville","country":"United States","lines":["703"],"wikidata":"Q4914202"},"geometry":{"type":"Point","coordinates":[-111.9153253,40.617083]}},{"type":"Feature","properties":{"station_id":"n696810879","station_name":"Historic Gardner","station_name_local":"Historic Gardner","network":"TRAX","network_local":"TRAX","operator":null,"city":"Taylorsville","country":"United States","lines":["703"],"wikidata":"Q5773504"},"geometry":{"type":"Point","coordinates":[-111.9243406,40.6080486]}},{"type":"Feature","properties":{"station_id":"n697267102","station_name":"Murray Central","station_name_local":"Murray Central","network":"TRAX","network_local":"TRAX","operator":null,"city":"Taylorsville","country":"United States","lines":["701","703"],"wikidata":"Q6939156"},"geometry":{"type":"Point","coordinates":[-111.8954837,40.6599604]}}]}