{"type":"FeatureCollection","metro_system":{"continent":"europe","country":"Denmark","city":"Copenhagen","osm_networks":["Metro","Takst Sjælland"],"operator":"Inmetro","official_website":null,"official_map":"https://da.wikipedia.org/wiki/M1_(metro)","wikidata":"Q1880894","line_count":4,"station_count":46},"features":[{"type":"Feature","properties":{"route_id":"rm3931373","route_name":"Metro M1","route_name_local":"Metro M1","route_ref":"M1","route_color":"#007d58","network":"Takst Sjælland","network_local":"Takst Sjælland","operator":"Inmetro","city":"Copenhagen","country":"Denmark","wikidata":"Q1880894","wikipedia":"da:M1 (metro)","osm_route_ids":[152202,152332]},"geometry":{"type":"MultiLineString","coordinates":[[[12.4924739,55.6870978],[12.4994038,55.6858288],[12.5131634,55.6834124],[12.5235467,55.6815576],[12.5317534,55.6811562],[12.5525121,55.6817729],[12.5709642,55.6838629],[12.5851403,55.6792212],[12.5913169,55.6720724],[12.5851399,55.663418],[12.588927,55.6557634],[12.585629,55.6452602],[12.5828389,55.638066],[12.5792412,55.6290111],[12.575491,55.6193815]]]}},{"type":"Feature","properties":{"route_id":"rm152340","route_name":"Metro M2","route_name_local":"Metro M2","route_ref":"M2","route_color":"#fdc110","network":"Takst Sjælland","network_local":"Takst Sjælland","operator":"Inmetro","city":"Copenhagen","country":"Denmark","wikidata":"Q1880954","wikipedia":"da:M2","osm_route_ids":[152224,152339]},"geometry":{"type":"MultiLineString","coordinates":[[[12.4924739,55.6870978],[12.4994038,55.6858288],[12.5131634,55.6834124],[12.5235467,55.6815576],[12.5317534,55.6811562],[12.5525121,55.6817729],[12.5709642,55.6838629],[12.5851403,55.6792212],[12.5913169,55.6720724],[12.6028748,55.6633427],[12.6170786,55.6622019],[12.6286533,55.6614216],[12.6317921,55.6561241],[12.6382463,55.6451749],[12.6468748,55.6357106],[12.6491179,55.6309064]]]}},{"type":"Feature","properties":{"route_id":"rm10283923","route_name":"Cityringen","route_name_local":"Cityringen","route_ref":"M3","route_color":"#ff0a0a","network":"Takst Sjælland","network_local":"Takst Sjælland","operator":"Metro Service A/S","city":"Copenhagen","country":"Denmark","wikidata":"Q1094251","wikipedia":"da:Cityringen","osm_route_ids":[10157170,10283922]},"geometry":{"type":"MultiLineString","coordinates":[[[12.5330231,55.6860312],[12.542599,55.6884527],[12.5490189,55.6935309],[12.5380542,55.7000427],[12.5488284,55.7034653],[12.5648062,55.7063512],[12.5760927,55.7094334],[12.5754696,55.6992508],[12.5858543,55.6928374],[12.5890607,55.6851175],[12.5857923,55.6800781],[12.5789039,55.6776376],[12.5681381,55.676472],[12.5638242,55.6714463],[12.546784,55.6672727],[12.540686,55.6735288],[12.532518,55.6807422],[12.5330231,55.6860312]],[[12.5328685,55.6860698],[12.5323488,55.680741],[12.5405342,55.6734871],[12.5468059,55.6671785],[12.5639281,55.6713493],[12.5682655,55.6764091],[12.5789528,55.6775465],[12.5859217,55.6799706],[12.5890621,55.6851171],[12.5859929,55.6929185],[12.5756404,55.699252],[12.5761722,55.7095176],[12.5647465,55.70644],[12.5487094,55.7035331],[12.5378865,55.7000546],[12.54885,55.6935248],[12.5424574,55.688504],[12.5328685,55.6860698]]]}},{"type":"Feature","properties":{"route_id":"rm10925800","route_name":"Nordhavnsmetro","route_name_local":"Nordhavnsmetro","route_ref":"M4","route_color":"#36b6f1","network":"Takst Sjælland","network_local":"Takst Sjælland","operator":"Metro Service A/S","city":"Copenhagen","country":"Denmark","wikidata":"Q88965328","wikipedia":null,"osm_route_ids":[10925796,10925797]},"geometry":{"type":"MultiLineString","coordinates":[[[12.5950828,55.711861],[12.591489,55.7074548],[12.5858543,55.6928374],[12.5890607,55.6851175],[12.5857923,55.6800781],[12.5789039,55.6776376],[12.5681381,55.676472],[12.5638242,55.6714463],[12.5592515,55.6609593],[12.5564232,55.6541011],[12.5444129,55.6458913],[12.5343846,55.6489932],[12.5156078,55.6532651]],[[12.5154747,55.6531886],[12.5343119,55.6489278],[12.5444458,55.6458014],[12.5566056,55.6540455],[12.5594061,55.6610092],[12.5639281,55.6713493],[12.5682655,55.6764091],[12.5789528,55.6775465],[12.5859217,55.6799706],[12.5890621,55.6851171],[12.5859929,55.6929185],[12.5916422,55.7073994],[12.5952724,55.7118194]]]}},{"type":"Feature","properties":{"station_id":"n1271230723","station_name":"Lindevang","station_name_local":"Lindevang","network":"Metro","network_local":"Metro","operator":null,"city":"Copenhagen","country":"Denmark","lines":["M1","M2"],"wikidata":"Q801103"},"geometry":{"type":"Point","coordinates":[12.5131859,55.6834487]}},{"type":"Feature","properties":{"station_id":"n1724493427","station_name":"Frederiksberg Allé","station_name_local":"Frederiksberg Allé","network":"Metro","network_local":"Metro","operator":null,"city":"Copenhagen","country":"Denmark","lines":["M3"],"wikidata":null},"geometry":{"type":"Point","coordinates":[12.5405342,55.6734871]}},{"type":"Feature","properties":{"station_id":"n1724493428","station_name":"Frederiksberg Allé","station_name_local":"Frederiksberg Allé","network":"Metro","network_local":"Metro","operator":null,"city":"Copenhagen","country":"Denmark","lines":["M3"],"wikidata":null},"geometry":{"type":"Point","coordinates":[12.540686,55.6735288]}},{"type":"Feature","properties":{"station_id":"n1742785276","station_name":"The Airport","station_name_local":"Lufthavnen (Metro)","network":"Metro","network_local":"Metro","operator":null,"city":"Copenhagen","country":"Denmark","lines":["M2"],"wikidata":"Q10591971"},"geometry":{"type":"Point","coordinates":[12.6492236,55.6309113]}},{"type":"Feature","properties":{"station_id":"n2042342677","station_name":"Vestamager","station_name_local":"Vestamager","network":"Metro","network_local":"Metro","operator":null,"city":"Copenhagen","country":"Denmark","lines":["M1"],"wikidata":"Q801562"},"geometry":{"type":"Point","coordinates":[12.5755841,55.619371]}},{"type":"Feature","properties":{"station_id":"n2089115303","station_name":"Ørestad","station_name_local":"Ørestad","network":"Metro","network_local":"Metro","operator":null,"city":"Copenhagen","country":"Denmark","lines":["M1"],"wikidata":"Q124393834"},"geometry":{"type":"Point","coordinates":[12.579355,55.6290128]}},{"type":"Feature","properties":{"station_id":"n2705309629","station_name":"Femøren","station_name_local":"Femøren","network":"Metro","network_local":"Metro","operator":null,"city":"Copenhagen","country":"Denmark","lines":["M2"],"wikidata":"Q800748"},"geometry":{"type":"Point","coordinates":[12.638338,55.6451882]}},{"type":"Feature","properties":{"station_id":"n2705309632","station_name":"Amager Strand","station_name_local":"Amager Strand","network":"Metro","network_local":"Metro","operator":null,"city":"Copenhagen","country":"Denmark","lines":["M2"],"wikidata":"Q800380"},"geometry":{"type":"Point","coordinates":[12.6318585,55.6561353]}},{"type":"Feature","properties":{"station_id":"n2705309633","station_name":"Kastrup","station_name_local":"Kastrup","network":"Metro","network_local":"Metro","operator":null,"city":"Copenhagen","country":"Denmark","lines":["M2"],"wikidata":"Q114128"},"geometry":{"type":"Point","coordinates":[12.6469508,55.6357222]}},{"type":"Feature","properties":{"station_id":"n2705324067","station_name":"Bella Center","station_name_local":"Bella Center","network":"Metro","network_local":"Metro","operator":null,"city":"Copenhagen","country":"Denmark","lines":["M1"],"wikidata":"Q800463"},"geometry":{"type":"Point","coordinates":[12.582926,55.6380729]}},{"type":"Feature","properties":{"station_id":"n2705324072","station_name":"Øresund","station_name_local":"Øresund","network":"Metro","network_local":"Metro","operator":null,"city":"Copenhagen","country":"Denmark","lines":["M2"],"wikidata":"Q801686"},"geometry":{"type":"Point","coordinates":[12.6287182,55.6614401]}},{"type":"Feature","properties":{"station_id":"n2705324074","station_name":"DR Byen","station_name_local":"DR Byen","network":"Metro","network_local":"Metro","operator":null,"city":"Copenhagen","country":"Denmark","lines":["M1"],"wikidata":"Q800650"},"geometry":{"type":"Point","coordinates":[12.5890175,55.6557682]}},{"type":"Feature","properties":{"station_id":"n2705324076","station_name":"Sundby","station_name_local":"Sundby","network":"Metro","network_local":"Metro","operator":null,"city":"Copenhagen","country":"Denmark","lines":["M1"],"wikidata":"Q801498"},"geometry":{"type":"Point","coordinates":[12.5857172,55.6452516]}},{"type":"Feature","properties":{"station_id":"n2705324077","station_name":"Islands Brygge","station_name_local":"Islands Brygge","network":"Metro","network_local":"Metro","operator":null,"city":"Copenhagen","country":"Denmark","lines":["M1"],"wikidata":"Q800961"},"geometry":{"type":"Point","coordinates":[12.5852113,55.6634112]}},{"type":"Feature","properties":{"station_id":"n5066122139","station_name":"Vanløse","station_name_local":"Vanløse","network":"Metro","network_local":"Metro","operator":null,"city":"Copenhagen","country":"Denmark","lines":["M1","M2"],"wikidata":null},"geometry":{"type":"Point","coordinates":[12.4925009,55.6871452]}},{"type":"Feature","properties":{"station_id":"n5072901609","station_name":"Flintholm","station_name_local":"Flintholm","network":"Metro","network_local":"Metro","operator":null,"city":"Copenhagen","country":"Denmark","lines":["M1","M2"],"wikidata":"Q800765"},"geometry":{"type":"Point","coordinates":[12.4994896,55.6858744]}},{"type":"Feature","properties":{"station_id":"n5715956175","station_name":"Lergravsparken","station_name_local":"Lergravsparken","network":"Metro","network_local":"Metro","operator":null,"city":"Copenhagen","country":"Denmark","lines":["M2"],"wikidata":"Q801094"},"geometry":{"type":"Point","coordinates":[12.6170475,55.662236]}},{"type":"Feature","properties":{"station_id":"n5715956176","station_name":"Amagerbro","station_name_local":"Amagerbro","network":"Metro","network_local":"Metro","operator":null,"city":"Copenhagen","country":"Denmark","lines":["M2"],"wikidata":"Q800382"},"geometry":{"type":"Point","coordinates":[12.6028945,55.6633965]}},{"type":"Feature","properties":{"station_id":"n5715956177","station_name":"Christianshavn","station_name_local":"Christianshavn","network":"Metro","network_local":"Metro","operator":null,"city":"Copenhagen","country":"Denmark","lines":["M1","M2"],"wikidata":"Q587485"},"geometry":{"type":"Point","coordinates":[12.5913771,55.6720958]}},{"type":"Feature","properties":{"station_id":"n5715956178","station_name":"Kongens Nytorv","station_name_local":"Kongens Nytorv","network":"Metro","network_local":"Metro","operator":null,"city":"Copenhagen","country":"Denmark","lines":["M1","M2"],"wikidata":"Q801029"},"geometry":{"type":"Point","coordinates":[12.5850827,55.6796344]}},{"type":"Feature","properties":{"station_id":"n5715956180","station_name":"Forum","station_name_local":"Forum","network":"Metro","network_local":"Metro","operator":null,"city":"Copenhagen","country":"Denmark","lines":["M1","M2"],"wikidata":"Q800764"},"geometry":{"type":"Point","coordinates":[12.5525408,55.6818073]}},{"type":"Feature","properties":{"station_id":"n5715956181","station_name":"Frederiksberg","station_name_local":"Frederiksberg","network":"Metro","network_local":"Metro","operator":null,"city":"Copenhagen","country":"Denmark","lines":["M3"],"wikidata":"Q800788"},"geometry":{"type":"Point","coordinates":[12.5322237,55.6811699]}},{"type":"Feature","properties":{"station_id":"n5715956182","station_name":"Fasanvej","station_name_local":"Fasanvej","network":"Metro","network_local":"Metro","operator":null,"city":"Copenhagen","country":"Denmark","lines":["M1","M2"],"wikidata":"Q800749"},"geometry":{"type":"Point","coordinates":[12.5235687,55.6815945]}},{"type":"Feature","properties":{"station_id":"n5974664508","station_name":"Mozarts Plads","station_name_local":"Mozarts Plads","network":"Metro","network_local":"Metro","operator":null,"city":"Copenhagen","country":"Denmark","lines":["M4"],"wikidata":"Q61060497"},"geometry":{"type":"Point","coordinates":[12.5343368,55.6489712]}},{"type":"Feature","properties":{"station_id":"n5974664509","station_name":"Sluseholmen","station_name_local":"Sluseholmen","network":"Metro","network_local":"Metro","operator":null,"city":"Copenhagen","country":"Denmark","lines":["M4"],"wikidata":"Q61060509"},"geometry":{"type":"Point","coordinates":[12.544414,55.6458281]}},{"type":"Feature","properties":{"station_id":"n5974664510","station_name":"Enghave Brygge","station_name_local":"Enghave Brygge","network":"Metro","network_local":"Metro","operator":null,"city":"Copenhagen","country":"Denmark","lines":["M4"],"wikidata":"Q61060512"},"geometry":{"type":"Point","coordinates":[12.5565102,55.6540722]}},{"type":"Feature","properties":{"station_id":"n5974664511","station_name":"Havneholmen","station_name_local":"Havneholmen","network":"Metro","network_local":"Metro","operator":null,"city":"Copenhagen","country":"Denmark","lines":["M4"],"wikidata":"Q61060539"},"geometry":{"type":"Point","coordinates":[12.5593142,55.6609865]}},{"type":"Feature","properties":{"station_id":"n5974664512","station_name":"Copenhagen South","station_name_local":"København Syd","network":"Metro","network_local":"Metro","operator":null,"city":"Copenhagen","country":"Denmark","lines":["M4"],"wikidata":"Q111829930"},"geometry":{"type":"Point","coordinates":[12.5159673,55.6529886]}},{"type":"Feature","properties":{"station_id":"n6041192146","station_name":"Orientkaj","station_name_local":"Orientkaj","network":"Metro","network_local":"Metro","operator":null,"city":"Copenhagen","country":"Denmark","lines":["M4"],"wikidata":"Q17165662"},"geometry":{"type":"Point","coordinates":[12.5951777,55.7118379]}},{"type":"Feature","properties":{"station_id":"n6836386876","station_name":"Copenhagen Central Station","station_name_local":"Københavns Hovedbanegård","network":"Metro","network_local":"Metro","operator":null,"city":"Copenhagen","country":"Denmark","lines":["M3","M4"],"wikidata":"Q108331422"},"geometry":{"type":"Point","coordinates":[12.5638753,55.6714003]}},{"type":"Feature","properties":{"station_id":"n6836386877","station_name":"Rådhuspladsen","station_name_local":"Rådhuspladsen","network":"Metro","network_local":"Metro","operator":null,"city":"Copenhagen","country":"Denmark","lines":["M3","M4"],"wikidata":"Q11998805"},"geometry":{"type":"Point","coordinates":[12.5682006,55.6764406]}},{"type":"Feature","properties":{"station_id":"n6836386878","station_name":"Nørreport","station_name_local":"Nørreport","network":"Metro","network_local":"Metro","operator":null,"city":"Copenhagen","country":"Denmark","lines":["M1","M2"],"wikidata":"Q108331687"},"geometry":{"type":"Point","coordinates":[12.5712413,55.6838]}},{"type":"Feature","properties":{"station_id":"n6836386879","station_name":"Gammel Strand","station_name_local":"Gammel Strand","network":"Metro","network_local":"Metro","operator":null,"city":"Copenhagen","country":"Denmark","lines":["M3","M4"],"wikidata":"Q11971512"},"geometry":{"type":"Point","coordinates":[12.5789275,55.6775945]}},{"type":"Feature","properties":{"station_id":"n6836434801","station_name":"Enghave Plads","station_name_local":"Enghave Plads","network":"Metro","network_local":"Metro","operator":null,"city":"Copenhagen","country":"Denmark","lines":["M3"],"wikidata":"Q11967561"},"geometry":{"type":"Point","coordinates":[12.5467948,55.667227]}},{"type":"Feature","properties":{"station_id":"n6836434802","station_name":"Frederiksberg Allé","station_name_local":"Frederiksberg Allé","network":"Metro","network_local":"Metro","operator":null,"city":"Copenhagen","country":"Denmark","lines":["M3"],"wikidata":"Q11970037"},"geometry":{"type":"Point","coordinates":[12.5406118,55.6735083]}},{"type":"Feature","properties":{"station_id":"n6836446142","station_name":"Nørrebros Runddel","station_name_local":"Nørrebros Runddel","network":"Metro","network_local":"Metro","operator":null,"city":"Copenhagen","country":"Denmark","lines":["M3"],"wikidata":"Q11992956"},"geometry":{"type":"Point","coordinates":[12.5489348,55.693528]}},{"type":"Feature","properties":{"station_id":"n6836446143","station_name":"Nørrebro","station_name_local":"Nørrebro","network":"Metro","network_local":"Metro","operator":null,"city":"Copenhagen","country":"Denmark","lines":["M3"],"wikidata":"Q108332199"},"geometry":{"type":"Point","coordinates":[12.5379713,55.7000485]}},{"type":"Feature","properties":{"station_id":"n6836446144","station_name":"Aksel Møllers Have","station_name_local":"Aksel Møllers Have","network":"Metro","network_local":"Metro","operator":null,"city":"Copenhagen","country":"Denmark","lines":["M3"],"wikidata":"Q11957158"},"geometry":{"type":"Point","coordinates":[12.5329471,55.6860507]}},{"type":"Feature","properties":{"station_id":"n6836446145","station_name":"Nuuks Plads","station_name_local":"Nuuks Plads","network":"Metro","network_local":"Metro","operator":"Metroselskabet I/S","city":"Copenhagen","country":"Denmark","lines":["M3"],"wikidata":"Q11992758"},"geometry":{"type":"Point","coordinates":[12.5425294,55.6884779]}},{"type":"Feature","properties":{"station_id":"n6836466111","station_name":"Skjolds Plads","station_name_local":"Skjolds Plads","network":"Metro","network_local":"Metro","operator":null,"city":"Copenhagen","country":"Denmark","lines":["M3"],"wikidata":"Q12001069"},"geometry":{"type":"Point","coordinates":[12.5487689,55.7034992]}},{"type":"Feature","properties":{"station_id":"n6836624243","station_name":"Vibenhus Runddel","station_name_local":"Vibenhus Runddel","network":"Metro","network_local":"Metro","operator":null,"city":"Copenhagen","country":"Denmark","lines":["M3"],"wikidata":"Q12340880"},"geometry":{"type":"Point","coordinates":[12.5647764,55.7063956]}},{"type":"Feature","properties":{"station_id":"n6836648163","station_name":"Østerport","station_name_local":"Østerport","network":"Metro","network_local":"Metro","operator":null,"city":"Copenhagen","country":"Denmark","lines":["M3","M4"],"wikidata":"Q109271044"},"geometry":{"type":"Point","coordinates":[12.5859236,55.692878]}},{"type":"Feature","properties":{"station_id":"n6836648164","station_name":"Marmorkirken","station_name_local":"Marmorkirken","network":"Metro","network_local":"Metro","operator":null,"city":"Copenhagen","country":"Denmark","lines":["M3","M4"],"wikidata":"Q11988456"},"geometry":{"type":"Point","coordinates":[12.5890307,55.6851258]}},{"type":"Feature","properties":{"station_id":"n6836652392","station_name":"Trianglen","station_name_local":"Trianglen","network":"Metro","network_local":"Metro","operator":null,"city":"Copenhagen","country":"Denmark","lines":["M3"],"wikidata":"Q12007414"},"geometry":{"type":"Point","coordinates":[12.575555,55.6992513]}},{"type":"Feature","properties":{"station_id":"n6836652393","station_name":"Poul Henningsens Plads","station_name_local":"Poul Henningsens Plads","network":"Metro","network_local":"Metro","operator":null,"city":"Copenhagen","country":"Denmark","lines":["M3"],"wikidata":"Q11996138"},"geometry":{"type":"Point","coordinates":[12.5761362,55.7094751]}},{"type":"Feature","properties":{"station_id":"n7339730678","station_name":"Nordhavn","station_name_local":"Nordhavn","network":"Metro","network_local":"Metro","operator":null,"city":"Copenhagen","country":"Denmark","lines":["M4"],"wikidata":"Q109271602"},"geometry":{"type":"Point","coordinates":[12.5915656,55.7074271]}}]}