{"type":"FeatureCollection","metro_system":{"continent":"europe","country":"Denmark","city":"Copenhagen","osm_networks":["DSB","DSB S-tog","Lokalbanen","Metro","S-tog","Takst Sjælland","Unknown"],"operator":"Inmetro","official_website":"https://www.lokaltog.dk","official_map":"https://da.wikipedia.org/wiki/M1_(metro)","wikidata":"Q1880894","line_count":4,"station_count":44,"audit":null},"features":[{"type":"Feature","properties":{"route_id":"rm3931373","route_name":"Metro M1","route_name_local":"Metro M1","route_ref":"M1","route_color":"#007d58","network":"Takst Sjælland","network_local":"Takst Sjælland","operator":"Inmetro","city":"Copenhagen","country":"Denmark","wikidata":"Q1880894","wikipedia":"da:M1 (metro)","osm_route_ids":[152202,152332]},"geometry":{"type":"MultiLineString","coordinates":[[[12.4920024,55.687158800000006],[12.499178,55.6857089],[12.5131859,55.6834487],[12.5235687,55.6815945],[12.5322237,55.6811699],[12.5525408,55.6818073],[12.5715053,55.683616349999994],[12.5850827,55.6796344],[12.5913771,55.6720958],[12.5852113,55.6634112],[12.5890175,55.6557682],[12.5857172,55.6452516],[12.582926,55.6380729],[12.579355,55.6290128],[12.5755841,55.619371]]]}},{"type":"Feature","properties":{"route_id":"rm152340","route_name":"Metro M2","route_name_local":"Metro M2","route_ref":"M2","route_color":"#fdc110","network":"Takst Sjælland","network_local":"Takst Sjælland","operator":"Inmetro","city":"Copenhagen","country":"Denmark","wikidata":"Q1880954","wikipedia":"da:M2","osm_route_ids":[152224,152339]},"geometry":{"type":"MultiLineString","coordinates":[[[12.4920024,55.687158800000006],[12.499178,55.6857089],[12.5131859,55.6834487],[12.5235687,55.6815945],[12.5322237,55.6811699],[12.5525408,55.6818073],[12.5715053,55.683616349999994],[12.5850827,55.6796344],[12.5913771,55.6720958],[12.6028945,55.6633965],[12.6170475,55.662236],[12.6287182,55.6614401],[12.6318585,55.6561353],[12.638338,55.6451882],[12.6469508,55.6357222],[12.6492236,55.6309113]]]}},{"type":"Feature","properties":{"route_id":"rm10283923","route_name":"Cityringen","route_name_local":"Cityringen","route_ref":"M3","route_color":"#ff0a0a","network":"Takst Sjælland","network_local":"Takst Sjælland","operator":"Metro Service A/S","city":"Copenhagen","country":"Denmark","wikidata":"Q1094251","wikipedia":"da:Cityringen","osm_route_ids":[10157170,10283922]},"geometry":{"type":"MultiLineString","coordinates":[[[12.5329471,55.6860507],[12.5425294,55.6884779],[12.5489348,55.693528],[12.53788745,55.7003649],[12.5487689,55.7034992],[12.5647764,55.7063956],[12.5761362,55.7094751],[12.575555,55.6992513],[12.58714235,55.693112],[12.5890307,55.6851258],[12.5850827,55.6796344],[12.5789275,55.6775945],[12.5682006,55.6764406],[12.56424115,55.671793050000005],[12.5467948,55.667227],[12.540610666666666,55.67350806666667],[12.5322237,55.6811699],[12.5329471,55.6860507]],[[12.5329471,55.6860507],[12.5322237,55.6811699],[12.540610666666666,55.67350806666667],[12.5467948,55.667227],[12.56424115,55.671793050000005],[12.5682006,55.6764406],[12.5789275,55.6775945],[12.5850827,55.6796344],[12.5890307,55.6851258],[12.58714235,55.693112],[12.575555,55.6992513],[12.5761362,55.7094751],[12.5647764,55.7063956],[12.5487689,55.7034992],[12.53788745,55.7003649],[12.5489348,55.693528],[12.5425294,55.6884779],[12.5329471,55.6860507]]]}},{"type":"Feature","properties":{"route_id":"rm10925800","route_name":"Nordhavnsmetro","route_name_local":"Nordhavnsmetro","route_ref":"M4","route_color":"#36b6f1","network":"Takst Sjælland","network_local":"Takst Sjælland","operator":"Metro Service A/S","city":"Copenhagen","country":"Denmark","wikidata":"Q88965328","wikipedia":null,"osm_route_ids":[10925796,10925797]},"geometry":{"type":"MultiLineString","coordinates":[[[12.5951777,55.7118379],[12.5912887,55.70619945],[12.58714235,55.693112],[12.5890307,55.6851258],[12.5850827,55.6796344],[12.5789275,55.6775945],[12.5682006,55.6764406],[12.56424115,55.671793050000005],[12.5593142,55.6609865],[12.5565102,55.6540722],[12.544414,55.6458281],[12.5343368,55.6489712],[12.51607915,55.65281]],[[12.51607915,55.65281],[12.5343368,55.6489712],[12.544414,55.6458281],[12.5565102,55.6540722],[12.5593142,55.6609865],[12.56424115,55.671793050000005],[12.5682006,55.6764406],[12.5789275,55.6775945],[12.5850827,55.6796344],[12.5890307,55.6851258],[12.58714235,55.693112],[12.5912887,55.70619945],[12.5951777,55.7118379]]]}},{"type":"Feature","properties":{"station_id":"n611305003","station_name":"Flintholm","station_name_local":"Flintholm","network":"Unknown","network_local":null,"operator":null,"city":"Copenhagen","country":"Denmark","lines":["M1","M2"],"wikidata":null,"merged_from":2},"geometry":{"type":"Point","coordinates":[12.499178,55.6857089]}},{"type":"Feature","properties":{"station_id":"n1271230723","station_name":"Lindevang","station_name_local":"Lindevang","network":"Metro","network_local":"Metro","operator":null,"city":"Copenhagen","country":"Denmark","lines":["M1","M2"],"wikidata":"Q801103"},"geometry":{"type":"Point","coordinates":[12.5131859,55.6834487]}},{"type":"Feature","properties":{"station_id":"n1724493427","station_name":"Frederiksberg Allé","station_name_local":"Frederiksberg Allé","network":"Metro","network_local":"Metro","operator":null,"city":"Copenhagen","country":"Denmark","lines":["M3"],"wikidata":null,"merged_from":3},"geometry":{"type":"Point","coordinates":[12.540610666666666,55.67350806666667]}},{"type":"Feature","properties":{"station_id":"n1742785276","station_name":"The Airport","station_name_local":"Lufthavnen (Metro)","network":"Metro","network_local":"Metro","operator":null,"city":"Copenhagen","country":"Denmark","lines":["M2"],"wikidata":"Q10591971"},"geometry":{"type":"Point","coordinates":[12.6492236,55.6309113]}},{"type":"Feature","properties":{"station_id":"n2042342677","station_name":"Vestamager","station_name_local":"Vestamager","network":"Metro","network_local":"Metro","operator":null,"city":"Copenhagen","country":"Denmark","lines":["M1"],"wikidata":"Q801562"},"geometry":{"type":"Point","coordinates":[12.5755841,55.619371]}},{"type":"Feature","properties":{"station_id":"n2089115303","station_name":"Ørestad","station_name_local":"Ørestad","network":"Metro","network_local":"Metro","operator":null,"city":"Copenhagen","country":"Denmark","lines":["M1"],"wikidata":"Q124393834"},"geometry":{"type":"Point","coordinates":[12.579355,55.6290128]}},{"type":"Feature","properties":{"station_id":"n2705309629","station_name":"Femøren","station_name_local":"Femøren","network":"Metro","network_local":"Metro","operator":null,"city":"Copenhagen","country":"Denmark","lines":["M2"],"wikidata":"Q800748"},"geometry":{"type":"Point","coordinates":[12.638338,55.6451882]}},{"type":"Feature","properties":{"station_id":"n2705309632","station_name":"Amager Strand","station_name_local":"Amager Strand","network":"Metro","network_local":"Metro","operator":null,"city":"Copenhagen","country":"Denmark","lines":["M2"],"wikidata":"Q800380"},"geometry":{"type":"Point","coordinates":[12.6318585,55.6561353]}},{"type":"Feature","properties":{"station_id":"n2705309633","station_name":"Kastrup","station_name_local":"Kastrup","network":"Metro","network_local":"Metro","operator":null,"city":"Copenhagen","country":"Denmark","lines":["M2"],"wikidata":"Q114128"},"geometry":{"type":"Point","coordinates":[12.6469508,55.6357222]}},{"type":"Feature","properties":{"station_id":"n2705324067","station_name":"Bella Center","station_name_local":"Bella Center","network":"Metro","network_local":"Metro","operator":null,"city":"Copenhagen","country":"Denmark","lines":["M1"],"wikidata":"Q800463"},"geometry":{"type":"Point","coordinates":[12.582926,55.6380729]}},{"type":"Feature","properties":{"station_id":"n2705324072","station_name":"Øresund","station_name_local":"Øresund","network":"Metro","network_local":"Metro","operator":null,"city":"Copenhagen","country":"Denmark","lines":["M2"],"wikidata":"Q801686"},"geometry":{"type":"Point","coordinates":[12.6287182,55.6614401]}},{"type":"Feature","properties":{"station_id":"n2705324074","station_name":"DR Byen","station_name_local":"DR Byen","network":"Metro","network_local":"Metro","operator":null,"city":"Copenhagen","country":"Denmark","lines":["M1"],"wikidata":"Q800650"},"geometry":{"type":"Point","coordinates":[12.5890175,55.6557682]}},{"type":"Feature","properties":{"station_id":"n2705324076","station_name":"Sundby","station_name_local":"Sundby","network":"Metro","network_local":"Metro","operator":null,"city":"Copenhagen","country":"Denmark","lines":["M1"],"wikidata":"Q801498"},"geometry":{"type":"Point","coordinates":[12.5857172,55.6452516]}},{"type":"Feature","properties":{"station_id":"n2705324077","station_name":"Islands Brygge","station_name_local":"Islands Brygge","network":"Metro","network_local":"Metro","operator":null,"city":"Copenhagen","country":"Denmark","lines":["M1"],"wikidata":"Q800961"},"geometry":{"type":"Point","coordinates":[12.5852113,55.6634112]}},{"type":"Feature","properties":{"station_id":"n4993155222","station_name":"Nørreport","station_name_local":"Nørreport","network":"DSB","network_local":null,"operator":"DSB","city":"Copenhagen","country":"Denmark","lines":["M1","M2"],"wikidata":"Q801282","merged_from":2},"geometry":{"type":"Point","coordinates":[12.5715053,55.683616349999994]}},{"type":"Feature","properties":{"station_id":"n5066122139","station_name":"Vanløse","station_name_local":"Vanløse","network":"Metro","network_local":"Metro","operator":null,"city":"Copenhagen","country":"Denmark","lines":["M1","M2"],"wikidata":null,"merged_from":2},"geometry":{"type":"Point","coordinates":[12.4920024,55.687158800000006]}},{"type":"Feature","properties":{"station_id":"n5096749954","station_name":"Copenhagen Central Station","station_name_local":"Københavns Hovedbanegård","network":"DSB","network_local":null,"operator":"DSB","city":"Copenhagen","country":"Denmark","lines":["M3","M4"],"wikidata":null,"merged_from":2},"geometry":{"type":"Point","coordinates":[12.56424115,55.671793050000005]}},{"type":"Feature","properties":{"station_id":"n5715956175","station_name":"Lergravsparken","station_name_local":"Lergravsparken","network":"Metro","network_local":"Metro","operator":null,"city":"Copenhagen","country":"Denmark","lines":["M2"],"wikidata":"Q801094"},"geometry":{"type":"Point","coordinates":[12.6170475,55.662236]}},{"type":"Feature","properties":{"station_id":"n5715956176","station_name":"Amagerbro","station_name_local":"Amagerbro","network":"Metro","network_local":"Metro","operator":null,"city":"Copenhagen","country":"Denmark","lines":["M2"],"wikidata":"Q800382"},"geometry":{"type":"Point","coordinates":[12.6028945,55.6633965]}},{"type":"Feature","properties":{"station_id":"n5715956177","station_name":"Christianshavn","station_name_local":"Christianshavn","network":"Metro","network_local":"Metro","operator":null,"city":"Copenhagen","country":"Denmark","lines":["M1","M2"],"wikidata":"Q587485"},"geometry":{"type":"Point","coordinates":[12.5913771,55.6720958]}},{"type":"Feature","properties":{"station_id":"n5715956178","station_name":"Kongens Nytorv","station_name_local":"Kongens Nytorv","network":"Metro","network_local":"Metro","operator":null,"city":"Copenhagen","country":"Denmark","lines":["M1","M2"],"wikidata":"Q801029"},"geometry":{"type":"Point","coordinates":[12.5850827,55.6796344]}},{"type":"Feature","properties":{"station_id":"n5715956180","station_name":"Forum","station_name_local":"Forum","network":"Metro","network_local":"Metro","operator":null,"city":"Copenhagen","country":"Denmark","lines":["M1","M2"],"wikidata":"Q800764"},"geometry":{"type":"Point","coordinates":[12.5525408,55.6818073]}},{"type":"Feature","properties":{"station_id":"n5715956181","station_name":"Frederiksberg","station_name_local":"Frederiksberg","network":"Metro","network_local":"Metro","operator":null,"city":"Copenhagen","country":"Denmark","lines":["M3"],"wikidata":"Q800788"},"geometry":{"type":"Point","coordinates":[12.5322237,55.6811699]}},{"type":"Feature","properties":{"station_id":"n5715956182","station_name":"Fasanvej","station_name_local":"Fasanvej","network":"Metro","network_local":"Metro","operator":null,"city":"Copenhagen","country":"Denmark","lines":["M1","M2"],"wikidata":"Q800749"},"geometry":{"type":"Point","coordinates":[12.5235687,55.6815945]}},{"type":"Feature","properties":{"station_id":"n5974664508","station_name":"Mozarts Plads","station_name_local":"Mozarts Plads","network":"Metro","network_local":"Metro","operator":null,"city":"Copenhagen","country":"Denmark","lines":["M4"],"wikidata":"Q61060497"},"geometry":{"type":"Point","coordinates":[12.5343368,55.6489712]}},{"type":"Feature","properties":{"station_id":"n5974664509","station_name":"Sluseholmen","station_name_local":"Sluseholmen","network":"Metro","network_local":"Metro","operator":null,"city":"Copenhagen","country":"Denmark","lines":["M4"],"wikidata":"Q61060509"},"geometry":{"type":"Point","coordinates":[12.544414,55.6458281]}},{"type":"Feature","properties":{"station_id":"n6041192146","station_name":"Orientkaj","station_name_local":"Orientkaj","network":"Metro","network_local":"Metro","operator":null,"city":"Copenhagen","country":"Denmark","lines":["M4"],"wikidata":"Q17165662"},"geometry":{"type":"Point","coordinates":[12.5951777,55.7118379]}},{"type":"Feature","properties":{"station_id":"n6836386877","station_name":"Rådhuspladsen","station_name_local":"Rådhuspladsen","network":"Metro","network_local":"Metro","operator":null,"city":"Copenhagen","country":"Denmark","lines":["M3","M4"],"wikidata":"Q11998805"},"geometry":{"type":"Point","coordinates":[12.5682006,55.6764406]}},{"type":"Feature","properties":{"station_id":"n6836386879","station_name":"Gammel Strand","station_name_local":"Gammel Strand","network":"Metro","network_local":"Metro","operator":null,"city":"Copenhagen","country":"Denmark","lines":["M3","M4"],"wikidata":"Q11971512"},"geometry":{"type":"Point","coordinates":[12.5789275,55.6775945]}},{"type":"Feature","properties":{"station_id":"n6836446144","station_name":"Aksel Møllers Have","station_name_local":"Aksel Møllers Have","network":"Metro","network_local":"Metro","operator":null,"city":"Copenhagen","country":"Denmark","lines":["M3"],"wikidata":"Q11957158"},"geometry":{"type":"Point","coordinates":[12.5329471,55.6860507]}},{"type":"Feature","properties":{"station_id":"n6836446145","station_name":"Nuuks Plads","station_name_local":"Nuuks Plads","network":"Metro","network_local":"Metro","operator":"Metroselskabet I/S","city":"Copenhagen","country":"Denmark","lines":["M3"],"wikidata":"Q11992758"},"geometry":{"type":"Point","coordinates":[12.5425294,55.6884779]}},{"type":"Feature","properties":{"station_id":"n6836624243","station_name":"Vibenhus Runddel","station_name_local":"Vibenhus Runddel","network":"Metro","network_local":"Metro","operator":null,"city":"Copenhagen","country":"Denmark","lines":["M3"],"wikidata":"Q12340880"},"geometry":{"type":"Point","coordinates":[12.5647764,55.7063956]}},{"type":"Feature","properties":{"station_id":"n6836648164","station_name":"Marmorkirken","station_name_local":"Marmorkirken","network":"Metro","network_local":"Metro","operator":null,"city":"Copenhagen","country":"Denmark","lines":["M3","M4"],"wikidata":"Q11988456"},"geometry":{"type":"Point","coordinates":[12.5890307,55.6851258]}},{"type":"Feature","properties":{"station_id":"n595296652","station_name":"Nordhavn","station_name_local":"Nordhavn","network":"DSB","network_local":null,"operator":"DSB","city":"Copenhagen","country":"Denmark","lines":["M4"],"wikidata":"Q686519","merged_from":2},"geometry":{"type":"Point","coordinates":[12.5912887,55.70619945]}},{"type":"Feature","properties":{"station_id":"n610619173","station_name":"Nørrebro","station_name_local":"Nørrebro","network":"Unknown","network_local":null,"operator":null,"city":"Copenhagen","country":"Denmark","lines":["M3"],"wikidata":"Q1963278","merged_from":2},"geometry":{"type":"Point","coordinates":[12.53788745,55.7003649]}},{"type":"Feature","properties":{"station_id":"n1017968484","station_name":"Copenhagen South","station_name_local":"København Syd","network":"DSB","network_local":null,"operator":"DSB","city":"Copenhagen","country":"Denmark","lines":["M4"],"wikidata":null,"merged_from":2},"geometry":{"type":"Point","coordinates":[12.51607915,55.65281]}},{"type":"Feature","properties":{"station_id":"n4989664667","station_name":"Østerport","station_name_local":"Østerport","network":"S-tog","network_local":"S-tog","operator":"DSB","city":"Copenhagen","country":"Denmark","lines":["M3","M4"],"wikidata":null,"merged_from":2},"geometry":{"type":"Point","coordinates":[12.58714235,55.693112]}},{"type":"Feature","properties":{"station_id":"n5974664510","station_name":"Enghave Brygge","station_name_local":"Enghave Brygge","network":"Metro","network_local":"Metro","operator":null,"city":"Copenhagen","country":"Denmark","lines":["M4"],"wikidata":"Q61060512"},"geometry":{"type":"Point","coordinates":[12.5565102,55.6540722]}},{"type":"Feature","properties":{"station_id":"n5974664511","station_name":"Havneholmen","station_name_local":"Havneholmen","network":"Metro","network_local":"Metro","operator":null,"city":"Copenhagen","country":"Denmark","lines":["M4"],"wikidata":"Q61060539"},"geometry":{"type":"Point","coordinates":[12.5593142,55.6609865]}},{"type":"Feature","properties":{"station_id":"n6836434801","station_name":"Enghave Plads","station_name_local":"Enghave Plads","network":"Metro","network_local":"Metro","operator":null,"city":"Copenhagen","country":"Denmark","lines":["M3"],"wikidata":"Q11967561"},"geometry":{"type":"Point","coordinates":[12.5467948,55.667227]}},{"type":"Feature","properties":{"station_id":"n6836446142","station_name":"Nørrebros Runddel","station_name_local":"Nørrebros Runddel","network":"Metro","network_local":"Metro","operator":null,"city":"Copenhagen","country":"Denmark","lines":["M3"],"wikidata":"Q11992956"},"geometry":{"type":"Point","coordinates":[12.5489348,55.693528]}},{"type":"Feature","properties":{"station_id":"n6836466111","station_name":"Skjolds Plads","station_name_local":"Skjolds Plads","network":"Metro","network_local":"Metro","operator":null,"city":"Copenhagen","country":"Denmark","lines":["M3"],"wikidata":"Q12001069"},"geometry":{"type":"Point","coordinates":[12.5487689,55.7034992]}},{"type":"Feature","properties":{"station_id":"n6836652392","station_name":"Trianglen","station_name_local":"Trianglen","network":"Metro","network_local":"Metro","operator":null,"city":"Copenhagen","country":"Denmark","lines":["M3"],"wikidata":"Q12007414"},"geometry":{"type":"Point","coordinates":[12.575555,55.6992513]}},{"type":"Feature","properties":{"station_id":"n6836652393","station_name":"Poul Henningsens Plads","station_name_local":"Poul Henningsens Plads","network":"Metro","network_local":"Metro","operator":null,"city":"Copenhagen","country":"Denmark","lines":["M3"],"wikidata":"Q11996138"},"geometry":{"type":"Point","coordinates":[12.5761362,55.7094751]}}]}