{"type":"FeatureCollection","metro_system":{"continent":"europe","country":"Denmark","city":"Tranbjerg","osm_networks":["Midttrafik","Unknown"],"operator":"Keolis","official_website":null,"official_map":"https://da.wikipedia.org/wiki/Midttrafik","wikidata":"Q28759221","line_count":2,"station_count":39,"audit":{"strategies_tried":[],"passed":true,"checks":[{"id":"has_lines","ok":true,"detail":"2 lines","level":"error"},{"id":"has_stations","ok":true,"detail":"39 stations","level":"error"},{"id":"stations_have_lines","ok":true,"detail":"39/39 站皆有所屬路線","level":"error"},{"id":"stations_named","ok":true,"detail":"39/39 站有名稱","level":"warn"},{"id":"station_order","ok":true,"detail":"所有線路站序合理","level":"warn"}],"reasons":[],"warnings":[],"audited_at":"2026-07-10T08:36:15.540Z"}},"features":[{"type":"Feature","properties":{"route_id":"rm14973319","route_name":"Light rail L2","route_name_local":"Light rail L2","route_ref":"L2","route_color":"#30556e","network":"Midttrafik","network_local":"Midttrafik","operator":"Keolis","city":"Tranbjerg","country":"Denmark","wikidata":"Q28759221","wikipedia":"da:Midttrafik","osm_route_ids":[7463675,8603279,14973317,14973318]},"geometry":{"type":"MultiLineString","coordinates":[[[10.2348637,56.2309497],[10.2006232,56.2272629],[10.1740849,56.2194987],[10.1645818,56.2167288],[10.1637346,56.2123596],[10.166228,56.2034182],[10.1686389,56.1975624],[10.1762459,56.1924595],[10.1839269,56.1896547],[10.1934227,56.1864616],[10.1975792,56.1820718],[10.2004203,56.1780001],[10.2031047,56.1738938],[10.2048564,56.1712298],[10.2076053,56.1670445],[10.2115183,56.1615755],[10.2130884,56.1571508],[10.2129446,56.1541411],[10.204118,56.1501347],[10.1741845,56.1353766],[10.1598349,56.1219321],[10.1471798,56.1170109],[10.133294,56.1144762],[10.1255184,56.1112294],[10.1357819,56.096565],[10.1518465,56.0919607],[10.15447,56.072535],[10.1642711,56.0687554],[10.1795998,56.0638362],[10.1981318,56.0569105],[10.1911866,56.037647],[10.1825622,56.004031],[10.1540398,55.9832713],[10.1504372,55.9718302]],[[10.1505751,55.9718363],[10.1543085,55.9836628],[10.1826303,56.0039697],[10.1913086,56.0376881],[10.1981318,56.0569105],[10.1783384,56.0642409],[10.1643105,56.0687957],[10.15447,56.072535],[10.1505563,56.0923981],[10.1358673,56.096589],[10.1261125,56.1117618],[10.134357,56.1147351],[10.1471798,56.1170109],[10.1599337,56.1218759],[10.1741845,56.1353766],[10.2041634,56.1500451],[10.2130069,56.1541514],[10.2131533,56.1571414],[10.211622,56.1616085],[10.2077149,56.1670667],[10.204344,56.1721363],[10.2032165,56.1739153],[10.2000154,56.1787399],[10.1970818,56.1829244],[10.1933814,56.1865225],[10.1839537,56.1897184],[10.1764646,56.1925068],[10.1686617,56.1975954],[10.166295,56.2034142],[10.1638008,56.2123613],[10.164698,56.216747],[10.174111,56.2194636],[10.2006572,56.2272304],[10.2343942,56.2307049]]]}},{"type":"Feature","properties":{"route_id":"rm14942883","route_name":"Light rail L1","route_name_local":"Light rail L1","route_ref":"L1","route_color":"#30556e","network":"Midttrafik","network_local":"Midttrafik","operator":"Keolis","city":"Tranbjerg","country":"Denmark","wikidata":"Q28759219","wikipedia":"da:Midttrafik","osm_route_ids":[9907095,9907096]},"geometry":{"type":"MultiLineString","coordinates":[[[10.8804217,56.4127737],[10.8720644,56.3900118],[10.7716096,56.3506934],[10.5875326,56.3629163],[10.5005668,56.3800603],[10.4479118,56.3560845],[10.3759933,56.3393531],[10.3135863,56.320552],[10.317337,56.2757203],[10.3030796,56.2618828],[10.2685676,56.2446056],[10.234906,56.2308961],[10.2284518,56.2054713],[10.236789,56.1949699],[10.237088,56.1843648],[10.2163671,56.1629045],[10.2130884,56.1571508],[10.2129446,56.1541411],[10.204118,56.1501347]],[[10.2041634,56.1500451],[10.2130069,56.1541514],[10.2131533,56.1571414],[10.2164287,56.1628917],[10.237088,56.1843648],[10.2368634,56.1949855],[10.2285265,56.2054896],[10.2343942,56.2307049],[10.2699983,56.2451947],[10.3032037,56.2618422],[10.3177979,56.2762174],[10.313689,56.3205287],[10.3759933,56.3393531],[10.4479118,56.3560845],[10.5005449,56.3800021],[10.5875326,56.3629163],[10.7716096,56.3506934],[10.8720644,56.3900118],[10.8804867,56.4127044]]]}},{"type":"Feature","properties":{"station_id":"n370384146","station_name":"Kolind","station_name_local":"Kolind","network":"Unknown","network_local":null,"operator":null,"city":"Tranbjerg","country":"Denmark","lines":["L1"],"wikidata":"Q12322467"},"geometry":{"type":"Point","coordinates":[10.5875178,56.3628841]}},{"type":"Feature","properties":{"station_id":"n370384255","station_name":"Hessel","station_name_local":"Hessel","network":"Unknown","network_local":null,"operator":null,"city":"Tranbjerg","country":"Denmark","lines":["L1"],"wikidata":"Q28758798"},"geometry":{"type":"Point","coordinates":[10.8721102,56.390005]}},{"type":"Feature","properties":{"station_id":"n1927895372","station_name":"Hjortshøj","station_name_local":"Hjortshøj","network":"Unknown","network_local":null,"operator":null,"city":"Tranbjerg","country":"Denmark","lines":["L1"],"wikidata":"Q12316933"},"geometry":{"type":"Point","coordinates":[10.2685378,56.2446348]}},{"type":"Feature","properties":{"station_id":"n2194863659","station_name":"Hornslet","station_name_local":"Hornslet","network":"Unknown","network_local":null,"operator":null,"city":"Tranbjerg","country":"Denmark","lines":["L1"],"wikidata":"Q12317233"},"geometry":{"type":"Point","coordinates":[10.3136376,56.3205403]}},{"type":"Feature","properties":{"station_id":"n2344240475","station_name":"Grenaa","station_name_local":"Grenaa","network":"Unknown","network_local":null,"operator":null,"city":"Tranbjerg","country":"Denmark","lines":["L1"],"wikidata":"Q2312247"},"geometry":{"type":"Point","coordinates":[10.8804542,56.412739]}},{"type":"Feature","properties":{"station_id":"n2838957162","station_name":"Lystrup","station_name_local":"Lystrup","network":"Unknown","network_local":null,"operator":null,"city":"Tranbjerg","country":"Denmark","lines":["L1"],"wikidata":"Q12325303"},"geometry":{"type":"Point","coordinates":[10.2351986,56.2310704]}},{"type":"Feature","properties":{"station_id":"n2838957163","station_name":"Løgten","station_name_local":"Løgten","network":"Unknown","network_local":null,"operator":null,"city":"Tranbjerg","country":"Denmark","lines":["L1"],"wikidata":"Q12325389"},"geometry":{"type":"Point","coordinates":[10.3172907,56.2757352]}},{"type":"Feature","properties":{"station_id":"n2838957164","station_name":"Mørke","station_name_local":"Mørke","network":"Unknown","network_local":null,"operator":null,"city":"Tranbjerg","country":"Denmark","lines":["L1"],"wikidata":"Q12328134"},"geometry":{"type":"Point","coordinates":[10.3760183,56.339328]}},{"type":"Feature","properties":{"station_id":"n2838957165","station_name":"Ryomgård","station_name_local":"Ryomgård","network":"Unknown","network_local":null,"operator":null,"city":"Tranbjerg","country":"Denmark","lines":["L1"],"wikidata":"Q2503059"},"geometry":{"type":"Point","coordinates":[10.5005559,56.3800312]}},{"type":"Feature","properties":{"station_id":"n2838957166","station_name":"Skødstrup","station_name_local":"Skødstrup","network":"Unknown","network_local":null,"operator":null,"city":"Tranbjerg","country":"Denmark","lines":["L1"],"wikidata":"Q12335970"},"geometry":{"type":"Point","coordinates":[10.3031417,56.2618625]}},{"type":"Feature","properties":{"station_id":"n2838957167","station_name":"Trustrup","station_name_local":"Trustrup","network":"Unknown","network_local":null,"operator":null,"city":"Tranbjerg","country":"Denmark","lines":["L1"],"wikidata":"Q2202168"},"geometry":{"type":"Point","coordinates":[10.7715962,56.3507254]}},{"type":"Feature","properties":{"station_id":"n4787788189","station_name":"Thorsager","station_name_local":"Thorsager","network":"Unknown","network_local":null,"operator":null,"city":"Tranbjerg","country":"Denmark","lines":["L1"],"wikidata":"Q60626521"},"geometry":{"type":"Point","coordinates":[10.447939,56.3560631]}},{"type":"Feature","properties":{"station_id":"n4993785741","station_name":"Gl. Skejby","station_name_local":"Gl. Skejby","network":"Unknown","network_local":null,"operator":null,"city":"Tranbjerg","country":"Denmark","lines":["L2"],"wikidata":null},"geometry":{"type":"Point","coordinates":[10.1686503,56.1975789]}},{"type":"Feature","properties":{"station_id":"n5021370122","station_name":"Universitetshospitalet","station_name_local":"Universitetshospitalet","network":"Unknown","network_local":null,"operator":null,"city":"Tranbjerg","country":"Denmark","lines":["L2"],"wikidata":"Q28836127"},"geometry":{"type":"Point","coordinates":[10.1764096,56.1924949]}},{"type":"Feature","properties":{"station_id":"n5024239486","station_name":"Nye","station_name_local":"Nye","network":"Unknown","network_local":null,"operator":null,"city":"Tranbjerg","country":"Denmark","lines":["L2"],"wikidata":"Q28759600"},"geometry":{"type":"Point","coordinates":[10.2006402,56.2272467]}},{"type":"Feature","properties":{"station_id":"n5024239489","station_name":"Lisbjerg-Terp","station_name_local":"Lisbjerg-Terp","network":"Unknown","network_local":null,"operator":null,"city":"Tranbjerg","country":"Denmark","lines":["L2"],"wikidata":"Q28759239"},"geometry":{"type":"Point","coordinates":[10.174098,56.2194811]}},{"type":"Feature","properties":{"station_id":"n5024239504","station_name":"Lisbjerg Bygade","station_name_local":"Lisbjerg Bygade","network":"Unknown","network_local":null,"operator":null,"city":"Tranbjerg","country":"Denmark","lines":["L2"],"wikidata":null},"geometry":{"type":"Point","coordinates":[10.1646398,56.2167379]}},{"type":"Feature","properties":{"station_id":"n5024239511","station_name":"Klokhøjen","station_name_local":"Klokhøjen","network":"Unknown","network_local":null,"operator":null,"city":"Tranbjerg","country":"Denmark","lines":["L2"],"wikidata":null},"geometry":{"type":"Point","coordinates":[10.1637677,56.2123605]}},{"type":"Feature","properties":{"station_id":"n5024239514","station_name":"Humlehuse","station_name_local":"Humlehuse","network":"Unknown","network_local":null,"operator":null,"city":"Tranbjerg","country":"Denmark","lines":["L2"],"wikidata":null},"geometry":{"type":"Point","coordinates":[10.1662633,56.2034161]}},{"type":"Feature","properties":{"station_id":"n5032200180","station_name":"Viby J","station_name_local":"Viby J","network":"Unknown","network_local":null,"operator":null,"city":"Tranbjerg","country":"Denmark","lines":["L2"],"wikidata":null},"geometry":{"type":"Point","coordinates":[10.1598843,56.121904]}},{"type":"Feature","properties":{"station_id":"n5032200182","station_name":"Odder","station_name_local":"Odder","network":"Unknown","network_local":null,"operator":null,"city":"Tranbjerg","country":"Denmark","lines":["L2"],"wikidata":"Q2651991"},"geometry":{"type":"Point","coordinates":[10.1505062,55.9718333]}},{"type":"Feature","properties":{"station_id":"n5033265318","station_name":"Rude Havvej","station_name_local":"Rude Havvej","network":"Unknown","network_local":null,"operator":null,"city":"Tranbjerg","country":"Denmark","lines":["L2"],"wikidata":"Q12333883"},"geometry":{"type":"Point","coordinates":[10.1541815,55.9834059]}},{"type":"Feature","properties":{"station_id":"n5033266183","station_name":"Assedrup","station_name_local":"Assedrup","network":"Unknown","network_local":null,"operator":null,"city":"Tranbjerg","country":"Denmark","lines":["L2"],"wikidata":"Q12302348"},"geometry":{"type":"Point","coordinates":[10.1825962,56.0040003]}},{"type":"Feature","properties":{"station_id":"n5033266278","station_name":"Malling","station_name_local":"Malling","network":"Unknown","network_local":null,"operator":null,"city":"Tranbjerg","country":"Denmark","lines":["L2"],"wikidata":"Q12325832"},"geometry":{"type":"Point","coordinates":[10.1912382,56.0376645]}},{"type":"Feature","properties":{"station_id":"n5033266325","station_name":"Beder","station_name_local":"Beder","network":"Unknown","network_local":null,"operator":null,"city":"Tranbjerg","country":"Denmark","lines":["L2"],"wikidata":null},"geometry":{"type":"Point","coordinates":[10.1982106,56.0569162]}},{"type":"Feature","properties":{"station_id":"n5033266414","station_name":"Vilhelmsborg","station_name_local":"Vilhelmsborg","network":"Unknown","network_local":null,"operator":null,"city":"Tranbjerg","country":"Denmark","lines":["L2"],"wikidata":null},"geometry":{"type":"Point","coordinates":[10.1789691,56.0640386]}},{"type":"Feature","properties":{"station_id":"n5033266437","station_name":"Mårslet","station_name_local":"Mårslet","network":"Unknown","network_local":null,"operator":null,"city":"Tranbjerg","country":"Denmark","lines":["L2"],"wikidata":"Q12328039"},"geometry":{"type":"Point","coordinates":[10.1642908,56.0687756]}},{"type":"Feature","properties":{"station_id":"n5033266506","station_name":"Mølleparken","station_name_local":"Mølleparken","network":"Unknown","network_local":null,"operator":null,"city":"Tranbjerg","country":"Denmark","lines":["L2"],"wikidata":null},"geometry":{"type":"Point","coordinates":[10.1543874,56.0725737]}},{"type":"Feature","properties":{"station_id":"n5033266631","station_name":"Nørrevænget","station_name_local":"Nørrevænget","network":"Unknown","network_local":null,"operator":null,"city":"Tranbjerg","country":"Denmark","lines":["L2"],"wikidata":"Q12329739"},"geometry":{"type":"Point","coordinates":[10.1512014,56.0921794]}},{"type":"Feature","properties":{"station_id":"n5033266697","station_name":"Tranbjerg","station_name_local":"Tranbjerg","network":"Midttrafik","network_local":"Midttrafik","operator":null,"city":"Tranbjerg","country":"Denmark","lines":["L2"],"wikidata":"Q12339699"},"geometry":{"type":"Point","coordinates":[10.1358246,56.096577]}},{"type":"Feature","properties":{"station_id":"n5033266794","station_name":"G. Clausens Vej","station_name_local":"G. Clausens Vej","network":"Unknown","network_local":null,"operator":null,"city":"Tranbjerg","country":"Denmark","lines":["L2"],"wikidata":"Q12314625"},"geometry":{"type":"Point","coordinates":[10.1257973,56.1114793]}},{"type":"Feature","properties":{"station_id":"n5033267154","station_name":"Øllegårdsvej","station_name_local":"Øllegårdsvej","network":"Unknown","network_local":null,"operator":null,"city":"Tranbjerg","country":"Denmark","lines":["L2"],"wikidata":"Q12341995"},"geometry":{"type":"Point","coordinates":[10.1338255,56.1146056]}},{"type":"Feature","properties":{"station_id":"n5033267175","station_name":"Rosenhøj","station_name_local":"Rosenhøj","network":"Unknown","network_local":null,"operator":null,"city":"Tranbjerg","country":"Denmark","lines":["L2"],"wikidata":"Q12333763"},"geometry":{"type":"Point","coordinates":[10.1471843,56.1169706]}},{"type":"Feature","properties":{"station_id":"n5033267336","station_name":"Kongsvang","station_name_local":"Kongsvang","network":"Unknown","network_local":null,"operator":null,"city":"Tranbjerg","country":"Denmark","lines":["L2"],"wikidata":"Q12322638"},"geometry":{"type":"Point","coordinates":[10.1742357,56.1353763]}},{"type":"Feature","properties":{"station_id":"n5051758681","station_name":"Torsøvej","station_name_local":"Torsøvej","network":"Unknown","network_local":null,"operator":null,"city":"Tranbjerg","country":"Denmark","lines":["L1"],"wikidata":"Q12339642"},"geometry":{"type":"Point","coordinates":[10.2284891,56.2054805]}},{"type":"Feature","properties":{"station_id":"n5051758849","station_name":"Vestre Strandallé","station_name_local":"Vestre Strandallé","network":"Unknown","network_local":null,"operator":null,"city":"Tranbjerg","country":"Denmark","lines":["L1"],"wikidata":"Q12340834"},"geometry":{"type":"Point","coordinates":[10.2368262,56.1949777]}},{"type":"Feature","properties":{"station_id":"n5409811177","station_name":"Dokk1","station_name_local":"Dokk1","network":"Unknown","network_local":null,"operator":null,"city":"Tranbjerg","country":"Denmark","lines":["L1","L2"],"wikidata":null},"geometry":{"type":"Point","coordinates":[10.2129758,56.1541463]}},{"type":"Feature","properties":{"station_id":"n7893503389","station_name":"Risskov Strandpark","station_name_local":"Risskov Strandpark","network":"Unknown","network_local":null,"operator":null,"city":"Tranbjerg","country":"Denmark","lines":["L1"],"wikidata":null},"geometry":{"type":"Point","coordinates":[10.2370451,56.1843725]}},{"type":"Feature","properties":{"station_id":"n10241003997","station_name":"Aarhus Central Station","station_name_local":"Aarhus H","network":"Unknown","network_local":null,"operator":null,"city":"Tranbjerg","country":"Denmark","lines":["L1","L2"],"wikidata":"Q113486031"},"geometry":{"type":"Point","coordinates":[10.2035613,56.1500017]}}]}