{"type":"FeatureCollection","metro_system":{"continent":"asia","country":"Philippines","city":"Manila","osm_networks":["LRT Line 2","Manila LRT","Manila LRT and Manila MRT","Manila MRT","Metro Manila Subway","Unknown"],"operator":"Light Rail Transit Authority","official_website":"https://www.lrta.gov.ph/","official_map":"https://en.wikipedia.org/wiki/LRT_Line_2_(Metro_Manila)","wikidata":"Q4165317","line_count":1,"station_count":39},"features":[{"type":"Feature","properties":{"route_id":"rm8000265","route_name":"LRT Line 2","route_name_local":"LRT Line 2","route_ref":"2","route_color":"#800080","network":"Manila LRT","network_local":"Manila LRT","operator":"Light Rail Transit Authority","city":"Manila","country":"Philippines","wikidata":"Q4165317","wikipedia":"en:LRT Line 2 (Metro Manila)","osm_route_ids":[110410,8000264]},"geometry":{"type":"MultiLineString","coordinates":[[[121.1213588,14.6248348],[121.1006104,14.620498],[121.0856043,14.6225515],[121.0723007,14.63082],[121.0642832,14.6279667],[121.0521523,14.622508],[121.0427366,14.618605],[121.0340671,14.613509],[121.0260616,14.6105653],[121.0170265,14.6040281],[121.0050399,14.601714],[120.9924733,14.6008662],[120.9830875,14.6036445]],[[120.9839839,14.603467],[120.992486,14.6008302],[121.0050397,14.6016785],[121.0170484,14.6040032],[121.0260677,14.6105362],[121.0340822,14.6134769],[121.0427537,14.6185794],[121.0530406,14.6228912],[121.0651966,14.6280751],[121.073293,14.6312599],[121.0863135,14.6216934],[121.1006319,14.6204441],[121.1213797,14.6247712]]]}},{"type":"Feature","properties":{"station_id":"n5285111766","station_name":"Tandang Sora","station_name_local":"Tandang Sora","network":"Metro Manila Subway","network_local":"Metro Manila Subway","operator":"Department of Transportation","city":"Manila","country":"Philippines","lines":null,"wikidata":null},"geometry":{"type":"Point","coordinates":[121.0321987,14.6747123]}},{"type":"Feature","properties":{"station_id":"n5377269277","station_name":"Katipunan","station_name_local":"Katipunan","network":"Manila LRT","network_local":"Manila LRT","operator":"Light Rail Transit Authority","city":"Manila","country":"Philippines","lines":["2"],"wikidata":"Q3547775"},"geometry":{"type":"Point","coordinates":[121.0727741,14.6310644]}},{"type":"Feature","properties":{"station_id":"n5525578965","station_name":"Sacred Heart","station_name_local":"Sacred Heart","network":"Manila MRT","network_local":"Manila MRT","operator":"Korea Railroad Corporation","city":"Manila","country":"Philippines","lines":null,"wikidata":"Q7397230"},"geometry":{"type":"Point","coordinates":[121.0838203,14.750234]}},{"type":"Feature","properties":{"station_id":"n5728168799","station_name":"Bonifacio Global City","station_name_local":"Bonifacio Global City","network":"Metro Manila Subway","network_local":"Metro Manila Subway","operator":null,"city":"Manila","country":"Philippines","lines":null,"wikidata":null},"geometry":{"type":"Point","coordinates":[121.0545952,14.5494477]}},{"type":"Feature","properties":{"station_id":"n6313750523","station_name":"Camp Aguinaldo","station_name_local":"Camp Aguinaldo","network":"Metro Manila Subway","network_local":"Metro Manila Subway","operator":null,"city":"Manila","country":"Philippines","lines":null,"wikidata":null},"geometry":{"type":"Point","coordinates":[121.0695129,14.6129634]}},{"type":"Feature","properties":{"station_id":"n12752311664","station_name":"NAIA Terminal 3","station_name_local":"NAIA Terminal 3","network":"Unknown","network_local":null,"operator":null,"city":"Manila","country":"Philippines","lines":null,"wikidata":null},"geometry":{"type":"Point","coordinates":[121.015031,14.520373]}},{"type":"Feature","properties":{"station_id":"n13478815689","station_name":"East Avenue","station_name_local":"East Avenue","network":"Metro Manila Subway","network_local":"Metro Manila Subway","operator":"Department of Transportation","city":"Manila","country":"Philippines","lines":null,"wikidata":null},"geometry":{"type":"Point","coordinates":[121.0496995,14.6369562]}},{"type":"Feature","properties":{"station_id":"n13478815690","station_name":"Anonas","station_name_local":"Anonas","network":"Metro Manila Subway","network_local":"Metro Manila Subway","operator":null,"city":"Manila","country":"Philippines","lines":["2"],"wikidata":null},"geometry":{"type":"Point","coordinates":[121.0644826,14.6266989]}},{"type":"Feature","properties":{"station_id":"n13564626500","station_name":"Kalayaan Avenue","station_name_local":"Kalayaan Avenue","network":"Metro Manila Subway","network_local":"Metro Manila Subway","operator":null,"city":"Manila","country":"Philippines","lines":null,"wikidata":null},"geometry":{"type":"Point","coordinates":[121.0556675,14.5579934]}},{"type":"Feature","properties":{"station_id":"n13564639203","station_name":"Lawton Avenue","station_name_local":"Lawton Avenue","network":"Metro Manila Subway","network_local":"Metro Manila Subway","operator":null,"city":"Manila","country":"Philippines","lines":null,"wikidata":null},"geometry":{"type":"Point","coordinates":[121.0401852,14.5366417]}},{"type":"Feature","properties":{"station_id":"n13564783062","station_name":"Ortigas","station_name_local":"Ortigas","network":"Unknown","network_local":null,"operator":null,"city":"Manila","country":"Philippines","lines":null,"wikidata":null},"geometry":{"type":"Point","coordinates":[121.064108,14.5853472]}},{"type":"Feature","properties":{"station_id":"n13564783063","station_name":"Shaw Boulevard","station_name_local":"Shaw Boulevard","network":"Unknown","network_local":null,"operator":null,"city":"Manila","country":"Philippines","lines":null,"wikidata":null},"geometry":{"type":"Point","coordinates":[121.0622495,14.5762711]}},{"type":"Feature","properties":{"station_id":"n13565942041","station_name":"Quirino Highway","station_name_local":"Quirino Highway","network":"Metro Manila Subway","network_local":"Metro Manila Subway","operator":"Department of Transportation","city":"Manila","country":"Philippines","lines":null,"wikidata":"Q113468683"},"geometry":{"type":"Point","coordinates":[121.0285777,14.6893878]}},{"type":"Feature","properties":{"station_id":"n13565942044","station_name":"North Avenue","station_name_local":"North Avenue","network":"Metro Manila Subway","network_local":"Metro Manila Subway","operator":"Department of Transportation","city":"Manila","country":"Philippines","lines":null,"wikidata":null},"geometry":{"type":"Point","coordinates":[121.0362911,14.6576297]}},{"type":"Feature","properties":{"station_id":"n13565942045","station_name":"Quezon Avenue","station_name_local":"Quezon Avenue","network":"Metro Manila Subway","network_local":"Metro Manila Subway","operator":"Department of Transportation","city":"Manila","country":"Philippines","lines":null,"wikidata":null},"geometry":{"type":"Point","coordinates":[121.0369547,14.6458965]}},{"type":"Feature","properties":{"station_id":"n13571995038","station_name":"Quezon Memorial Circle","station_name_local":"Quezon Memorial Circle","network":"Manila MRT","network_local":"Manila MRT","operator":"Korea Railroad Corporation","city":"Manila","country":"Philippines","lines":null,"wikidata":null},"geometry":{"type":"Point","coordinates":[121.0475739,14.6522002]}},{"type":"Feature","properties":{"station_id":"n13571995040","station_name":"University Avenue","station_name_local":"University Avenue","network":"Manila MRT","network_local":"Manila MRT","operator":"Korea Railroad Corporation","city":"Manila","country":"Philippines","lines":null,"wikidata":null},"geometry":{"type":"Point","coordinates":[121.0549904,14.6550681]}},{"type":"Feature","properties":{"station_id":"n13571995042","station_name":"Tandang Sora","station_name_local":"Tandang Sora","network":"Manila MRT","network_local":"Manila MRT","operator":"Korea Railroad Corporation","city":"Manila","country":"Philippines","lines":null,"wikidata":null},"geometry":{"type":"Point","coordinates":[121.0674956,14.6633536]}},{"type":"Feature","properties":{"station_id":"n13571995044","station_name":"Don Antonio","station_name_local":"Don Antonio","network":"Manila MRT","network_local":"Manila MRT","operator":null,"city":"Manila","country":"Philippines","lines":null,"wikidata":null},"geometry":{"type":"Point","coordinates":[121.0826781,14.6770384]}},{"type":"Feature","properties":{"station_id":"n13571995050","station_name":"Batasan","station_name_local":"Batasan","network":"Manila MRT","network_local":"Manila MRT","operator":"Korea Railroad Corporation","city":"Manila","country":"Philippines","lines":null,"wikidata":null},"geometry":{"type":"Point","coordinates":[121.086309,14.6851193]}},{"type":"Feature","properties":{"station_id":"n13571995052","station_name":"Manggahan","station_name_local":"Manggahan","network":"Manila MRT","network_local":"Manila MRT","operator":"Korea Railroad Corporation","city":"Manila","country":"Philippines","lines":null,"wikidata":null},"geometry":{"type":"Point","coordinates":[121.0873555,14.6975244]}},{"type":"Feature","properties":{"station_id":"n13571995054","station_name":"Doña Carmen","station_name_local":"Doña Carmen","network":"Manila MRT","network_local":"Manila MRT","operator":"Korea Railroad Corporation","city":"Manila","country":"Philippines","lines":null,"wikidata":null},"geometry":{"type":"Point","coordinates":[121.07842,14.705132]}},{"type":"Feature","properties":{"station_id":"n13571995056","station_name":"Regalado Avenue","station_name_local":"Regalado Avenue","network":"Manila MRT","network_local":"Manila MRT","operator":"Korea Railroad Corporation","city":"Manila","country":"Philippines","lines":null,"wikidata":null},"geometry":{"type":"Point","coordinates":[121.0679243,14.7065083]}},{"type":"Feature","properties":{"station_id":"n13571995058","station_name":"Mindanao Avenue","station_name_local":"Mindanao Avenue","network":"Manila MRT","network_local":"Manila MRT","operator":"Korea Railroad Corporation","city":"Manila","country":"Philippines","lines":null,"wikidata":null},"geometry":{"type":"Point","coordinates":[121.0612189,14.7330687]}},{"type":"Feature","properties":{"station_id":"n13571995062","station_name":"Quirino","station_name_local":"Quirino","network":"Manila MRT","network_local":"Manila MRT","operator":"Korea Railroad Corporation","city":"Manila","country":"Philippines","lines":null,"wikidata":null},"geometry":{"type":"Point","coordinates":[121.0665824,14.7354581]}},{"type":"Feature","properties":{"station_id":"n13686694948","station_name":"East Valenzuela","station_name_local":"East Valenzuela","network":"Metro Manila Subway","network_local":"Metro Manila Subway","operator":"Department of Transportation","city":"Manila","country":"Philippines","lines":null,"wikidata":"Q109284477"},"geometry":{"type":"Point","coordinates":[121.0137932,14.7083566]}},{"type":"Feature","properties":{"station_id":"n28788659","station_name":"Legarda","station_name_local":"Legarda","network":"Manila LRT","network_local":"Manila LRT","operator":"Light Rail Transit Authority","city":"Manila","country":"Philippines","lines":["2"],"wikidata":"Q3545784"},"geometry":{"type":"Point","coordinates":[120.9925686,14.600877]}},{"type":"Feature","properties":{"station_id":"n30411347","station_name":"Santolan","station_name_local":"Santolan","network":"Manila LRT","network_local":"Manila LRT","operator":"Light Rail Transit Authority","city":"Manila","country":"Philippines","lines":["2"],"wikidata":"Q7420577"},"geometry":{"type":"Point","coordinates":[121.0859641,14.6221076]}},{"type":"Feature","properties":{"station_id":"n113358959","station_name":"Betty Go-Belmonte","station_name_local":"Betty Go-Belmonte","network":"Manila LRT","network_local":"Manila LRT","operator":"Light Rail Transit Authority","city":"Manila","country":"Philippines","lines":["2"],"wikidata":"Q3545741"},"geometry":{"type":"Point","coordinates":[121.042706,14.6185972]}},{"type":"Feature","properties":{"station_id":"n179240108","station_name":"Recto","station_name_local":"Recto","network":"Manila LRT","network_local":"Manila LRT","operator":"Light Rail Transit Authority","city":"Manila","country":"Philippines","lines":["2"],"wikidata":"Q3547794"},"geometry":{"type":"Point","coordinates":[120.9833708,14.6035073]}},{"type":"Feature","properties":{"station_id":"n184582280","station_name":"Araneta Center - Cubao","station_name_local":"Araneta Center - Cubao","network":"Manila LRT","network_local":"Manila LRT","operator":"Light Rail Transit Authority","city":"Manila","country":"Philippines","lines":["2"],"wikidata":"Q4784087"},"geometry":{"type":"Point","coordinates":[121.0531248,14.6228614]}},{"type":"Feature","properties":{"station_id":"n188168853","station_name":"J. Ruiz","station_name_local":"J. Ruiz","network":"Manila LRT","network_local":"Manila LRT","operator":"Light Rail Transit Authority","city":"Manila","country":"Philippines","lines":["2"],"wikidata":"Q3547809"},"geometry":{"type":"Point","coordinates":[121.0260986,14.6105686]}},{"type":"Feature","properties":{"station_id":"n188168854","station_name":"Pureza","station_name_local":"Pureza","network":"Manila LRT","network_local":"Manila LRT","operator":"Light Rail Transit Authority","city":"Manila","country":"Philippines","lines":["2"],"wikidata":"Q3545800"},"geometry":{"type":"Point","coordinates":[121.0050939,14.6016769]}},{"type":"Feature","properties":{"station_id":"n188169761","station_name":"Gilmore","station_name_local":"Gilmore","network":"Manila LRT","network_local":"Manila LRT","operator":"Light Rail Transit Authority","city":"Manila","country":"Philippines","lines":["2"],"wikidata":null},"geometry":{"type":"Point","coordinates":[121.0341458,14.6135362]}},{"type":"Feature","properties":{"station_id":"n188169786","station_name":"Anonas","station_name_local":"Anonas","network":"Manila LRT","network_local":"Manila LRT","operator":"Light Rail Transit Authority","city":"Manila","country":"Philippines","lines":["2"],"wikidata":"Q4770011"},"geometry":{"type":"Point","coordinates":[121.0647231,14.6279862]}},{"type":"Feature","properties":{"station_id":"n402888750","station_name":"Katipunan","station_name_local":"Katipunan","network":"LRT Line 2","network_local":"LRT Line 2","operator":"Light Rail Transit Authority","city":"Manila","country":"Philippines","lines":["2"],"wikidata":"Q3547775"},"geometry":{"type":"Point","coordinates":[121.0729164,14.6310833]}},{"type":"Feature","properties":{"station_id":"n513224845","station_name":"Marikina-Pasig","station_name_local":"Marikina-Pasig","network":"Manila LRT","network_local":"Manila LRT","operator":"Light Rail Transit Authority","city":"Manila","country":"Philippines","lines":["2"],"wikidata":"Q5370456"},"geometry":{"type":"Point","coordinates":[121.1006479,14.6204412]}},{"type":"Feature","properties":{"station_id":"n564479403","station_name":"North Triangle Common Station","station_name_local":"North Triangle Common Station","network":"Manila LRT and Manila MRT","network_local":"Manila LRT and Manila MRT","operator":null,"city":"Manila","country":"Philippines","lines":null,"wikidata":"Q7054028"},"geometry":{"type":"Point","coordinates":[121.0311051,14.6550049]}},{"type":"Feature","properties":{"station_id":"n576938325","station_name":"Antipolo","station_name_local":"Antipolo","network":"Manila LRT","network_local":"Manila LRT","operator":"Light Rail Transit Authority","city":"Manila","country":"Philippines","lines":["2"],"wikidata":"Q16786991"},"geometry":{"type":"Point","coordinates":[121.121309,14.6247704]}}]}