{"type":"FeatureCollection","metro_system":{"continent":"asia","country":"Philippines","city":"Manila","osm_networks":["LRT Line 2","MRT Line 3","MRT-3","Manila LRT","Manila LRT and Manila MRT","Manila MRT","Metro Manila Subway","Metro Rail Transit Corporation","Unknown"],"operator":"Metro Rail Transit Corporation","official_website":"https://www.lrta.gov.ph/","official_map":"https://en.wikipedia.org/wiki/MRT_Line_3_(Metro_Manila)","wikidata":"Q13422345","line_count":1,"station_count":12,"audit":null},"features":[{"type":"Feature","properties":{"route_id":"rm8000265","route_name":"LRT Line 2","route_name_local":"LRT Line 2","route_ref":"2","route_color":"#800080","network":"Manila LRT","network_local":"Manila LRT","operator":"Light Rail Transit Authority","city":"Manila","country":"Philippines","wikidata":"Q4165317","wikipedia":"en:LRT Line 2 (Metro Manila)","osm_route_ids":[110410,8000264]},"geometry":{"type":"MultiLineString","coordinates":[[[121.121309,14.6247704],[121.1006479,14.6204412],[121.0859641,14.6221076],[121.07284525,14.63107385],[121.06460285,14.62734255],[121.0531248,14.6228614],[121.042706,14.6185972],[121.0341458,14.6135362],[121.0260986,14.6105686],[121.0050939,14.6016769],[120.9925686,14.600877],[120.9833708,14.6035073]],[[120.9833708,14.6035073],[120.9925686,14.600877],[121.0050939,14.6016769],[121.0260986,14.6105686],[121.0341458,14.6135362],[121.042706,14.6185972],[121.0531248,14.6228614],[121.06460285,14.62734255],[121.07284525,14.63107385],[121.0859641,14.6221076],[121.1006479,14.6204412],[121.121309,14.6247704]]]}},{"type":"Feature","properties":{"station_id":"n5377269277","station_name":"Katipunan","station_name_local":"Katipunan","network":"Manila LRT","network_local":"Manila LRT","operator":"Light Rail Transit Authority","city":"Manila","country":"Philippines","lines":["2"],"wikidata":"Q3547775","merged_from":2},"geometry":{"type":"Point","coordinates":[121.07284525,14.63107385]}},{"type":"Feature","properties":{"station_id":"n13478815690","station_name":"Anonas","station_name_local":"Anonas","network":"Metro Manila Subway","network_local":"Metro Manila Subway","operator":null,"city":"Manila","country":"Philippines","lines":["2"],"wikidata":null,"merged_from":2},"geometry":{"type":"Point","coordinates":[121.06460285,14.62734255]}},{"type":"Feature","properties":{"station_id":"n28788659","station_name":"Legarda","station_name_local":"Legarda","network":"Manila LRT","network_local":"Manila LRT","operator":"Light Rail Transit Authority","city":"Manila","country":"Philippines","lines":["2"],"wikidata":"Q3545784"},"geometry":{"type":"Point","coordinates":[120.9925686,14.600877]}},{"type":"Feature","properties":{"station_id":"n30411347","station_name":"Santolan","station_name_local":"Santolan","network":"Manila LRT","network_local":"Manila LRT","operator":"Light Rail Transit Authority","city":"Manila","country":"Philippines","lines":["2"],"wikidata":"Q7420577"},"geometry":{"type":"Point","coordinates":[121.0859641,14.6221076]}},{"type":"Feature","properties":{"station_id":"n113358959","station_name":"Betty Go-Belmonte","station_name_local":"Betty Go-Belmonte","network":"Manila LRT","network_local":"Manila LRT","operator":"Light Rail Transit Authority","city":"Manila","country":"Philippines","lines":["2"],"wikidata":"Q3545741"},"geometry":{"type":"Point","coordinates":[121.042706,14.6185972]}},{"type":"Feature","properties":{"station_id":"n179240108","station_name":"Recto","station_name_local":"Recto","network":"Manila LRT","network_local":"Manila LRT","operator":"Light Rail Transit Authority","city":"Manila","country":"Philippines","lines":["2"],"wikidata":"Q3547794"},"geometry":{"type":"Point","coordinates":[120.9833708,14.6035073]}},{"type":"Feature","properties":{"station_id":"n184582280","station_name":"Araneta Center - Cubao","station_name_local":"Araneta Center - Cubao","network":"Manila LRT","network_local":"Manila LRT","operator":"Light Rail Transit Authority","city":"Manila","country":"Philippines","lines":["2"],"wikidata":"Q4784087"},"geometry":{"type":"Point","coordinates":[121.0531248,14.6228614]}},{"type":"Feature","properties":{"station_id":"n188168853","station_name":"J. Ruiz","station_name_local":"J. Ruiz","network":"Manila LRT","network_local":"Manila LRT","operator":"Light Rail Transit Authority","city":"Manila","country":"Philippines","lines":["2"],"wikidata":"Q3547809"},"geometry":{"type":"Point","coordinates":[121.0260986,14.6105686]}},{"type":"Feature","properties":{"station_id":"n188168854","station_name":"Pureza","station_name_local":"Pureza","network":"Manila LRT","network_local":"Manila LRT","operator":"Light Rail Transit Authority","city":"Manila","country":"Philippines","lines":["2"],"wikidata":"Q3545800"},"geometry":{"type":"Point","coordinates":[121.0050939,14.6016769]}},{"type":"Feature","properties":{"station_id":"n188169761","station_name":"Gilmore","station_name_local":"Gilmore","network":"Manila LRT","network_local":"Manila LRT","operator":"Light Rail Transit Authority","city":"Manila","country":"Philippines","lines":["2"],"wikidata":null},"geometry":{"type":"Point","coordinates":[121.0341458,14.6135362]}},{"type":"Feature","properties":{"station_id":"n513224845","station_name":"Marikina-Pasig","station_name_local":"Marikina-Pasig","network":"Manila LRT","network_local":"Manila LRT","operator":"Light Rail Transit Authority","city":"Manila","country":"Philippines","lines":["2"],"wikidata":"Q5370456"},"geometry":{"type":"Point","coordinates":[121.1006479,14.6204412]}},{"type":"Feature","properties":{"station_id":"n576938325","station_name":"Antipolo","station_name_local":"Antipolo","network":"Manila LRT","network_local":"Manila LRT","operator":"Light Rail Transit Authority","city":"Manila","country":"Philippines","lines":["2"],"wikidata":"Q16786991"},"geometry":{"type":"Point","coordinates":[121.121309,14.6247704]}}]}