{"type":"FeatureCollection","metro_system":{"continent":"asia","country":"Philippines","city":"Manila","osm_networks":["LRT Line 2","MRT Line 3","MRT-3","Manila LRT","Manila LRT and Manila MRT","Manila MRT","Metro Manila Subway","Metro Rail Transit Corporation","Unknown"],"operator":"Metro Rail Transit Corporation","official_website":"https://www.lrta.gov.ph/","official_map":"https://en.wikipedia.org/wiki/MRT_Line_3_(Metro_Manila)","wikidata":"Q13422345","line_count":3,"station_count":53,"audit":{"strategies_tried":[],"passed":true,"checks":[{"id":"system_exists","ok":true,"detail":"matched OSM system systems/asia/philippines/asia-philippines-manila.geojson","level":"error"},{"id":"has_lines","ok":true,"detail":"3 lines","level":"error"},{"id":"has_stations","ok":true,"detail":"53 stations","level":"error"},{"id":"station_ratio","ok":true,"detail":"OSM 53 vs Wikipedia 38（比值 1.39）","level":"error"},{"id":"stations_have_lines","ok":true,"detail":"53/53 站皆有所屬路線","level":"error"},{"id":"line_geometry_stations","ok":true,"detail":"98 個折點/端點皆為車站","level":"error"},{"id":"stations_named","ok":true,"detail":"53/53 站有名稱","level":"warn"},{"id":"station_order","ok":true,"detail":"所有線路站序合理","level":"warn"}],"reasons":[],"warnings":[],"audited_at":"2026-07-10T09:30:27.809Z"}},"features":[{"type":"Feature","properties":{"route_id":"rm8000255","route_name":"MRT Line 3","route_name_local":"MRT Line 3","route_ref":"3","route_color":"#ffcc00","network":"Manila MRT","network_local":"Manila MRT","operator":"Metro Rail Transit Corporation","city":"Manila","country":"Philippines","wikidata":"Q13422345","wikipedia":"en:MRT Line 3 (Metro Manila)","osm_route_ids":[109159,8000253]},"geometry":{"type":"MultiLineString","coordinates":[[[121.03431119999999,14.654899499999999],[121.0377649,14.64422575],[121.0432937,14.6353465],[121.0510726,14.6194837],[121.056524,14.6078561],[121.06041210000001,14.5866046],[121.0534794,14.5810649],[121.0481887,14.5737744],[121.0455357,14.567114],[121.0342223,14.5543705],[121.027919,14.549194],[121.0193919,14.5419448],[121.0018185,14.5375644]],[[121.0193919,14.5419448],[121.027919,14.549194],[121.0342223,14.5543705],[121.0455357,14.567114],[121.0481887,14.5737744],[121.0534794,14.5810649],[121.06041210000001,14.5866046],[121.056524,14.6078561],[121.0510726,14.6194837],[121.0432937,14.6353465],[121.0377649,14.64422575],[121.0311051,14.6550049]]]}},{"type":"Feature","properties":{"route_id":"rm8000265","route_name":"LRT Line 2","route_name_local":"LRT Line 2","route_ref":"2","route_color":"#800080","network":"Manila LRT","network_local":"Manila LRT","operator":"Light Rail Transit Authority","city":"Manila","country":"Philippines","wikidata":"Q4165317","wikipedia":"en:LRT Line 2 (Metro Manila)","osm_route_ids":[110410,8000264]},"geometry":{"type":"MultiLineString","coordinates":[[[121.12134916666666,14.624792133333335],[121.10063006666667,14.6204611],[121.08596063333334,14.6221175],[121.07282105000002,14.6310569],[121.06467137499999,14.627681725],[121.05277256666666,14.622753533333332],[121.04274515,14.6185922],[121.03409836666667,14.613507366666667],[121.02607596666667,14.610556699999998],[121.01703745,14.604015650000001],[121.00505783333334,14.6016898],[120.9925093,14.6008578],[120.98348073333334,14.6035396]],[[120.98348073333334,14.6035396],[120.9925093,14.6008578],[121.00505783333334,14.6016898],[121.01703745,14.604015650000001],[121.02607596666667,14.610556699999998],[121.03409836666667,14.613507366666667],[121.04274515,14.6185922],[121.05277256666666,14.622753533333332],[121.06467137499999,14.627681725],[121.07282105000002,14.6310569],[121.08596063333334,14.6221175],[121.10063006666667,14.6204611],[121.12134916666666,14.624792133333335]]]}},{"type":"Feature","properties":{"route_id":"rm8000262","route_name":"LRT Line 1","route_name_local":"LRT Line 1","route_ref":"1","route_color":"#008000","network":"Manila LRT","network_local":"Manila LRT","operator":"Light Rail Manila Corporation","city":"Manila","country":"Philippines","wikidata":"Q4165124","wikipedia":null,"osm_route_ids":[110418,8000260,10463194,10463195]},"geometry":{"type":"MultiLineString","coordinates":[[[121.0211373,14.657559],[121.0038959,14.6574243],[120.9838745,14.6543118],[120.9835359,14.6444062],[120.9822793,14.6360145],[120.9814053,14.6306063],[120.9828902,14.6227839],[120.9827226,14.6167151],[120.982487,14.6111327],[120.9820496,14.6053092],[120.9813635,14.5991704],[120.9816199,14.5927962],[120.9880197,14.5765754],[120.9915257,14.5702879],[120.9947509,14.5634699],[120.9971661,14.5541814],[120.9986373,14.5477514],[121.0006192,14.5388434],[120.998398,14.5342877],[120.9929379,14.5302786],[120.9929872,14.5184318],[120.9912791,14.5083101],[120.9943732,14.4988903],[120.9895723,14.4852337]],[[120.9895723,14.4852337],[120.9943732,14.4988903],[120.9912791,14.5083101],[120.9929872,14.5184318],[120.9929379,14.5302786],[120.998398,14.5342877],[121.0006192,14.5388434],[120.9986373,14.5477514],[120.9971661,14.5541814],[120.9947509,14.5634699],[120.9915257,14.5702879],[120.9880197,14.5765754],[120.9816199,14.5927962],[120.9820496,14.6053092],[120.982487,14.6111327],[120.9827226,14.6167151],[120.9828902,14.6227839],[120.9814053,14.6306063],[120.9822793,14.6360145],[120.9835359,14.6444062],[120.9838745,14.6543118],[121.0038959,14.6574243],[121.0211373,14.657559]]]}},{"type":"Feature","properties":{"station_id":"n5377269277","station_name":"Katipunan","station_name_local":"Katipunan","network":"Manila LRT","network_local":"Manila LRT","operator":"Light Rail Transit Authority","city":"Manila","country":"Philippines","lines":["2"],"wikidata":"Q3547775","merged_from":4},"geometry":{"type":"Point","coordinates":[121.07282105000002,14.6310569]}},{"type":"Feature","properties":{"station_id":"n11329697351","station_name":"Cubao","station_name_local":"Cubao","network":"Unknown","network_local":null,"operator":null,"city":"Manila","country":"Philippines","lines":["3"],"wikidata":"Q4784084"},"geometry":{"type":"Point","coordinates":[121.0510726,14.6194837]}},{"type":"Feature","properties":{"station_id":"n11329697352","station_name":"Shaw Boulevard","station_name_local":"Shaw Boulevard","network":"Unknown","network_local":null,"operator":null,"city":"Manila","country":"Philippines","lines":["3"],"wikidata":"Q7491149"},"geometry":{"type":"Point","coordinates":[121.0534794,14.5810649]}},{"type":"Feature","properties":{"station_id":"n13478815689","station_name":"East Avenue","station_name_local":"East Avenue","network":"Metro Manila Subway","network_local":"Metro Manila Subway","operator":"Department of Transportation","city":"Manila","country":"Philippines","lines":["3"],"wikidata":null},"geometry":{"type":"Point","coordinates":[121.0496995,14.6369562]}},{"type":"Feature","properties":{"station_id":"n13478815690","station_name":"Anonas","station_name_local":"Anonas","network":"Metro Manila Subway","network_local":"Metro Manila Subway","operator":null,"city":"Manila","country":"Philippines","lines":["2"],"wikidata":null,"merged_from":4},"geometry":{"type":"Point","coordinates":[121.06467137499999,14.627681725]}},{"type":"Feature","properties":{"station_id":"n13564783062","station_name":"Ortigas","station_name_local":"Ortigas","network":"Unknown","network_local":null,"operator":null,"city":"Manila","country":"Philippines","lines":["3"],"wikidata":null,"merged_from":2},"geometry":{"type":"Point","coordinates":[121.06041210000001,14.5866046]}},{"type":"Feature","properties":{"station_id":"n13565942044","station_name":"North Avenue","station_name_local":"North Avenue","network":"Metro Manila Subway","network_local":"Metro Manila Subway","operator":"Department of Transportation","city":"Manila","country":"Philippines","lines":["3"],"wikidata":null,"merged_from":2},"geometry":{"type":"Point","coordinates":[121.03431119999999,14.654899499999999]}},{"type":"Feature","properties":{"station_id":"n13565942045","station_name":"Quezon Avenue","station_name_local":"Quezon Avenue","network":"Metro Manila Subway","network_local":"Metro Manila Subway","operator":"Department of Transportation","city":"Manila","country":"Philippines","lines":["3"],"wikidata":null,"merged_from":2},"geometry":{"type":"Point","coordinates":[121.0377649,14.64422575]}},{"type":"Feature","properties":{"station_id":"n288126517","station_name":"Quirino","station_name_local":"Quirino","network":"Manila LRT","network_local":"Manila LRT","operator":"Light Rail Manila Corporation","city":"Manila","country":"Philippines","lines":["1"],"wikidata":"Q3543640"},"geometry":{"type":"Point","coordinates":[120.9915257,14.5702879]}},{"type":"Feature","properties":{"station_id":"n27663063","station_name":"Ayala","station_name_local":"Ayala","network":"MRT-3","network_local":"MRT-3","operator":null,"city":"Manila","country":"Philippines","lines":["3"],"wikidata":"Q3706979"},"geometry":{"type":"Point","coordinates":[121.027919,14.549194]}},{"type":"Feature","properties":{"station_id":"n28788659","station_name":"Legarda","station_name_local":"Legarda","network":"Manila LRT","network_local":"Manila LRT","operator":"Light Rail Transit Authority","city":"Manila","country":"Philippines","lines":["2"],"wikidata":"Q3545784","merged_from":3},"geometry":{"type":"Point","coordinates":[120.9925093,14.6008578]}},{"type":"Feature","properties":{"station_id":"n30262758","station_name":"GMA Kamuning","station_name_local":"GMA Kamuning","network":"MRT Line 3","network_local":"MRT Line 3","operator":"Metro Rail Transit","city":"Manila","country":"Philippines","lines":["3"],"wikidata":"Q6359855"},"geometry":{"type":"Point","coordinates":[121.0432937,14.6353465]}},{"type":"Feature","properties":{"station_id":"n30411347","station_name":"Santolan","station_name_local":"Santolan","network":"Manila LRT","network_local":"Manila LRT","operator":"Light Rail Transit Authority","city":"Manila","country":"Philippines","lines":["2"],"wikidata":"Q7420577","merged_from":3},"geometry":{"type":"Point","coordinates":[121.08596063333334,14.6221175]}},{"type":"Feature","properties":{"station_id":"n60198083","station_name":"Boni","station_name_local":"Boni","network":"MRT Line 3","network_local":"MRT Line 3","operator":"Metro Rail Transit Corporation","city":"Manila","country":"Philippines","lines":["3"],"wikidata":"Q4941965"},"geometry":{"type":"Point","coordinates":[121.0481887,14.5737744]}},{"type":"Feature","properties":{"station_id":"n60618740","station_name":"Guadalupe","station_name_local":"Guadalupe","network":"MRT Line 3","network_local":"MRT Line 3","operator":"Metro Rail Transit Corporation","city":"Manila","country":"Philippines","lines":["3"],"wikidata":"Q5613240"},"geometry":{"type":"Point","coordinates":[121.0455357,14.567114]}},{"type":"Feature","properties":{"station_id":"n95496202","station_name":"Santolan-Annapolis","station_name_local":"Santolan-Annapolis","network":"MRT Line 3","network_local":"MRT Line 3","operator":"Metro Rail Transit Corporation","city":"Manila","country":"Philippines","lines":["3"],"wikidata":"Q7420578"},"geometry":{"type":"Point","coordinates":[121.056524,14.6078561]}},{"type":"Feature","properties":{"station_id":"n112320439","station_name":"Buendia","station_name_local":"Buendia","network":"MRT Line 3","network_local":"MRT Line 3","operator":"Mass Rail Transit Corporation","city":"Manila","country":"Philippines","lines":["3"],"wikidata":"Q4985497"},"geometry":{"type":"Point","coordinates":[121.0342223,14.5543705]}},{"type":"Feature","properties":{"station_id":"n112644274","station_name":"Doroteo Jose","station_name_local":"Doroteo Jose","network":"Manila LRT","network_local":"Manila LRT","operator":"Light Rail Manila Corporation","city":"Manila","country":"Philippines","lines":["1"],"wikidata":null},"geometry":{"type":"Point","coordinates":[120.9820496,14.6053092]}},{"type":"Feature","properties":{"station_id":"n113358959","station_name":"Betty Go-Belmonte","station_name_local":"Betty Go-Belmonte","network":"Manila LRT","network_local":"Manila LRT","operator":"Light Rail Transit Authority","city":"Manila","country":"Philippines","lines":["2"],"wikidata":"Q3545741"},"geometry":{"type":"Point","coordinates":[121.042706,14.6185972]}},{"type":"Feature","properties":{"station_id":"n179240108","station_name":"Recto","station_name_local":"Recto","network":"Manila LRT","network_local":"Manila LRT","operator":"Light Rail Transit Authority","city":"Manila","country":"Philippines","lines":["2"],"wikidata":"Q3547794","merged_from":3},"geometry":{"type":"Point","coordinates":[120.98348073333334,14.6035396]}},{"type":"Feature","properties":{"station_id":"n179251377","station_name":"Central Terminal","station_name_local":"Central Terminal","network":"Manila LRT","network_local":"Manila LRT","operator":"Light Rail Manila Corporation","city":"Manila","country":"Philippines","lines":["1"],"wikidata":"Q5061908"},"geometry":{"type":"Point","coordinates":[120.9816199,14.5927962]}},{"type":"Feature","properties":{"station_id":"n184582280","station_name":"Araneta Center - Cubao","station_name_local":"Araneta Center - Cubao","network":"Manila LRT","network_local":"Manila LRT","operator":"Light Rail Transit Authority","city":"Manila","country":"Philippines","lines":["2"],"wikidata":"Q4784087","merged_from":3},"geometry":{"type":"Point","coordinates":[121.05277256666666,14.622753533333332]}},{"type":"Feature","properties":{"station_id":"n187134601","station_name":"Bambang","station_name_local":"Bambang","network":"Manila LRT","network_local":"Manila LRT","operator":"Light Rail Manila Corporation","city":"Manila","country":"Philippines","lines":["1"],"wikidata":null},"geometry":{"type":"Point","coordinates":[120.982487,14.6111327]}},{"type":"Feature","properties":{"station_id":"n188168853","station_name":"J. Ruiz","station_name_local":"J. Ruiz","network":"Manila LRT","network_local":"Manila LRT","operator":"Light Rail Transit Authority","city":"Manila","country":"Philippines","lines":["2"],"wikidata":"Q3547809","merged_from":3},"geometry":{"type":"Point","coordinates":[121.02607596666667,14.610556699999998]}},{"type":"Feature","properties":{"station_id":"n188168854","station_name":"Pureza","station_name_local":"Pureza","network":"Manila LRT","network_local":"Manila LRT","operator":"Light Rail Transit Authority","city":"Manila","country":"Philippines","lines":["2"],"wikidata":"Q3545800","merged_from":3},"geometry":{"type":"Point","coordinates":[121.00505783333334,14.6016898]}},{"type":"Feature","properties":{"station_id":"n188169761","station_name":"Gilmore","station_name_local":"Gilmore","network":"Manila LRT","network_local":"Manila LRT","operator":"Light Rail Transit Authority","city":"Manila","country":"Philippines","lines":["2"],"wikidata":null,"merged_from":3},"geometry":{"type":"Point","coordinates":[121.03409836666667,14.613507366666667]}},{"type":"Feature","properties":{"station_id":"n222628889","station_name":"Taft Avenue","station_name_local":"Taft Avenue","network":"MRT Line 3","network_local":"MRT Line 3","operator":"Metro Rail Transit Corporation","city":"Manila","country":"Philippines","lines":["3"],"wikidata":"Q3706982"},"geometry":{"type":"Point","coordinates":[121.0018185,14.5375644]}},{"type":"Feature","properties":{"station_id":"n222628890","station_name":"Magallanes","station_name_local":"Magallanes","network":"MRT Line 3","network_local":"MRT Line 3","operator":"Metro Rail Transit Corporation","city":"Manila","country":"Philippines","lines":["3"],"wikidata":"Q3551682"},"geometry":{"type":"Point","coordinates":[121.0193919,14.5419448]}},{"type":"Feature","properties":{"station_id":"n222628891","station_name":"EDSA","station_name_local":"EDSA","network":"Manila LRT","network_local":"Manila LRT","operator":"Light Rail Manila Corporation","city":"Manila","country":"Philippines","lines":["1"],"wikidata":"Q3544822"},"geometry":{"type":"Point","coordinates":[121.0006192,14.5388434]}},{"type":"Feature","properties":{"station_id":"n288010747","station_name":"Tayuman","station_name_local":"Tayuman","network":"Manila LRT","network_local":"Manila LRT","operator":"Light Rail Manila Corporation","city":"Manila","country":"Philippines","lines":["1"],"wikidata":"Q3545738"},"geometry":{"type":"Point","coordinates":[120.9827226,14.6167151]}},{"type":"Feature","properties":{"station_id":"n288085179","station_name":"Blumentritt","station_name_local":"Blumentritt","network":"Manila LRT","network_local":"Manila LRT","operator":"Light Rail Manila Corporation","city":"Manila","country":"Philippines","lines":["1"],"wikidata":null},"geometry":{"type":"Point","coordinates":[120.9828902,14.6227839]}},{"type":"Feature","properties":{"station_id":"n288085512","station_name":"Abad Santos","station_name_local":"Abad Santos","network":"Manila LRT","network_local":"Manila LRT","operator":"Light Rail Manila Corporation","city":"Manila","country":"Philippines","lines":["1"],"wikidata":null},"geometry":{"type":"Point","coordinates":[120.9814053,14.6306063]}},{"type":"Feature","properties":{"station_id":"n288086563","station_name":"5th Avenue","station_name_local":"5th Avenue","network":"Manila LRT","network_local":"Manila LRT","operator":"Light Rail Manila Corporation","city":"Manila","country":"Philippines","lines":["1"],"wikidata":"Q4641238"},"geometry":{"type":"Point","coordinates":[120.9835359,14.6444062]}},{"type":"Feature","properties":{"station_id":"n288086841","station_name":"Yamaha Monumento","station_name_local":"Yamaha Monumento","network":"Manila LRT","network_local":"Manila LRT","operator":"Light Rail Manila Corporation","city":"Manila","country":"Philippines","lines":["1"],"wikidata":"Q6906948"},"geometry":{"type":"Point","coordinates":[120.9838745,14.6543118]}},{"type":"Feature","properties":{"station_id":"n288087278","station_name":"R. Papa","station_name_local":"R. Papa","network":"Manila LRT","network_local":"Manila LRT","operator":"Light Rail Manila Corporation","city":"Manila","country":"Philippines","lines":["1"],"wikidata":"Q7273909"},"geometry":{"type":"Point","coordinates":[120.9822793,14.6360145]}},{"type":"Feature","properties":{"station_id":"n288089644","station_name":"Carriedo","station_name_local":"Carriedo","network":"Manila LRT","network_local":"Manila LRT","operator":"Light Rail Manila Corporation","city":"Manila","country":"Philippines","lines":["1"],"wikidata":null},"geometry":{"type":"Point","coordinates":[120.9813635,14.5991704]}},{"type":"Feature","properties":{"station_id":"n288126518","station_name":"Vito Cruz","station_name_local":"Vito Cruz","network":"Manila LRT","network_local":"Manila LRT","operator":"Light Rail Manila Corporation","city":"Manila","country":"Philippines","lines":["1"],"wikidata":"Q3706986"},"geometry":{"type":"Point","coordinates":[120.9947509,14.5634699]}},{"type":"Feature","properties":{"station_id":"n288126519","station_name":"Pedro Gil","station_name_local":"Pedro Gil","network":"Manila LRT","network_local":"Manila LRT","operator":"Light Rail Manila Corporation","city":"Manila","country":"Philippines","lines":["1"],"wikidata":"Q3706989"},"geometry":{"type":"Point","coordinates":[120.9880197,14.5765754]}},{"type":"Feature","properties":{"station_id":"n288127159","station_name":"Gil Puyat","station_name_local":"Gil Puyat","network":"Manila LRT","network_local":"Manila LRT","operator":"Light Rail Manila Corporation","city":"Manila","country":"Philippines","lines":["1"],"wikidata":"Q5560598"},"geometry":{"type":"Point","coordinates":[120.9971661,14.5541814]}},{"type":"Feature","properties":{"station_id":"n290088413","station_name":"Libertad","station_name_local":"Libertad","network":"Manila LRT","network_local":"Manila LRT","operator":"Light Rail Manila Corporation","city":"Manila","country":"Philippines","lines":["1"],"wikidata":"Q11843242"},"geometry":{"type":"Point","coordinates":[120.9986373,14.5477514]}},{"type":"Feature","properties":{"station_id":"n290189159","station_name":"Baclaran","station_name_local":"Baclaran","network":"Manila LRT","network_local":"Manila LRT","operator":"Light Rail Manila Corporation","city":"Manila","country":"Philippines","lines":["1"],"wikidata":"Q4839901"},"geometry":{"type":"Point","coordinates":[120.998398,14.5342877]}},{"type":"Feature","properties":{"station_id":"n402882917","station_name":"Balintawak","station_name_local":"Balintawak","network":"Manila LRT","network_local":"Manila LRT","operator":"Light Rail Manila Corporation","city":"Manila","country":"Philippines","lines":["1"],"wikidata":"Q4850961"},"geometry":{"type":"Point","coordinates":[121.0038959,14.6574243]}},{"type":"Feature","properties":{"station_id":"n402882918","station_name":"Fernando Poe Jr.","station_name_local":"Fernando Poe Jr.","network":"Manila LRT","network_local":"Manila LRT","operator":"Light Rail Manila Corporation","city":"Manila","country":"Philippines","lines":["1"],"wikidata":null},"geometry":{"type":"Point","coordinates":[121.0211373,14.657559]}},{"type":"Feature","properties":{"station_id":"n513224845","station_name":"Marikina-Pasig","station_name_local":"Marikina-Pasig","network":"Manila LRT","network_local":"Manila LRT","operator":"Light Rail Transit Authority","city":"Manila","country":"Philippines","lines":["2"],"wikidata":"Q5370456","merged_from":3},"geometry":{"type":"Point","coordinates":[121.10063006666667,14.6204611]}},{"type":"Feature","properties":{"station_id":"n564479403","station_name":"North Triangle Common Station","station_name_local":"North Triangle Common Station","network":"Manila LRT and Manila MRT","network_local":"Manila LRT and Manila MRT","operator":null,"city":"Manila","country":"Philippines","lines":["3"],"wikidata":"Q7054028"},"geometry":{"type":"Point","coordinates":[121.0311051,14.6550049]}},{"type":"Feature","properties":{"station_id":"n576938325","station_name":"Antipolo","station_name_local":"Antipolo","network":"Manila LRT","network_local":"Manila LRT","operator":"Light Rail Transit Authority","city":"Manila","country":"Philippines","lines":["2"],"wikidata":"Q16786991","merged_from":3},"geometry":{"type":"Point","coordinates":[121.12134916666666,14.624792133333335]}},{"type":"Feature","properties":{"station_id":"n586033800","station_name":"PITX","station_name_local":"PITX","network":"Manila LRT","network_local":"Manila LRT","operator":"Light Rail Manila Corporation","city":"Manila","country":"Philippines","lines":["1"],"wikidata":"Q4806495"},"geometry":{"type":"Point","coordinates":[120.9912791,14.5083101]}},{"type":"Feature","properties":{"station_id":"n797744977","station_name":"MIA Road","station_name_local":"MIA Road","network":"Manila LRT","network_local":"Manila LRT","operator":"Light Rail Manila Corporation","city":"Manila","country":"Philippines","lines":["1"],"wikidata":"Q6749690"},"geometry":{"type":"Point","coordinates":[120.9929872,14.5184318]}},{"type":"Feature","properties":{"station_id":"n798212098","station_name":"Ninoy Aquino Avenue","station_name_local":"Ninoy Aquino Avenue","network":"Manila LRT","network_local":"Manila LRT","operator":"Light Rail Manila Corporation","city":"Manila","country":"Philippines","lines":["1"],"wikidata":"Q17082281"},"geometry":{"type":"Point","coordinates":[120.9943732,14.4988903]}},{"type":"Feature","properties":{"station_id":"n900558095","station_name":"Redemptorist–Aseana","station_name_local":"Redemptorist–Aseana","network":"Manila LRT","network_local":"Manila LRT","operator":"Light Rail Manila Corporation","city":"Manila","country":"Philippines","lines":["1"],"wikidata":"Q7305783"},"geometry":{"type":"Point","coordinates":[120.9929379,14.5302786]}},{"type":"Feature","properties":{"station_id":"n923624587","station_name":"Dr. Santos","station_name_local":"Dr. Santos","network":"Manila LRT","network_local":"Manila LRT","operator":"Light Rail Manila Corporation","city":"Manila","country":"Philippines","lines":["1"],"wikidata":"Q5304374"},"geometry":{"type":"Point","coordinates":[120.9895723,14.4852337]}},{"type":"Feature","properties":{"station_id":"n5397325070","station_name":"Betty Go - Belmonte","station_name_local":"Betty Go - Belmonte","network":"Manila LRT","network_local":"Manila LRT","operator":"Light Rail Transit Authority","city":"Manila","country":"Philippines","lines":["2"],"wikidata":null,"merged_from":2},"geometry":{"type":"Point","coordinates":[121.04274515,14.6185922]}},{"type":"Feature","properties":{"station_id":"n5397330370","station_name":"V. Mapa","station_name_local":"V. Mapa","network":"Manila LRT","network_local":"Manila LRT","operator":"Light Rail Transit Authority","city":"Manila","country":"Philippines","lines":["2"],"wikidata":null,"merged_from":2},"geometry":{"type":"Point","coordinates":[121.01703745,14.604015650000001]}}]}