{"type":"FeatureCollection","metro_system":{"continent":"asia","country":"China","city":"Changchun","osm_networks":["Changchun Rail Transit","Unknown","长春轨道交通"],"operator":"长春市轨道交通集团","official_website":null,"official_map":"https://en.wikipedia.org/wiki/Line_1_(Changchun_Subway)","wikidata":"Q15913092","line_count":3,"station_count":104},"features":[{"type":"Feature","properties":{"route_id":"rm7949339","route_name":"Line 1","route_name_local":"长春轨道交通1号线","route_ref":"1","route_color":"#e50011","network":"Changchun Rail Transit","network_local":"长春轨道交通","operator":"长春市轨道交通集团","city":"Changchun","country":"China","wikidata":"Q15913092","wikipedia":"en:Line 1 (Changchun Subway)","osm_route_ids":[7875901,9650341]},"geometry":{"type":"MultiLineString","coordinates":[[[125.317495,43.9459044],[125.3174935,43.9453074],[125.3175539,43.9346093],[125.3175539,43.9345182],[125.3175648,43.9227033],[125.317572,43.918091],[125.3175596,43.9164966],[125.3175761,43.9160033],[125.3175754,43.9154089],[125.3175349,43.9150307],[125.3174453,43.91474],[125.3172667,43.9143624],[125.3170326,43.9138873],[125.3168705,43.9133409],[125.3165653,43.9123968],[125.3165943,43.9116541],[125.3166208,43.9109155],[125.3166329,43.9105384],[125.3166293,43.9099173],[125.316632,43.908912],[125.3166627,43.9085635],[125.316676,43.9081855],[125.31668,43.9077633],[125.3166937,43.9072733],[125.316726,43.9068156],[125.3167557,43.9063326],[125.3167641,43.906247],[125.3168151,43.9061234],[125.3170538,43.905934],[125.3173569,43.9057871],[125.3175196,43.905656],[125.3175479,43.9055766],[125.3175529,43.9054605],[125.3175618,43.9048666],[125.3176736,43.8981937],[125.317682,43.8978592],[125.3177998,43.893173],[125.3179527,43.8873433],[125.3179704,43.8864735],[125.3179825,43.885308],[125.3179883,43.884753],[125.3180195,43.8817442],[125.3181592,43.8758339],[125.3185403,43.8616582],[125.3188407,43.8485746],[125.3190419,43.8377627],[125.3192381,43.8303151],[125.3195829,43.8171781],[125.3195895,43.8170287],[125.3196988,43.8139224],[125.3197856,43.8100742],[125.3198766,43.8059983],[125.3200124,43.7975539],[125.320048,43.7943324],[125.3201889,43.7931765],[125.3203526,43.7918572],[125.320407,43.7911226],[125.3205483,43.7903764],[125.3207512,43.7895652],[125.320823,43.789151],[125.3208829,43.7885674],[125.3209332,43.7872104],[125.3209537,43.786331]],[[125.3211281,43.7863271],[125.3211137,43.7872139],[125.3210633,43.788574],[125.3210028,43.7891639],[125.3209298,43.7895849],[125.3207267,43.7903969],[125.320587,43.7911349],[125.3205328,43.7918665],[125.3203687,43.7931881],[125.3202284,43.7943395],[125.320193,43.7975557],[125.3200572,43.8059998],[125.3199662,43.8100763],[125.3198793,43.8139251],[125.31977,43.8170324],[125.3197634,43.8171814],[125.3194187,43.8303176],[125.3192225,43.8377648],[125.3190213,43.8485765],[125.3187209,43.8616605],[125.3183398,43.8758362],[125.3182001,43.8817458],[125.3181689,43.884754],[125.3181631,43.885309],[125.318151,43.8864749],[125.3181333,43.8873455],[125.3179804,43.8931753],[125.3178626,43.8978615],[125.3178542,43.8981956],[125.3177424,43.9048681],[125.3177335,43.9054632],[125.3177277,43.905595],[125.3176797,43.9057299],[125.3174964,43.9058605],[125.3172228,43.9059842],[125.3170025,43.9061453],[125.3169438,43.9062528],[125.3169358,43.9063495],[125.3169064,43.9068216],[125.3168741,43.9072779],[125.3168606,43.907765],[125.3168566,43.9081876],[125.3168431,43.9085693],[125.3168126,43.9089162],[125.3168099,43.9099171],[125.3168135,43.9105396],[125.3168013,43.9109187],[125.3167748,43.9116576],[125.3167461,43.912393],[125.3170495,43.9133217],[125.3172067,43.9138518],[125.3174372,43.9143196],[125.3176194,43.9147048],[125.3177139,43.9150115],[125.317756,43.9154042],[125.3177567,43.9159874],[125.3177403,43.9164806],[125.3177526,43.9180913],[125.3177453,43.9227033],[125.3177344,43.9345182],[125.3177344,43.9346091],[125.3177023,43.9403055],[125.3176741,43.9453072],[125.317664,43.9459054]]]}},{"type":"Feature","properties":{"route_id":"rm9642906","route_name":"Changchun Subway Line 2","route_name_local":"长春轨道交通2号线","route_ref":"2","route_color":"#3b6a96","network":"Changchun Rail Transit","network_local":"长春轨道交通","operator":"长春市轨道交通集团","city":"Changchun","country":"China","wikidata":"Q15913266","wikipedia":"en:Line 2 (Changchun Rail Transit)","osm_route_ids":[9642904,9689345]},"geometry":{"type":"MultiLineString","coordinates":[[[125.1658818,43.8309415],[125.165509,43.8315258],[125.1652703,43.8318741],[125.1651281,43.8320579],[125.1648492,43.8324294],[125.164302,43.8330408],[125.1633364,43.8342869],[125.1626819,43.8354303],[125.1623198,43.8363126],[125.1621374,43.836893],[125.1620114,43.8374734],[125.1618156,43.8392011],[125.1613194,43.8447029],[125.1612389,43.8459835],[125.161255,43.8466741],[125.1612979,43.8473724],[125.1613676,43.8487033],[125.1614159,43.8500147],[125.1614159,43.8506685],[125.1614749,43.8514151],[125.1616627,43.8518987],[125.1619309,43.8523784],[125.1623011,43.8528078],[125.1626866,43.8531206],[125.1632564,43.8534805],[125.1641296,43.8540664],[125.1648955,43.8548054],[125.1654204,43.8554924],[125.1657492,43.8562508],[125.1659437,43.8569623],[125.166152,43.857426],[125.1666952,43.8580174],[125.1673697,43.8585168],[125.1684111,43.859256],[125.1692258,43.8597971],[125.1710764,43.8611652]],[[125.1710764,43.8611652],[125.1752338,43.8633069],[125.1777865,43.8647338],[125.1801335,43.8659506],[125.1808122,43.8663105],[125.1824596,43.8671305],[125.1841794,43.8680568],[125.1862732,43.8693158],[125.1873605,43.8699577],[125.1890085,43.8709108],[125.1950687,43.8740501],[125.2016336,43.8776634],[125.2046359,43.8791965],[125.208058,43.8807257],[125.2105564,43.8812291],[125.2138667,43.8814954],[125.215534,43.8815255],[125.2170152,43.8815235],[125.2322749,43.881571],[125.2336212,43.8815865],[125.2483863,43.8817565],[125.2596863,43.881892],[125.2639214,43.8819157],[125.2646359,43.8819036],[125.2651308,43.8818243],[125.2657262,43.8816587],[125.2657632,43.8816454],[125.2696503,43.8802596],[125.2724595,43.8791917],[125.2761571,43.8778922],[125.2802644,43.8763267],[125.2816082,43.8758107],[125.2821445,43.8756493],[125.282682,43.8755112],[125.2834013,43.8753938],[125.2840772,43.8753234],[125.2850001,43.8752994],[125.2901445,43.875375],[125.3012714,43.8754869],[125.3185777,43.8756987],[125.3276501,43.8758018],[125.3324522,43.8758653],[125.3327845,43.8758772],[125.3331478,43.8759804],[125.338364,43.8780116],[125.3415344,43.8792517],[125.3418903,43.8793185],[125.342715,43.8793778],[125.3572625,43.8795651],[125.3578656,43.8795711],[125.3581185,43.8795747],[125.3701589,43.8796928],[125.388097,43.8799209],[125.3965768,43.8799621],[125.3984569,43.8799316],[125.4033617,43.8797689],[125.4147844,43.8794498],[125.419515,43.879233]],[[125.419515,43.879233],[125.4208928,43.879167]],[[125.547201,43.8892302],[125.5447039,43.8892371],[125.5374726,43.8892757],[125.5273714,43.8892757],[125.5256066,43.8892757],[125.5160257,43.8892525],[125.5066165,43.889036],[125.5056295,43.889036],[125.5039343,43.889036],[125.4848906,43.8892448],[125.4832221,43.8892316],[125.4809853,43.8892139],[125.4720911,43.8890051],[125.4676172,43.8889742],[125.4667827,43.8889971],[125.4650852,43.8890438],[125.4582509,43.8892061],[125.456706,43.8891752],[125.4551074,43.8888582],[125.4521248,43.8879613],[125.4437455,43.8855024],[125.4413745,43.8845977],[125.4391965,43.8833372],[125.4378196,43.882556],[125.436525,43.8818216],[125.434862,43.8812727],[125.428017,43.8808898],[125.422996,43.8795828],[125.4208928,43.879167]],[[125.5472064,43.8893495],[125.5445,43.8893531],[125.5286321,43.8894226],[125.5273714,43.8894097],[125.5256173,43.8893917],[125.5159828,43.8893299],[125.5066702,43.8891675],[125.5056295,43.8891645],[125.5039558,43.8891598],[125.4923901,43.8893144],[125.4850837,43.8893685],[125.4832196,43.8893637],[125.4821119,43.8893608],[125.4683789,43.8890747],[125.4667857,43.8891134],[125.4651925,43.889152],[125.4577789,43.8893221],[125.4564485,43.889268],[125.4549679,43.8889665],[125.449346,43.8872576],[125.4437885,43.8856416],[125.4412779,43.8847523],[125.4390141,43.8834919],[125.4376389,43.8827209],[125.4365036,43.8820845],[125.4346046,43.8814813],[125.4278776,43.8810328],[125.4229101,43.879722],[125.420917,43.8792908]],[[125.420917,43.8792908],[125.4195264,43.879363]],[[125.4195264,43.879363],[125.4147937,43.8795799],[125.4033694,43.879899],[125.3984631,43.8800617],[125.3965774,43.8800924],[125.3880944,43.8800512],[125.3701564,43.8798231],[125.3581154,43.879705],[125.3578625,43.8797014],[125.3572596,43.8796954],[125.3427044,43.8795079],[125.3418584,43.8794471],[125.3414675,43.8793737],[125.338278,43.8781261],[125.3330714,43.8760987],[125.3327459,43.8760062],[125.332446,43.8759955],[125.327647,43.8759321],[125.3185748,43.875829],[125.3012687,43.8756172],[125.2901414,43.8755053],[125.2850015,43.8754297],[125.2840934,43.8754533],[125.2834342,43.875522],[125.2827325,43.8756365],[125.2822097,43.8757709],[125.2816857,43.8759286],[125.2803491,43.8764417],[125.2762389,43.8780084],[125.2725413,43.8793079],[125.2697325,43.8803756],[125.2658433,43.8817622],[125.265799,43.881778],[125.2651832,43.8819494],[125.2646578,43.8820335],[125.2639228,43.882046],[125.2596841,43.8820223],[125.2483832,43.8818868],[125.2336183,43.8817168],[125.2322731,43.8817013],[125.217015,43.8816538],[125.2155319,43.8816558],[125.2138544,43.8816255],[125.2105218,43.8813573],[125.2079846,43.8808461],[125.204536,43.8793051],[125.2015265,43.8777684],[125.1949612,43.8741547],[125.1888987,43.8710143],[125.1872684,43.870059],[125.1861587,43.8694166],[125.1840674,43.8681591],[125.1823542,43.8672363],[125.1807063,43.8664161],[125.1800436,43.8660546],[125.1776785,43.8648382],[125.1751255,43.8634111],[125.1709674,43.8612692]],[[125.1709674,43.8612692],[125.1690977,43.8598788],[125.1682556,43.8593257],[125.1672417,43.8586256],[125.1665454,43.85813],[125.1659864,43.8575309],[125.1657418,43.8569961],[125.1655273,43.8562758],[125.165222,43.8555504],[125.164704,43.8548734],[125.1639694,43.854154],[125.1631236,43.8535937],[125.1625854,43.8532372],[125.1621401,43.8528581],[125.1618129,43.8524287],[125.1615125,43.8519412],[125.1613301,43.85145],[125.1612657,43.8506995],[125.1612496,43.8500225],[125.1612174,43.8486801],[125.1611531,43.8473802],[125.1611102,43.846678],[125.1610619,43.8459874],[125.1611492,43.8446988],[125.1616439,43.8391817],[125.1618209,43.8374599],[125.1619604,43.8368717],[125.1621321,43.8362874],[125.1625049,43.8353936],[125.1631755,43.8342366],[125.1641357,43.833006],[125.1647258,43.8323772],[125.164994,43.832027],[125.1651335,43.8318316],[125.1653775,43.8314872],[125.1657481,43.830907]]]}},{"type":"Feature","properties":{"route_id":"rm17399102","route_name":"Changchun Rail Transit Line 6","route_name_local":"长春轨道交通6号线","route_ref":"6","route_color":"#e88f99","network":"Changchun Rail Transit","network_local":"长春轨道交通","operator":"长春市轨道交通集团","city":"Changchun","country":"China","wikidata":"Q17041527","wikipedia":null,"osm_route_ids":[17399100,17399101]},"geometry":{"type":"MultiLineString","coordinates":[[[125.168735,43.8598019],[125.1713582,43.8607834]],[[125.1713582,43.8607834],[125.1741629,43.8621862],[125.175586,43.8629885],[125.1782137,43.8643628],[125.1797127,43.8651398],[125.1810785,43.8661003],[125.1825893,43.8670224],[125.1842837,43.8679141],[125.1891331,43.8707895],[125.1921399,43.8723344],[125.1952284,43.8738919],[125.1982393,43.8755054],[125.1986021,43.8756328],[125.199001,43.8757258],[125.1992646,43.8757565],[125.1995268,43.8757683],[125.199803,43.8757587],[125.2000371,43.8757275],[125.2002456,43.8756871],[125.2004287,43.8756231],[125.2005942,43.8755285],[125.2011414,43.8751148],[125.204741,43.871824],[125.2080265,43.8695753],[125.2084921,43.8690938],[125.2088801,43.8686259],[125.2090037,43.8683767],[125.2123665,43.8627954],[125.2137291,43.8608847],[125.2162611,43.8574847],[125.2191954,43.8537326],[125.2208101,43.8514038],[125.2240717,43.8471908],[125.2269309,43.8433374],[125.2293127,43.8401338],[125.2314048,43.8379902],[125.234661,43.8360129],[125.2394836,43.832925],[125.2439415,43.8301272],[125.2496975,43.8264042],[125.2523046,43.8247555],[125.2552014,43.8229675],[125.262218,43.8173707],[125.265544,43.8146844],[125.2676808,43.8127613],[125.2683335,43.8120986],[125.2688914,43.8113786],[125.2691784,43.8109043],[125.2696317,43.8101553],[125.2698784,43.8092804],[125.2699321,43.8084984],[125.2699079,43.8020417],[125.2699106,43.79844],[125.2701037,43.7980915],[125.2706616,43.797836],[125.2712088,43.7977121],[125.2721959,43.7976037],[125.2831607,43.7976579],[125.2897798,43.7976259],[125.2990555,43.7975964],[125.3064745,43.7976037],[125.3185498,43.7975938],[125.3253894,43.7975882],[125.327385,43.7975882],[125.3336506,43.7982542],[125.3450554,43.8005231],[125.3457152,43.8004998],[125.3461363,43.8003953],[125.3464716,43.8002753],[125.3488105,43.7980296],[125.3513103,43.7956212],[125.3521257,43.7946299],[125.3526836,43.7939329],[125.3529625,43.793081],[125.353128,43.7913021],[125.3534668,43.7876596],[125.3540354,43.7867147],[125.3545397,43.786157],[125.35528,43.7856729],[125.3558861,43.7853457],[125.356385,43.7851966],[125.3570086,43.78512],[125.3609019,43.7849642],[125.3654241,43.784879],[125.3705793,43.7848674],[125.3710406,43.784848],[125.3712659,43.7847822],[125.3714698,43.7846234],[125.3716146,43.7844297],[125.3716683,43.7842826],[125.3717058,43.7827218],[125.3717434,43.7786434],[125.3718668,43.7753975],[125.371856,43.7725234],[125.3718882,43.7706059],[125.371915,43.7703309],[125.3720706,43.7701682],[125.3723549,43.7700752],[125.3729933,43.7700442],[125.3804284,43.7701604],[125.3854548,43.7702108],[125.3875845,43.7702147],[125.3885648,43.7700646],[125.3954313,43.7692743],[125.3980009,43.7690225],[125.4022334,43.7685615],[125.4091696,43.7677945],[125.4129086,43.7673761],[125.414652,43.7671514],[125.4158644,43.7671127],[125.4215973,43.7670246],[125.4243001,43.7669907],[125.434885,43.766858],[125.4387634,43.7668348],[125.4394125,43.7669471],[125.4398601,43.7670804],[125.440534,43.767281]],[[125.4404287,43.7674599],[125.4397128,43.7672367],[125.4392951,43.7671065],[125.4387801,43.7669903],[125.4377502,43.766936],[125.4348641,43.7669593],[125.4259914,43.7670949],[125.4242739,43.7671069],[125.4215604,43.7671258],[125.4158328,43.7672178],[125.4146392,43.7672275],[125.4125551,43.7675142],[125.4022179,43.7686424],[125.3947587,43.7694734],[125.3885561,43.7701484],[125.3874993,43.770314],[125.3805416,43.7702636],[125.3734445,43.7701745],[125.3729027,43.77019],[125.3725379,43.770252],[125.372259,43.7703721],[125.3721034,43.7705425],[125.3720498,43.7707827],[125.3720283,43.7714412],[125.3719639,43.7754039],[125.3719157,43.7778828],[125.3718459,43.7820813],[125.371803,43.7843043],[125.3717172,43.7845251],[125.371567,43.7847458],[125.3712987,43.7849278],[125.3707891,43.7849898],[125.3691852,43.7849666],[125.3635579,43.7850169],[125.3608757,43.7850595],[125.3569489,43.7852106],[125.356096,43.7853964],[125.3556293,43.7855823],[125.3551733,43.7858457],[125.3547967,43.7861052],[125.3547012,43.786171],[125.3544062,43.7864305],[125.354079,43.7868061],[125.3538,43.7872863],[125.3536015,43.7876852],[125.3535264,43.7885139],[125.353226,43.7920766],[125.3531295,43.7930253],[125.3529739,43.7937417],[125.3526359,43.7942838],[125.3513968,43.7957165],[125.3500235,43.7970794],[125.3488969,43.7981481],[125.3467029,43.800328],[125.3462201,43.8005525],[125.3455817,43.8007152],[125.3450453,43.8007152],[125.3421539,43.8001383],[125.3365105,43.7989961],[125.3336137,43.7984153],[125.328319,43.7978461],[125.3270852,43.7977454],[125.3246927,43.7977454],[125.3185182,43.7977648],[125.3064419,43.7977473],[125.2990439,43.797752],[125.2912831,43.797757],[125.2897536,43.7977549],[125.2855914,43.7977493],[125.2778774,43.7977183],[125.2740848,43.7977222],[125.2721428,43.7977532],[125.2711343,43.7978577],[125.2707856,43.7979661],[125.2705067,43.7981133],[125.2702599,43.7982643],[125.2701365,43.798454],[125.2700722,43.7986979],[125.2701379,43.8020664],[125.2700239,43.8084621],[125.269981,43.8093021],[125.2697771,43.8101809],[125.2692997,43.8109745],[125.2689915,43.8113639],[125.2684521,43.8120778],[125.2677869,43.8127745],[125.2677382,43.8128179],[125.2662313,43.8141603],[125.2637422,43.8162544],[125.2602767,43.8189872],[125.2574068,43.8213482],[125.2552717,43.8230705],[125.2538877,43.8238562],[125.250256,43.826128],[125.246399,43.8286203],[125.2440011,43.8301992],[125.2409219,43.8321031],[125.2383416,43.83374],[125.2347207,43.8360889],[125.2329826,43.8371491],[125.2314591,43.8380623],[125.2307617,43.8387394],[125.2294582,43.840113],[125.2291256,43.8405347],[125.2268457,43.8435681],[125.2257192,43.8450963],[125.2241528,43.8472513],[125.2229082,43.8488374],[125.220977,43.8513365],[125.219652,43.8532398],[125.2177315,43.8556768],[125.2163529,43.8575722],[125.2148562,43.8595256],[125.2132791,43.8616529],[125.2120292,43.8636023],[125.2091531,43.8684161],[125.2089997,43.868667],[125.2085675,43.8691307],[125.2081176,43.8696186],[125.2076599,43.8700842],[125.2049079,43.8718515],[125.2039477,43.87271],[125.2012654,43.8752042],[125.2006432,43.875649],[125.2004582,43.8757449],[125.2002301,43.8758307],[125.1999485,43.8758841],[125.1996508,43.8759158],[125.1993048,43.8759054],[125.199007,43.8758694],[125.1985618,43.8757662],[125.1981702,43.8756257],[125.1951487,43.8739765],[125.189056,43.8708537],[125.184212,43.8680017],[125.1825088,43.8671037],[125.180996,43.8661607],[125.1796274,43.8652209],[125.178126,43.8644431],[125.175519,43.8630736],[125.1740994,43.8622682],[125.1712731,43.860869]],[[125.1712731,43.860869],[125.1687113,43.8598334]]]}},{"type":"Feature","properties":{"station_id":"n6514090354","station_name":"Jilin Avenue","station_name_local":"吉林大路","network":"Unknown","network_local":null,"operator":null,"city":"Changchun","country":"China","lines":null,"wikidata":null},"geometry":{"type":"Point","coordinates":[125.3581164,43.8796494]}},{"type":"Feature","properties":{"station_id":"n6520150612","station_name":"North Ring Road","station_name_local":"北环城路","network":"Unknown","network_local":null,"operator":null,"city":"Changchun","country":"China","lines":null,"wikidata":null},"geometry":{"type":"Point","coordinates":[125.3175793,43.9453546]}},{"type":"Feature","properties":{"station_id":"n6520150614","station_name":"Qingfeng Road","station_name_local":"庆丰路","network":"Unknown","network_local":null,"operator":null,"city":"Changchun","country":"China","lines":null,"wikidata":null},"geometry":{"type":"Point","coordinates":[125.3176654,43.9345382]}},{"type":"Feature","properties":{"station_id":"n6520150615","station_name":"Yikuang Street","station_name_local":"一匡街","network":"Unknown","network_local":null,"operator":null,"city":"Changchun","country":"China","lines":null,"wikidata":null},"geometry":{"type":"Point","coordinates":[125.3176137,43.9227503]}},{"type":"Feature","properties":{"station_id":"n6520150616","station_name":"Changchun Railway Station (North)","station_name_local":"长春站北","network":"Unknown","network_local":null,"operator":null,"city":"Changchun","country":"China","lines":null,"wikidata":null},"geometry":{"type":"Point","coordinates":[125.316626,43.9116038]}},{"type":"Feature","properties":{"station_id":"n6520150649","station_name":"Shengli Park","station_name_local":"胜利公园","network":"Unknown","network_local":null,"operator":null,"city":"Changchun","country":"China","lines":null,"wikidata":null},"geometry":{"type":"Point","coordinates":[125.3178059,43.8978122]}},{"type":"Feature","properties":{"station_id":"n6520150650","station_name":"RENMIN Square","station_name_local":"人民广场","network":"Unknown","network_local":null,"operator":null,"city":"Changchun","country":"China","lines":null,"wikidata":null},"geometry":{"type":"Point","coordinates":[125.3180285,43.8865794]}},{"type":"Feature","properties":{"station_id":"n6520150651","station_name":"Jiefang Avenue","station_name_local":"解放大路","network":"Unknown","network_local":null,"operator":null,"city":"Changchun","country":"China","lines":null,"wikidata":null},"geometry":{"type":"Point","coordinates":[125.3182627,43.8758652]}},{"type":"Feature","properties":{"station_id":"n6520150652","station_name":"Jiefang Avenue","station_name_local":"解放大路","network":"Unknown","network_local":null,"operator":null,"city":"Changchun","country":"China","lines":null,"wikidata":null},"geometry":{"type":"Point","coordinates":[125.3185758,43.8757666]}},{"type":"Feature","properties":{"station_id":"n6520150653","station_name":"Northeast Normal University","station_name_local":"东北师大","network":"Unknown","network_local":null,"operator":null,"city":"Changchun","country":"China","lines":null,"wikidata":null},"geometry":{"type":"Point","coordinates":[125.3185925,43.861682]}},{"type":"Feature","properties":{"station_id":"n6520150654","station_name":"Gongnong Square","station_name_local":"工农广场","network":"Unknown","network_local":null,"operator":null,"city":"Changchun","country":"China","lines":null,"wikidata":null},"geometry":{"type":"Point","coordinates":[125.3188767,43.8485811]}},{"type":"Feature","properties":{"station_id":"n6520150655","station_name":"Fanrong Road","station_name_local":"繁荣路","network":"Unknown","network_local":null,"operator":null,"city":"Changchun","country":"China","lines":null,"wikidata":null},"geometry":{"type":"Point","coordinates":[125.3190798,43.8377457]}},{"type":"Feature","properties":{"station_id":"n6520150656","station_name":"Weixing Square","station_name_local":"卫星广场","network":"Unknown","network_local":null,"operator":null,"city":"Changchun","country":"China","lines":null,"wikidata":null},"geometry":{"type":"Point","coordinates":[125.3192003,43.8302946]}},{"type":"Feature","properties":{"station_id":"n6520150657","station_name":"Municipal Government","station_name_local":"市政府","network":"Unknown","network_local":null,"operator":null,"city":"Changchun","country":"China","lines":null,"wikidata":"Q28757381"},"geometry":{"type":"Point","coordinates":[125.3196735,43.8170993]}},{"type":"Feature","properties":{"station_id":"n6520150658","station_name":"Huaqing Road","station_name_local":"华庆路","network":"Unknown","network_local":null,"operator":null,"city":"Changchun","country":"China","lines":null,"wikidata":"Q31450350"},"geometry":{"type":"Point","coordinates":[125.3199584,43.7976958]}},{"type":"Feature","properties":{"station_id":"n6520150659","station_name":"Hongzuizi","station_name_local":"红嘴子","network":"Unknown","network_local":null,"operator":null,"city":"Changchun","country":"China","lines":null,"wikidata":null},"geometry":{"type":"Point","coordinates":[125.3210241,43.7873109]}},{"type":"Feature","properties":{"station_id":"n6520538354","station_name":"Shuangfeng","station_name_local":"双丰","network":"Unknown","network_local":null,"operator":null,"city":"Changchun","country":"China","lines":null,"wikidata":null},"geometry":{"type":"Point","coordinates":[125.1777328,43.8647797]}},{"type":"Feature","properties":{"station_id":"n6520538355","station_name":"Changchun West Railway Station","station_name_local":"长春西站","network":"Unknown","network_local":null,"operator":null,"city":"Changchun","country":"China","lines":null,"wikidata":null},"geometry":{"type":"Point","coordinates":[125.1950178,43.8741034]}},{"type":"Feature","properties":{"station_id":"n6520538356","station_name":"Xinglongpu","station_name_local":"兴隆堡","network":"Unknown","network_local":null,"operator":null,"city":"Changchun","country":"China","lines":null,"wikidata":null},"geometry":{"type":"Point","coordinates":[125.2169649,43.8816153]}},{"type":"Feature","properties":{"station_id":"n6520538357","station_name":"West Ring Road","station_name_local":"西环城路","network":"Unknown","network_local":null,"operator":null,"city":"Changchun","country":"China","lines":null,"wikidata":null},"geometry":{"type":"Point","coordinates":[125.2336196,43.8816508]}},{"type":"Feature","properties":{"station_id":"n6520538358","station_name":"Heping Street","station_name_local":"和平大街","network":"Unknown","network_local":null,"operator":null,"city":"Changchun","country":"China","lines":null,"wikidata":null},"geometry":{"type":"Point","coordinates":[125.2483808,43.8818194]}},{"type":"Feature","properties":{"station_id":"n6520538359","station_name":"Wanfu Street","station_name_local":"万福街","network":"Unknown","network_local":null,"operator":null,"city":"Changchun","country":"China","lines":null,"wikidata":null},"geometry":{"type":"Point","coordinates":[125.2596844,43.8819579]}},{"type":"Feature","properties":{"station_id":"n6520538365","station_name":"Jingyang Square","station_name_local":"景阳广场","network":"Unknown","network_local":null,"operator":null,"city":"Changchun","country":"China","lines":null,"wikidata":null},"geometry":{"type":"Point","coordinates":[125.2696886,43.880319]}},{"type":"Feature","properties":{"station_id":"n6520538366","station_name":"Jiefang Overpass","station_name_local":"解放桥","network":"Unknown","network_local":null,"operator":null,"city":"Changchun","country":"China","lines":null,"wikidata":null},"geometry":{"type":"Point","coordinates":[125.280305,43.8763865]}},{"type":"Feature","properties":{"station_id":"n6520538367","station_name":"Jianshe Square","station_name_local":"建设广场","network":"长春轨道交通","network_local":"长春轨道交通","operator":"长春市轨道交通集团","city":"Changchun","country":"China","lines":null,"wikidata":"Q56256684"},"geometry":{"type":"Point","coordinates":[125.2901427,43.8754439]}},{"type":"Feature","properties":{"station_id":"n6520538368","station_name":"Wenhua Square","station_name_local":"文化广场","network":"Unknown","network_local":null,"operator":null,"city":"Changchun","country":"China","lines":null,"wikidata":null},"geometry":{"type":"Point","coordinates":[125.3012687,43.8755529]}},{"type":"Feature","properties":{"station_id":"n6520538369","station_name":"Pingyang Street","station_name_local":"平阳街","network":"Unknown","network_local":null,"operator":null,"city":"Changchun","country":"China","lines":null,"wikidata":null},"geometry":{"type":"Point","coordinates":[125.3276525,43.8758743]}},{"type":"Feature","properties":{"station_id":"n6520538370","station_name":"Nanguan","station_name_local":"南关","network":"Unknown","network_local":null,"operator":null,"city":"Changchun","country":"China","lines":null,"wikidata":null},"geometry":{"type":"Point","coordinates":[125.3383213,43.878075]}},{"type":"Feature","properties":{"station_id":"n6520538371","station_name":"Dongsheng Street","station_name_local":"东盛大街","network":"Unknown","network_local":null,"operator":null,"city":"Changchun","country":"China","lines":null,"wikidata":null},"geometry":{"type":"Point","coordinates":[125.370157,43.8797688]}},{"type":"Feature","properties":{"station_id":"n6520538372","station_name":"East Ring Road","station_name_local":"东环城路","network":"Unknown","network_local":null,"operator":null,"city":"Changchun","country":"China","lines":null,"wikidata":null},"geometry":{"type":"Point","coordinates":[125.3880963,43.8799897]}},{"type":"Feature","properties":{"station_id":"n6520538373","station_name":"Changqing","station_name_local":"长青","network":"Unknown","network_local":null,"operator":null,"city":"Changchun","country":"China","lines":null,"wikidata":null},"geometry":{"type":"Point","coordinates":[125.4033663,43.8798389]}},{"type":"Feature","properties":{"station_id":"n6520538374","station_name":"Dongfang Square","station_name_local":"东方广场","network":"Unknown","network_local":null,"operator":null,"city":"Changchun","country":"China","lines":null,"wikidata":null},"geometry":{"type":"Point","coordinates":[125.4194854,43.8793306]}},{"type":"Feature","properties":{"station_id":"n8639244234","station_name":"Nanhu Square","station_name_local":"南湖广场（吉大南湖校区）","network":"长春轨道交通","network_local":"长春轨道交通","operator":null,"city":"Changchun","country":"China","lines":null,"wikidata":null},"geometry":{"type":"Point","coordinates":[125.2844284,43.8484147]}},{"type":"Feature","properties":{"station_id":"n9160356669","station_name":"Jieda Avenue","station_name_local":"捷达大路","network":"Unknown","network_local":null,"operator":null,"city":"Changchun","country":"China","lines":null,"wikidata":null},"geometry":{"type":"Point","coordinates":[125.1612429,43.8447033]}},{"type":"Feature","properties":{"station_id":"n9160356670","station_name":"West Lake","station_name_local":"西湖","network":"Unknown","network_local":null,"operator":null,"city":"Changchun","country":"China","lines":null,"wikidata":null},"geometry":{"type":"Point","coordinates":[125.1631991,43.8535296]}},{"type":"Feature","properties":{"station_id":"n9160356671","station_name":"Automobile Park","station_name_local":"汽车公园","network":"Unknown","network_local":null,"operator":null,"city":"Changchun","country":"China","lines":null,"wikidata":null},"geometry":{"type":"Point","coordinates":[125.1658063,43.8309336]}},{"type":"Feature","properties":{"station_id":"n9974877446","station_name":"Changchun Railway Station","station_name_local":"长春站","network":"Unknown","network_local":null,"operator":null,"city":"Changchun","country":"China","lines":null,"wikidata":null},"geometry":{"type":"Point","coordinates":[125.3168728,43.9068224]}},{"type":"Feature","properties":{"station_id":"n11766230931","station_name":"Changchun Movie Wonderland","station_name_local":"长影世纪城","network":"Unknown","network_local":null,"operator":null,"city":"Changchun","country":"China","lines":null,"wikidata":"Q11652988"},"geometry":{"type":"Point","coordinates":[125.440488,43.7673288]}},{"type":"Feature","properties":{"station_id":"n11766230932","station_name":"Shengbowuyuan","station_name_local":"省博物院","network":"Unknown","network_local":null,"operator":null,"city":"Changchun","country":"China","lines":null,"wikidata":null},"geometry":{"type":"Point","coordinates":[125.4242767,43.767046]}},{"type":"Feature","properties":{"station_id":"n11766230933","station_name":"Juye Dajie","station_name_local":"聚业大街","network":"Unknown","network_local":null,"operator":null,"city":"Changchun","country":"China","lines":null,"wikidata":null},"geometry":{"type":"Point","coordinates":[125.4158278,43.7671661]}},{"type":"Feature","properties":{"station_id":"n11766230934","station_name":"Yinghua Jie","station_name_local":"樱花街","network":"Unknown","network_local":null,"operator":null,"city":"Changchun","country":"China","lines":null,"wikidata":null},"geometry":{"type":"Point","coordinates":[125.4022129,43.768615]}},{"type":"Feature","properties":{"station_id":"n11766230935","station_name":"Yatai Zuqiu Jidi","station_name_local":"亚泰足球基地","network":"Unknown","network_local":null,"operator":null,"city":"Changchun","country":"China","lines":null,"wikidata":null},"geometry":{"type":"Point","coordinates":[125.3885497,43.7701219]}},{"type":"Feature","properties":{"station_id":"n11766316579","station_name":"Wujiadian","station_name_local":"吴家店","network":"Unknown","network_local":null,"operator":null,"city":"Changchun","country":"China","lines":null,"wikidata":null},"geometry":{"type":"Point","coordinates":[125.3719039,43.7753977]}},{"type":"Feature","properties":{"station_id":"n11766316580","station_name":"Fuzhi Avenue","station_name_local":"福祉大路","network":"Unknown","network_local":null,"operator":null,"city":"Changchun","country":"China","lines":null,"wikidata":null},"geometry":{"type":"Point","coordinates":[125.36088,43.7850185]}},{"type":"Feature","properties":{"station_id":"n11766316581","station_name":"Nanxi Shidi Gongyuan","station_name_local":"南溪湿地公园","network":"Unknown","network_local":null,"operator":null,"city":"Changchun","country":"China","lines":null,"wikidata":null},"geometry":{"type":"Point","coordinates":[125.3488262,43.7980955]}},{"type":"Feature","properties":{"station_id":"n11766349878","station_name":"Xinming Jie","station_name_local":"新明街","network":"Unknown","network_local":null,"operator":null,"city":"Changchun","country":"China","lines":null,"wikidata":null},"geometry":{"type":"Point","coordinates":[125.3064419,43.7977025]}},{"type":"Feature","properties":{"station_id":"n11766349879","station_name":"Guidao Jituan","station_name_local":"轨道集团","network":"Unknown","network_local":null,"operator":null,"city":"Changchun","country":"China","lines":null,"wikidata":"Q125188088"},"geometry":{"type":"Point","coordinates":[125.2990377,43.7976764]}},{"type":"Feature","properties":{"station_id":"n11766349880","station_name":"Lanraohu Gongyuan","station_name_local":"兰桡湖公园","network":"Unknown","network_local":null,"operator":null,"city":"Changchun","country":"China","lines":null,"wikidata":null},"geometry":{"type":"Point","coordinates":[125.2897519,43.7977151]}},{"type":"Feature","properties":{"station_id":"n11766349881","station_name":"Shifayuan","station_name_local":"市法院","network":"Unknown","network_local":null,"operator":null,"city":"Changchun","country":"China","lines":null,"wikidata":null},"geometry":{"type":"Point","coordinates":[125.2700537,43.8021173]}},{"type":"Feature","properties":{"station_id":"n11766349882","station_name":"Baihuayuan","station_name_local":"百花园","network":"Unknown","network_local":null,"operator":null,"city":"Changchun","country":"China","lines":null,"wikidata":null},"geometry":{"type":"Point","coordinates":[125.2692169,43.8109441]}},{"type":"Feature","properties":{"station_id":"n11766362152","station_name":"Guigu Guangchang","station_name_local":"硅谷广场","network":"Unknown","network_local":null,"operator":null,"city":"Changchun","country":"China","lines":null,"wikidata":null},"geometry":{"type":"Point","coordinates":[125.2552104,43.8230324]}},{"type":"Feature","properties":{"station_id":"n11766362153","station_name":"Guanggu Dajie","station_name_local":"光谷大街","network":"Unknown","network_local":null,"operator":null,"city":"Changchun","country":"China","lines":null,"wikidata":"Q125188083"},"geometry":{"type":"Point","coordinates":[125.2439451,43.8301689]}},{"type":"Feature","properties":{"station_id":"n11766362154","station_name":"Ouya Maichang","station_name_local":"欧亚卖场","network":"Unknown","network_local":null,"operator":null,"city":"Changchun","country":"China","lines":null,"wikidata":"Q125188082"},"geometry":{"type":"Point","coordinates":[125.2346593,43.8360508]}},{"type":"Feature","properties":{"station_id":"n11766362155","station_name":"Feiyue Guangchang","station_name_local":"飞跃广场","network":"Unknown","network_local":null,"operator":null,"city":"Changchun","country":"China","lines":null,"wikidata":"Q125188081"},"geometry":{"type":"Point","coordinates":[125.224086,43.8472287]}},{"type":"Feature","properties":{"station_id":"n11766362156","station_name":"Zhinong Dajie","station_name_local":"支农大街","network":"Unknown","network_local":null,"operator":null,"city":"Changchun","country":"China","lines":null,"wikidata":"Q125188080"},"geometry":{"type":"Point","coordinates":[125.2162808,43.8575226]}},{"type":"Feature","properties":{"station_id":"n11766362157","station_name":"Tengyue Jie","station_name_local":"腾跃街","network":"Unknown","network_local":null,"operator":null,"city":"Changchun","country":"China","lines":null,"wikidata":"Q125188079"},"geometry":{"type":"Point","coordinates":[125.2089283,43.868634]}},{"type":"Feature","properties":{"station_id":"n12180309582","station_name":"Northeast Normal University","station_name_local":"东北师大","network":"Unknown","network_local":null,"operator":null,"city":"Changchun","country":"China","lines":["1"],"wikidata":null},"geometry":{"type":"Point","coordinates":[125.3185403,43.8616582]}},{"type":"Feature","properties":{"station_id":"n12180309639","station_name":"Northeast Normal University","station_name_local":"东北师大","network":"Unknown","network_local":null,"operator":null,"city":"Changchun","country":"China","lines":["1"],"wikidata":null},"geometry":{"type":"Point","coordinates":[125.3187209,43.8616605]}},{"type":"Feature","properties":{"station_id":"n12497209131","station_name":"Shuangfeng","station_name_local":"双丰","network":"Unknown","network_local":null,"operator":null,"city":"Changchun","country":"China","lines":null,"wikidata":null},"geometry":{"type":"Point","coordinates":[125.178167,43.8644036]}},{"type":"Feature","properties":{"station_id":"n12497209132","station_name":"Changchun West Railway Station","station_name_local":"长春西站","network":"Unknown","network_local":null,"operator":null,"city":"Changchun","country":"China","lines":null,"wikidata":null},"geometry":{"type":"Point","coordinates":[125.1951883,43.8739366]}},{"type":"Feature","properties":{"station_id":"n13174729383","station_name":"Ha'erbin Dajie","station_name_local":"哈尔滨大街","network":"Unknown","network_local":null,"operator":null,"city":"Changchun","country":"China","lines":null,"wikidata":null},"geometry":{"type":"Point","coordinates":[125.4377159,43.8826451]}},{"type":"Feature","properties":{"station_id":"n13174729386","station_name":"Doujiagou","station_name_local":"窦家沟","network":"Unknown","network_local":null,"operator":null,"city":"Changchun","country":"China","lines":null,"wikidata":null},"geometry":{"type":"Point","coordinates":[125.4667803,43.8890554]}},{"type":"Feature","properties":{"station_id":"n13174729389","station_name":"Yingjun Dajie","station_name_local":"英俊大街","network":"Unknown","network_local":null,"operator":null,"city":"Changchun","country":"China","lines":null,"wikidata":null},"geometry":{"type":"Point","coordinates":[125.4832223,43.8892951]}},{"type":"Feature","properties":{"station_id":"n13174729392","station_name":"Yingkai Dajie","station_name_local":"英凯大街","network":"Unknown","network_local":null,"operator":null,"city":"Changchun","country":"China","lines":null,"wikidata":null},"geometry":{"type":"Point","coordinates":[125.5056268,43.8890979]}},{"type":"Feature","properties":{"station_id":"n13174729395","station_name":"Linxi Dajie","station_name_local":"林溪大街","network":"Unknown","network_local":null,"operator":null,"city":"Changchun","country":"China","lines":null,"wikidata":null},"geometry":{"type":"Point","coordinates":[125.5273741,43.8893376]}},{"type":"Feature","properties":{"station_id":"n13174729398","station_name":"Wukaihe Dajie","station_name_local":"雾开河大街","network":"Unknown","network_local":null,"operator":null,"city":"Changchun","country":"China","lines":null,"wikidata":null},"geometry":{"type":"Point","coordinates":[125.547201,43.8892854]}},{"type":"Feature","properties":{"station_id":"n1255815753","station_name":"Qianjinxi","station_name_local":"前进西","network":"Changchun Rail Transit","network_local":"长春轨道交通","operator":"长春轨道交通集团","city":"Changchun","country":"China","lines":null,"wikidata":"Q10899040"},"geometry":{"type":"Point","coordinates":[125.2800112,43.8297915]}},{"type":"Feature","properties":{"station_id":"n1502896512","station_name":"DONGDAQIAO Bridge","station_name_local":"东大桥","network":"长春轨道交通","network_local":"长春轨道交通","operator":"长春轨道交通集团","city":"Changchun","country":"China","lines":null,"wikidata":null},"geometry":{"type":"Point","coordinates":[125.3493586,43.8958365]}},{"type":"Feature","properties":{"station_id":"n1502896513","station_name":"省妇儿中心","station_name_local":"省妇儿中心","network":"长春轨道交通","network_local":"长春轨道交通","operator":"长春轨道交通集团","city":"Changchun","country":"China","lines":null,"wikidata":null},"geometry":{"type":"Point","coordinates":[125.3394216,43.8917901]}},{"type":"Feature","properties":{"station_id":"n1502896514","station_name":"DAJING Road","station_name_local":"大经路","network":"长春轨道交通","network_local":"长春轨道交通","operator":"长春轨道交通集团","city":"Changchun","country":"China","lines":null,"wikidata":null},"geometry":{"type":"Point","coordinates":[125.3300203,43.8882243]}},{"type":"Feature","properties":{"station_id":"n1502896515","station_name":"RENMIN Square","station_name_local":"人民广场","network":"长春轨道交通","network_local":"长春轨道交通","operator":"长春轨道交通集团","city":"Changchun","country":"China","lines":null,"wikidata":null},"geometry":{"type":"Point","coordinates":[125.3181085,43.8846885]}},{"type":"Feature","properties":{"station_id":"n1502896516","station_name":"TONGZHI Street","station_name_local":"同志街","network":"长春轨道交通","network_local":"长春轨道交通","operator":"长春轨道交通集团","city":"Changchun","country":"China","lines":null,"wikidata":null},"geometry":{"type":"Point","coordinates":[125.3124347,43.8828966]}},{"type":"Feature","properties":{"station_id":"n1502896518","station_name":"WENHUA Square","station_name_local":"文化广场","network":"长春轨道交通","network_local":"长春轨道交通","operator":"长春轨道交通集团","city":"Changchun","country":"China","lines":null,"wikidata":null},"geometry":{"type":"Point","coordinates":[125.302602,43.8770303]}},{"type":"Feature","properties":{"station_id":"n1502896519","station_name":"红旗街","station_name_local":"红旗街","network":"长春轨道交通","network_local":"长春轨道交通","operator":"长春轨道交通集团","city":"Changchun","country":"China","lines":null,"wikidata":null},"geometry":{"type":"Point","coordinates":[125.2916408,43.8673016]}},{"type":"Feature","properties":{"station_id":"n1502896520","station_name":"长影旧址博物馆","station_name_local":"长影旧址博物馆","network":"长春轨道交通","network_local":"长春轨道交通","operator":"长春轨道交通集团","city":"Changchun","country":"China","lines":null,"wikidata":null},"geometry":{"type":"Point","coordinates":[125.2888138,43.8574579]}},{"type":"Feature","properties":{"station_id":"n1502896521","station_name":"南湖广场（吉大南湖校区）","station_name_local":"南湖广场（吉大南湖校区）","network":"长春轨道交通","network_local":"长春轨道交通","operator":"长春轨道交通集团","city":"Changchun","country":"China","lines":null,"wikidata":null},"geometry":{"type":"Point","coordinates":[125.2841602,43.8475548]}},{"type":"Feature","properties":{"station_id":"n1502896522","station_name":"南湖广场（吉大南湖校区）","station_name_local":"南湖广场（吉大南湖校区）","network":"长春轨道交通","network_local":"长春轨道交通","operator":"长春轨道交通集团","city":"Changchun","country":"China","lines":null,"wikidata":null},"geometry":{"type":"Point","coordinates":[125.2861228,43.8485797]}},{"type":"Feature","properties":{"station_id":"n1502896523","station_name":"省委党校","station_name_local":"省委党校","network":"长春轨道交通","network_local":"长春轨道交通","operator":"长春轨道交通集团","city":"Changchun","country":"China","lines":null,"wikidata":null},"geometry":{"type":"Point","coordinates":[125.2838325,43.837362]}},{"type":"Feature","properties":{"station_id":"n1502896524","station_name":"Diantai Street","station_name_local":"电台街","network":"长春轨道交通","network_local":"长春轨道交通","operator":"长春轨道交通集团","city":"Changchun","country":"China","lines":null,"wikidata":"Q11587649"},"geometry":{"type":"Point","coordinates":[125.2712935,43.8301522]}},{"type":"Feature","properties":{"station_id":"n1502896525","station_name":"硅谷广场（吉大中心校区）","station_name_local":"硅谷广场（吉大中心校区）","network":"长春轨道交通","network_local":"长春轨道交通","operator":"长春轨道交通集团","city":"Changchun","country":"China","lines":null,"wikidata":null},"geometry":{"type":"Point","coordinates":[125.2554387,43.8223735]}},{"type":"Feature","properties":{"station_id":"n1502896526","station_name":"蔚山路","station_name_local":"蔚山路","network":"长春轨道交通","network_local":"长春轨道交通","operator":"长春轨道交通集团","city":"Changchun","country":"China","lines":null,"wikidata":null},"geometry":{"type":"Point","coordinates":[125.2437672,43.8112554]}},{"type":"Feature","properties":{"station_id":"n1502896527","station_name":"安新路","station_name_local":"安新路","network":"长春轨道交通","network_local":"长春轨道交通","operator":"长春轨道交通集团","city":"Changchun","country":"China","lines":null,"wikidata":null},"geometry":{"type":"Point","coordinates":[125.2380879,43.8057642]}},{"type":"Feature","properties":{"station_id":"n1502896528","station_name":"越达路","station_name_local":"越达路","network":"长春轨道交通","network_local":"长春轨道交通","operator":"长春轨道交通集团","city":"Changchun","country":"China","lines":null,"wikidata":null},"geometry":{"type":"Point","coordinates":[125.2299874,43.7988489]}},{"type":"Feature","properties":{"station_id":"n1502896529","station_name":"顺达路","station_name_local":"顺达路","network":"长春轨道交通","network_local":"长春轨道交通","operator":"长春轨道交通集团","city":"Changchun","country":"China","lines":null,"wikidata":null},"geometry":{"type":"Point","coordinates":[125.224747,43.7946112]}},{"type":"Feature","properties":{"station_id":"n1502896530","station_name":"市委党校","station_name_local":"市委党校","network":"长春轨道交通","network_local":"长春轨道交通","operator":"长春轨道交通集团","city":"Changchun","country":"China","lines":null,"wikidata":null},"geometry":{"type":"Point","coordinates":[125.2173977,43.7878272]}},{"type":"Feature","properties":{"station_id":"n1502896531","station_name":"卓越大街","station_name_local":"卓越大街","network":"长春轨道交通","network_local":"长春轨道交通","operator":"长春轨道交通集团","city":"Changchun","country":"China","lines":null,"wikidata":null},"geometry":{"type":"Point","coordinates":[125.2081898,43.7804729]}},{"type":"Feature","properties":{"station_id":"n1503250874","station_name":"飞跃广场","station_name_local":"飞跃广场","network":"长春轨道交通","network_local":"长春轨道交通","operator":"长春轨道交通集团","city":"Changchun","country":"China","lines":null,"wikidata":null},"geometry":{"type":"Point","coordinates":[125.2251317,43.8472778]}},{"type":"Feature","properties":{"station_id":"n1503250875","station_name":"兴顺路","station_name_local":"兴顺路","network":"长春轨道交通","network_local":"长春轨道交通","operator":"长春轨道交通集团","city":"Changchun","country":"China","lines":null,"wikidata":null},"geometry":{"type":"Point","coordinates":[125.2116017,43.8425982]}},{"type":"Feature","properties":{"station_id":"n1503250876","station_name":"兴安路","station_name_local":"兴安路","network":"长春轨道交通","network_local":"长春轨道交通","operator":"长春轨道交通集团","city":"Changchun","country":"China","lines":null,"wikidata":null},"geometry":{"type":"Point","coordinates":[125.1950262,43.8383701]}},{"type":"Feature","properties":{"station_id":"n1503250877","station_name":"西湖大路","station_name_local":"西湖大路","network":"长春轨道交通","network_local":"长春轨道交通","operator":"长春轨道交通集团","city":"Changchun","country":"China","lines":null,"wikidata":null},"geometry":{"type":"Point","coordinates":[125.1757693,43.8330184]}},{"type":"Feature","properties":{"station_id":"n1503250878","station_name":"汽车公园","station_name_local":"汽车公园","network":"长春轨道交通","network_local":"长春轨道交通","operator":"长春轨道交通集团","city":"Changchun","country":"China","lines":null,"wikidata":null},"geometry":{"type":"Point","coordinates":[125.163699,43.8304935]}},{"type":"Feature","properties":{"station_id":"n1503250880","station_name":"第一汽车制造厂","station_name_local":"第一汽车制造厂","network":"长春轨道交通","network_local":"长春轨道交通","operator":"长春轨道交通集团","city":"Changchun","country":"China","lines":null,"wikidata":null},"geometry":{"type":"Point","coordinates":[125.2384009,43.8535298]}},{"type":"Feature","properties":{"station_id":"n1503250881","station_name":"孟家屯","station_name_local":"孟家屯","network":"长春轨道交通","network_local":"长春轨道交通","operator":"长春轨道交通集团","city":"Changchun","country":"China","lines":null,"wikidata":null},"geometry":{"type":"Point","coordinates":[125.2576636,43.8481842]}},{"type":"Feature","properties":{"station_id":"n1503250882","station_name":"辉南街","station_name_local":"辉南街","network":"长春轨道交通","network_local":"长春轨道交通","operator":"长春轨道交通集团","city":"Changchun","country":"China","lines":null,"wikidata":null},"geometry":{"type":"Point","coordinates":[125.2693824,43.8481603]}},{"type":"Feature","properties":{"station_id":"n1503250883","station_name":"南湖公园","station_name_local":"南湖公园","network":"长春轨道交通","network_local":"长春轨道交通","operator":"长春轨道交通集团","city":"Changchun","country":"China","lines":null,"wikidata":null},"geometry":{"type":"Point","coordinates":[125.298372,43.8487775]}},{"type":"Feature","properties":{"station_id":"n1503250884","station_name":"工农广场","station_name_local":"工农广场","network":"长春轨道交通","network_local":"长春轨道交通","operator":"长春轨道交通集团","city":"Changchun","country":"China","lines":null,"wikidata":null},"geometry":{"type":"Point","coordinates":[125.3208674,43.8490575]}},{"type":"Feature","properties":{"station_id":"n1503250885","station_name":"省税务局","station_name_local":"省税务局","network":"长春轨道交通","network_local":"长春轨道交通","operator":"长春轨道交通集团","city":"Changchun","country":"China","lines":null,"wikidata":null},"geometry":{"type":"Point","coordinates":[125.3326063,43.8489001]}},{"type":"Feature","properties":{"station_id":"n1503250886","station_name":"东岭南街","station_name_local":"东岭南街","network":"长春轨道交通","network_local":"长春轨道交通","operator":"长春轨道交通集团","city":"Changchun","country":"China","lines":null,"wikidata":null},"geometry":{"type":"Point","coordinates":[125.3417749,43.8490124]}},{"type":"Feature","properties":{"station_id":"n1503250887","station_name":"威海路","station_name_local":"威海路","network":"长春轨道交通","network_local":"长春轨道交通","operator":"长春轨道交通集团","city":"Changchun","country":"China","lines":null,"wikidata":null},"geometry":{"type":"Point","coordinates":[125.3598424,43.8488713]}},{"type":"Feature","properties":{"station_id":"n1503250888","station_name":"赛得广场","station_name_local":"赛得广场","network":"长春轨道交通","network_local":"长春轨道交通","operator":"长春轨道交通集团","city":"Changchun","country":"China","lines":null,"wikidata":null},"geometry":{"type":"Point","coordinates":[125.3696026,43.8492052]}},{"type":"Feature","properties":{"station_id":"n1503250889","station_name":"会展大街","station_name_local":"会展大街","network":"长春轨道交通","network_local":"长春轨道交通","operator":"长春轨道交通集团","city":"Changchun","country":"China","lines":null,"wikidata":null},"geometry":{"type":"Point","coordinates":[125.3829895,43.8495166]}},{"type":"Feature","properties":{"station_id":"n1503250890","station_name":"中东大市场","station_name_local":"中东大市场","network":"长春轨道交通","network_local":"长春轨道交通","operator":"长春轨道交通集团","city":"Changchun","country":"China","lines":null,"wikidata":null},"geometry":{"type":"Point","coordinates":[125.3877195,43.8622928]}},{"type":"Feature","properties":{"station_id":"n1503250891","station_name":"岭东路","station_name_local":"岭东路","network":"长春轨道交通","network_local":"长春轨道交通","operator":"长春轨道交通集团","city":"Changchun","country":"China","lines":null,"wikidata":null},"geometry":{"type":"Point","coordinates":[125.3874328,43.8723493]}},{"type":"Feature","properties":{"station_id":"n1503250892","station_name":"东环城路","station_name_local":"东环城路","network":"长春轨道交通","network_local":"长春轨道交通","operator":"长春轨道交通集团","city":"Changchun","country":"China","lines":null,"wikidata":null},"geometry":{"type":"Point","coordinates":[125.387552,43.8783877]}}]}