{"type":"FeatureCollection","metro_system":{"continent":"asia","country":"China","city":"Kunming","osm_networks":["Kunming Metro","Kunming Rail Transit","Unknown"],"operator":"昆明地铁运营有限公司","official_website":null,"official_map":"https://zh.wikipedia.org/wiki/昆明地铁2号线","wikidata":"Q11087464","line_count":6,"station_count":195},"features":[{"type":"Feature","properties":{"route_id":"rm7909740","route_name":"Kunming Metro Line 2","route_name_local":"昆明地铁2号线","route_ref":"2","route_color":"#235a99","network":"Kunming Metro","network_local":"昆明地铁","operator":"昆明地铁运营有限公司","city":"Kunming","country":"China","wikidata":"Q11087464","wikipedia":"zh:昆明地铁2号线","osm_route_ids":[4508011,5456209]},"geometry":{"type":"MultiLineString","coordinates":[[[102.7194132,25.0269575],[102.7186774,25.0353422],[102.7183592,25.0412872],[102.7182298,25.045447],[102.718094,25.0524308],[102.7192994,25.0603624],[102.7223716,25.0687596],[102.726366,25.0788773],[102.7311224,25.0839415],[102.7377354,25.0963155],[102.740487,25.1038284],[102.7442637,25.1126604],[102.7523163,25.1147868],[102.7618873,25.1101136]]]}},{"type":"Feature","properties":{"route_id":"rm7909748","route_name":"Kunming Metro Line 1","route_name_local":"昆明地铁1号线","route_ref":"1","route_color":"#bf3334","network":"Kunming Metro","network_local":"昆明地铁","operator":"昆明地铁运营有限公司","city":"Kunming","country":"China","wikidata":"Q11087462","wikipedia":"zh:昆明地铁1号线","osm_route_ids":[5456208,7909741,7909742,7909745]},"geometry":{"type":"MultiLineString","coordinates":[[[102.7194449,25.0269519],[102.7216595,25.0164675],[102.7286056,25.0099868],[102.7334522,25.004271],[102.7399867,24.9999797],[102.7496292,24.9891045],[102.7597013,24.9882104],[102.7652665,24.9755043],[102.7665115,24.9598588],[102.7680399,24.9499387],[102.7735791,24.9322145],[102.7902297,24.911168],[102.8239058,24.8869687],[102.8281453,24.8750225],[102.8325295,24.8626011],[102.8368126,24.8508077],[102.840973,24.8391291],[102.8245744,24.8251194]],[[102.8594063,24.8731537],[102.8505872,24.8776744],[102.843487,24.8878443],[102.8352414,24.8853118],[102.8240475,24.8870093],[102.7903458,24.9112663],[102.773738,24.9322519],[102.7681831,24.9499676],[102.7666585,24.9598711],[102.7653903,24.9755049],[102.7597055,24.9883002],[102.7496593,24.9891901],[102.7400823,25.0000039],[102.7334979,25.0043507],[102.7287009,25.0100116],[102.7217174,25.0164746],[102.719515,25.0269555]]]}},{"type":"Feature","properties":{"route_id":"rm8040148","route_name":"Kunming Metro Line 3","route_name_local":"昆明地铁3号线","route_ref":"3","route_color":"#fe4998","network":"Kunming Metro","network_local":"昆明地铁","operator":"昆明地铁运营有限公司","city":"Kunming","country":"China","wikidata":"Q11087465","wikipedia":"zh:昆明地铁3号线","osm_route_ids":[5456210,8040149]},"geometry":{"type":"MultiLineString","coordinates":[[[102.6168538,24.9873307],[102.6146117,24.9976773],[102.6200053,25.0082009],[102.6283886,25.0215612],[102.6345036,25.0309402],[102.6377178,25.0387453],[102.6482451,25.050209],[102.6556335,25.0496702],[102.6645773,25.0489916],[102.6762542,25.0481395],[102.6871282,25.0473471],[102.693804,25.0468085],[102.7044293,25.0401727],[102.7178013,25.0410239],[102.7284555,25.0411523],[102.7399838,25.0400292],[102.7502655,25.0390093],[102.7591024,25.0393008],[102.7716897,25.039045],[102.7868463,25.0392129]]]}},{"type":"Feature","properties":{"route_id":"rm2653338","route_name":"Kunming Metro Line 6","route_name_local":"昆明地铁6号线","route_ref":"6","route_color":"#0290a4","network":"Kunming Metro","network_local":"昆明地铁","operator":"昆明地铁运营有限公司","city":"Kunming","country":"China","wikidata":"Q6553143","wikipedia":"zh:昆明地铁6号线","osm_route_ids":[5456211,8040142]},"geometry":{"type":"MultiLineString","coordinates":[[[102.9262889,25.0985898],[102.9112648,25.0879525],[102.875075,25.0565318],[102.7868971,25.0390916],[102.7483039,25.0280636],[102.7396215,25.0305532],[102.7329437,25.0340219],[102.7184401,25.0354764]]]}},{"type":"Feature","properties":{"route_id":"rm11643429","route_name":"Kunming Metro Line 4","route_name_local":"昆明地铁4号线","route_ref":"4","route_color":"#dd8800","network":"Kunming Metro","network_local":"昆明地铁","operator":"云南京建轨道交通投资建设有限公司","city":"Kunming","country":"China","wikidata":"Q24837537","wikipedia":"zh:昆明地铁4号线","osm_route_ids":[7957933,11645555]},"geometry":{"type":"MultiLineString","coordinates":[[[102.8594406,24.8730306],[102.8471074,24.8693698],[102.8324194,24.8626462],[102.8127122,24.8567588],[102.8014624,24.8604658],[102.795173,24.877146],[102.7909874,24.8852603],[102.7844219,24.8957076],[102.7887713,24.9042275],[102.7912907,24.9113914],[102.7859327,24.9402139],[102.783942,24.952277],[102.7852165,24.9677028],[102.7842381,24.9811933],[102.7822151,24.9966439],[102.77714,25.0086144],[102.7611227,25.0179102],[102.7480008,25.0276166],[102.7417029,25.0330136],[102.7388595,25.0400207],[102.7334354,25.052181],[102.7217349,25.0596031],[102.7044884,25.0633701],[102.6920488,25.066608],[102.6839417,25.0671787],[102.6718795,25.0754189],[102.6619066,25.079749],[102.6540092,25.0930378],[102.6559975,25.1021427]]]}},{"type":"Feature","properties":{"route_id":"rm14317129","route_name":"Kunming Metro Line 5","route_name_local":"昆明地铁5号线","route_ref":"5","route_color":"#2aa844","network":"Kunming Metro","network_local":"昆明地铁","operator":"昆明地铁运营有限公司","city":"Kunming","country":"China","wikidata":"Q24837356","wikipedia":"zh:昆明地铁5号线","osm_route_ids":[14317127,14317128]},"geometry":{"type":"MultiLineString","coordinates":[[[102.7216755,24.9335144],[102.7069568,24.9419732],[102.6952723,24.947666],[102.6918518,24.9646694],[102.6917479,24.9762095],[102.67856,24.9782338],[102.6692194,24.9797435],[102.662375,24.987485],[102.6632035,24.9979009],[102.672911,25.0073245],[102.6838802,25.0139086],[102.6890365,25.0169754],[102.6968118,25.0235216],[102.698618,25.0349868],[102.7039133,25.0404399],[102.7062581,25.0478652],[102.7114322,25.05791],[102.7217545,25.0594844],[102.7285126,25.0575768],[102.7390089,25.0562655],[102.7466909,25.0639017],[102.7529516,25.072057]]]}},{"type":"Feature","properties":{"station_id":"n2788302364","station_name":"University Town South","station_name_local":"大学城南","network":"Unknown","network_local":null,"operator":null,"city":"Kunming","country":"China","lines":["1"],"wikidata":"Q10934796"},"geometry":{"type":"Point","coordinates":[102.8245988,24.825091]}},{"type":"Feature","properties":{"station_id":"n2788302371","station_name":"Dounan","station_name_local":"斗南","network":"Unknown","network_local":null,"operator":null,"city":"Kunming","country":"China","lines":["4"],"wikidata":"Q11080500"},"geometry":{"type":"Point","coordinates":[102.7909741,24.9112136]}},{"type":"Feature","properties":{"station_id":"n2788302419","station_name":"Lianda Street","station_name_local":"联大街","network":"Unknown","network_local":null,"operator":null,"city":"Kunming","country":"China","lines":["1"],"wikidata":"Q17027197"},"geometry":{"type":"Point","coordinates":[102.8325287,24.8626379]}},{"type":"Feature","properties":{"station_id":"n2788302424","station_name":"Yikang South Road","station_name_local":"谊康南路","network":"Unknown","network_local":null,"operator":null,"city":"Kunming","country":"China","lines":["1"],"wikidata":null},"geometry":{"type":"Point","coordinates":[102.8368549,24.8508203]}},{"type":"Feature","properties":{"station_id":"n2788302429","station_name":"Tuofeng Street","station_name_local":"驼峰街","network":"Unknown","network_local":null,"operator":null,"city":"Kunming","country":"China","lines":["1"],"wikidata":"Q17034304"},"geometry":{"type":"Point","coordinates":[102.8281876,24.8750352]}},{"type":"Feature","properties":{"station_id":"n2824223595","station_name":"East Coach Station","station_name_local":"东部汽车站","network":"Unknown","network_local":null,"operator":null,"city":"Kunming","country":"China","lines":["3"],"wikidata":null},"geometry":{"type":"Point","coordinates":[102.7868472,25.0392578]}},{"type":"Feature","properties":{"station_id":"n2824223905","station_name":"Hongqiao","station_name_local":"虹桥","network":"Unknown","network_local":null,"operator":null,"city":"Kunming","country":"China","lines":["3"],"wikidata":"Q51345877"},"geometry":{"type":"Point","coordinates":[102.7716898,25.0390705]}},{"type":"Feature","properties":{"station_id":"n2824223915","station_name":"Taipingcun","station_name_local":"太平村","network":"Unknown","network_local":null,"operator":null,"city":"Kunming","country":"China","lines":["3"],"wikidata":"Q51346456"},"geometry":{"type":"Point","coordinates":[102.7590926,25.0393225]}},{"type":"Feature","properties":{"station_id":"n2824223936","station_name":"Jinma temple","station_name_local":"金马寺","network":"Unknown","network_local":null,"operator":null,"city":"Kunming","country":"China","lines":["3"],"wikidata":"Q52166605"},"geometry":{"type":"Point","coordinates":[102.7502624,25.0390409]}},{"type":"Feature","properties":{"station_id":"n2824223949","station_name":"Tuodong Stadium","station_name_local":"拓东体育馆","network":"Unknown","network_local":null,"operator":null,"city":"Kunming","country":"China","lines":["3"],"wikidata":"Q52170354"},"geometry":{"type":"Point","coordinates":[102.7284547,25.0412062]}},{"type":"Feature","properties":{"station_id":"n2824223971","station_name":"Panjiawan","station_name_local":"潘家湾","network":"Unknown","network_local":null,"operator":null,"city":"Kunming","country":"China","lines":["3"],"wikidata":"Q60675381"},"geometry":{"type":"Point","coordinates":[102.6938089,25.0468622]}},{"type":"Feature","properties":{"station_id":"n2824223999","station_name":"West Bus Station","station_name_local":"西部汽车站","network":"Unknown","network_local":null,"operator":null,"city":"Kunming","country":"China","lines":["3"],"wikidata":"Q60675344"},"geometry":{"type":"Point","coordinates":[102.637661,25.0387615]}},{"type":"Feature","properties":{"station_id":"n2824224004","station_name":"Dayu Road","station_name_local":"大渔路","network":"Unknown","network_local":null,"operator":null,"city":"Kunming","country":"China","lines":["3"],"wikidata":"Q60675383"},"geometry":{"type":"Point","coordinates":[102.6344493,25.0309625]}},{"type":"Feature","properties":{"station_id":"n2845408107","station_name":"North Railway Station","station_name_local":"火车北站","network":"Unknown","network_local":null,"operator":null,"city":"Kunming","country":"China","lines":["2"],"wikidata":"Q28415052"},"geometry":{"type":"Point","coordinates":[102.7192175,25.0600983]}},{"type":"Feature","properties":{"station_id":"n3015753488","station_name":"University Town","station_name_local":"大学城","network":"Unknown","network_local":null,"operator":null,"city":"Kunming","country":"China","lines":["1"],"wikidata":"Q10934798"},"geometry":{"type":"Point","coordinates":[102.8410106,24.8391404]}},{"type":"Feature","properties":{"station_id":"n4583028884","station_name":"Kunming South Railway Station","station_name_local":"昆明南火车站","network":"Unknown","network_local":null,"operator":null,"city":"Kunming","country":"China","lines":["1"],"wikidata":"Q105497387"},"geometry":{"type":"Point","coordinates":[102.8594017,24.8730809]}},{"type":"Feature","properties":{"station_id":"n5067703493","station_name":"Municipal Gymnasium Station","station_name_local":"市体育馆","network":"Unknown","network_local":null,"operator":null,"city":"Kunming","country":"China","lines":["3"],"wikidata":"Q60675389"},"geometry":{"type":"Point","coordinates":[102.6871341,25.0474007]}},{"type":"Feature","properties":{"station_id":"n5067703494","station_name":"Liangjiahe","station_name_local":"梁家河","network":"Unknown","network_local":null,"operator":null,"city":"Kunming","country":"China","lines":["3"],"wikidata":"Q60675387"},"geometry":{"type":"Point","coordinates":[102.6762589,25.0481932]}},{"type":"Feature","properties":{"station_id":"n5067703498","station_name":"Xiyuan","station_name_local":"西苑","network":"Unknown","network_local":null,"operator":null,"city":"Kunming","country":"China","lines":["3"],"wikidata":"Q60675334"},"geometry":{"type":"Point","coordinates":[102.6645825,25.0490453]}},{"type":"Feature","properties":{"station_id":"n5067703499","station_name":"Changyuan Middle Road","station_name_local":"昌源中路","network":"Unknown","network_local":null,"operator":null,"city":"Kunming","country":"China","lines":["3"],"wikidata":"Q60675361"},"geometry":{"type":"Point","coordinates":[102.6556386,25.0497239]}},{"type":"Feature","properties":{"station_id":"n5067703500","station_name":"Mianshan","station_name_local":"眠山","network":"Unknown","network_local":null,"operator":null,"city":"Kunming","country":"China","lines":["3"],"wikidata":"Q60675385"},"geometry":{"type":"Point","coordinates":[102.64825,25.0502627]}},{"type":"Feature","properties":{"station_id":"n5067703504","station_name":"Shizui","station_name_local":"石咀","network":"Unknown","network_local":null,"operator":null,"city":"Kunming","country":"China","lines":["3"],"wikidata":"Q60675348"},"geometry":{"type":"Point","coordinates":[102.6283377,25.0215891]}},{"type":"Feature","properties":{"station_id":"n5067703513","station_name":"Pupingcun","station_name_local":"普坪村","network":"Unknown","network_local":null,"operator":null,"city":"Kunming","country":"China","lines":["3"],"wikidata":"Q60675354"},"geometry":{"type":"Point","coordinates":[102.6199448,25.0082018]}},{"type":"Feature","properties":{"station_id":"n5067703622","station_name":"Chejiabi","station_name_local":"车家壁","network":"Unknown","network_local":null,"operator":null,"city":"Kunming","country":"China","lines":["3"],"wikidata":"Q60675352"},"geometry":{"type":"Point","coordinates":[102.6145558,24.9976959]}},{"type":"Feature","properties":{"station_id":"n5258890595","station_name":"Western Hills Park","station_name_local":"西山公园","network":"Unknown","network_local":null,"operator":null,"city":"Kunming","country":"China","lines":["3"],"wikidata":"Q60675350"},"geometry":{"type":"Point","coordinates":[102.6168435,24.9873109]}},{"type":"Feature","properties":{"station_id":"n5345104404","station_name":"Dongfeng Square","station_name_local":"东风广场","network":"Unknown","network_local":null,"operator":null,"city":"Kunming","country":"China","lines":["2"],"wikidata":"Q28415055"},"geometry":{"type":"Point","coordinates":[102.7180727,25.041197]}},{"type":"Feature","properties":{"station_id":"n6245594236","station_name":"Xiangfeng Street","station_name_local":"祥丰街","network":"Unknown","network_local":null,"operator":null,"city":"Kunming","country":"China","lines":["4"],"wikidata":"Q106021391"},"geometry":{"type":"Point","coordinates":[102.8014624,24.8604658]}},{"type":"Feature","properties":{"station_id":"n6245594260","station_name":"Meizicun","station_name_local":"梅子村","network":"Unknown","network_local":null,"operator":null,"city":"Kunming","country":"China","lines":["4"],"wikidata":"Q106021237"},"geometry":{"type":"Point","coordinates":[102.7844219,24.8957076]}},{"type":"Feature","properties":{"station_id":"n6245594278","station_name":"Jingui Street","station_name_local":"金桂街","network":"Unknown","network_local":null,"operator":null,"city":"Kunming","country":"China","lines":["4"],"wikidata":"Q106020824"},"geometry":{"type":"Point","coordinates":[102.7887713,24.9042275]}},{"type":"Feature","properties":{"station_id":"n6245594930","station_name":"Guangwei","station_name_local":"广卫","network":"Unknown","network_local":null,"operator":null,"city":"Kunming","country":"China","lines":["4"],"wikidata":"Q106020713"},"geometry":{"type":"Point","coordinates":[102.783942,24.952277]}},{"type":"Feature","properties":{"station_id":"n6245630854","station_name":"Niujiezhuang","station_name_local":"牛街庄","network":"Unknown","network_local":null,"operator":null,"city":"Kunming","country":"China","lines":["4"],"wikidata":null},"geometry":{"type":"Point","coordinates":[102.77714,25.0086144]}},{"type":"Feature","properties":{"station_id":"n6245630888","station_name":"Xiaocaiyuan","station_name_local":"小菜园","network":"Unknown","network_local":null,"operator":null,"city":"Kunming","country":"China","lines":["4"],"wikidata":"Q106018212"},"geometry":{"type":"Point","coordinates":[102.7044884,25.0633701]}},{"type":"Feature","properties":{"station_id":"n7077203939","station_name":"Juhuacun","station_name_local":"菊花村","network":"Unknown","network_local":null,"operator":null,"city":"Kunming","country":"China","lines":["4"],"wikidata":"Q106018301"},"geometry":{"type":"Point","coordinates":[102.7417029,25.0330136]}},{"type":"Feature","properties":{"station_id":"n7150791296","station_name":"Airport Front","station_name_local":"机场前","network":"Unknown","network_local":null,"operator":null,"city":"Kunming","country":"China","lines":["6"],"wikidata":"Q11095040"},"geometry":{"type":"Point","coordinates":[102.9113227,25.0879431]}},{"type":"Feature","properties":{"station_id":"n7150791297","station_name":"Dabanqiao","station_name_local":"大板桥","network":"Unknown","network_local":null,"operator":null,"city":"Kunming","country":"China","lines":["6"],"wikidata":"Q10935762"},"geometry":{"type":"Point","coordinates":[102.8751183,25.0564619]}},{"type":"Feature","properties":{"station_id":"n7822767421","station_name":"Sujiatang","station_name_local":"苏家塘","network":"Unknown","network_local":null,"operator":null,"city":"Kunming","country":"China","lines":["4"],"wikidata":"Q106017906"},"geometry":{"type":"Point","coordinates":[102.6919968,25.0665993]}},{"type":"Feature","properties":{"station_id":"n7822767422","station_name":"Jindingshan North Road","station_name_local":"金鼎山北路","network":"Unknown","network_local":null,"operator":null,"city":"Kunming","country":"China","lines":["4"],"wikidata":"Q106017880"},"geometry":{"type":"Point","coordinates":[102.6839417,25.0671787]}},{"type":"Feature","properties":{"station_id":"n7822767424","station_name":"Xiaotun","station_name_local":"小屯","network":"Unknown","network_local":null,"operator":null,"city":"Kunming","country":"China","lines":["4"],"wikidata":"Q106017835"},"geometry":{"type":"Point","coordinates":[102.671843,25.0753898]}},{"type":"Feature","properties":{"station_id":"n7921798108","station_name":"Wujiaying","station_name_local":"吴家营","network":"Unknown","network_local":null,"operator":null,"city":"Kunming","country":"China","lines":["4"],"wikidata":"Q106021439"},"geometry":{"type":"Point","coordinates":[102.8471074,24.8693698]}},{"type":"Feature","properties":{"station_id":"n7921798110","station_name":"Niutoushan","station_name_local":"牛头山","network":"Unknown","network_local":null,"operator":null,"city":"Kunming","country":"China","lines":["4"],"wikidata":"Q106021412"},"geometry":{"type":"Point","coordinates":[102.8127122,24.8567588]}},{"type":"Feature","properties":{"station_id":"n7921798116","station_name":"Kelecun","station_name_local":"可乐村","network":"Unknown","network_local":null,"operator":null,"city":"Kunming","country":"China","lines":["4"],"wikidata":"Q106021369"},"geometry":{"type":"Point","coordinates":[102.795173,24.877146]}},{"type":"Feature","properties":{"station_id":"n7921798118","station_name":"Gucheng","station_name_local":"古城","network":"Unknown","network_local":null,"operator":null,"city":"Kunming","country":"China","lines":["4"],"wikidata":"Q106021345"},"geometry":{"type":"Point","coordinates":[102.7909874,24.8852603]}},{"type":"Feature","properties":{"station_id":"n7921798125","station_name":"Yuyuan Road","station_name_local":"玉缘路","network":"Unknown","network_local":null,"operator":null,"city":"Kunming","country":"China","lines":["4"],"wikidata":"Q106020586"},"geometry":{"type":"Point","coordinates":[102.7852165,24.9677028]}},{"type":"Feature","properties":{"station_id":"n7921798132","station_name":"Juhua","station_name_local":"菊华","network":"Unknown","network_local":null,"operator":null,"city":"Kunming","country":"China","lines":["6"],"wikidata":"Q17032574"},"geometry":{"type":"Point","coordinates":[102.7481931,25.027809]}},{"type":"Feature","properties":{"station_id":"n7921798134","station_name":"Dashuying","station_name_local":"大树营","network":"Unknown","network_local":null,"operator":null,"city":"Kunming","country":"China","lines":["3"],"wikidata":"Q52167406"},"geometry":{"type":"Point","coordinates":[102.7394207,25.0401901]}},{"type":"Feature","properties":{"station_id":"n7921798137","station_name":"Haitun Road","station_name_local":"海屯路","network":"Unknown","network_local":null,"operator":null,"city":"Kunming","country":"China","lines":["4"],"wikidata":"Q106011884"},"geometry":{"type":"Point","coordinates":[102.6619066,25.079749]}},{"type":"Feature","properties":{"station_id":"n7921798139","station_name":"Dahegeng","station_name_local":"大河埂","network":"Unknown","network_local":null,"operator":null,"city":"Kunming","country":"China","lines":["4"],"wikidata":"Q106011716"},"geometry":{"type":"Point","coordinates":[102.6539674,25.0931367]}},{"type":"Feature","properties":{"station_id":"n7921798140","station_name":"Jinchuan Road","station_name_local":"金川路","network":"Unknown","network_local":null,"operator":null,"city":"Kunming","country":"China","lines":["4"],"wikidata":"Q106011451"},"geometry":{"type":"Point","coordinates":[102.6559482,25.1021576]}},{"type":"Feature","properties":{"station_id":"n7924846981","station_name":"East Coach Station","station_name_local":"东部汽车站","network":"Unknown","network_local":null,"operator":null,"city":"Kunming","country":"China","lines":["6"],"wikidata":"Q10871009"},"geometry":{"type":"Point","coordinates":[102.787157,25.0391183]}},{"type":"Feature","properties":{"station_id":"n7931462208","station_name":"Tangzixiang","station_name_local":"塘子巷","network":"Unknown","network_local":null,"operator":null,"city":"Kunming","country":"China","lines":["2"],"wikidata":"Q10931009"},"geometry":{"type":"Point","coordinates":[102.7187718,25.0356716]}},{"type":"Feature","properties":{"station_id":"n9006301320","station_name":"South Ring Road","station_name_local":"环城南路","network":"Unknown","network_local":null,"operator":null,"city":"Kunming","country":"China","lines":["1"],"wikidata":"Q28063772"},"geometry":{"type":"Point","coordinates":[102.7194592,25.0269613]}},{"type":"Feature","properties":{"station_id":"n9711460811","station_name":"Baofeng","station_name_local":"宝丰","network":"Unknown","network_local":null,"operator":null,"city":"Kunming","country":"China","lines":["5"],"wikidata":"Q112939249"},"geometry":{"type":"Point","coordinates":[102.7217134,24.9335548]}},{"type":"Feature","properties":{"station_id":"n9711530918","station_name":"Dianchi International Convention and Exhibition Center","station_name_local":"滇池国际会展中心","network":"Unknown","network_local":null,"operator":null,"city":"Kunming","country":"China","lines":["5"],"wikidata":"Q112939246"},"geometry":{"type":"Point","coordinates":[102.7069761,24.9420043]}},{"type":"Feature","properties":{"station_id":"n9712790279","station_name":"Zhuangjiatang Overpass","station_name_local":"庄家塘立交桥","network":"Unknown","network_local":null,"operator":null,"city":"Kunming","country":"China","lines":["5"],"wikidata":"Q112939240"},"geometry":{"type":"Point","coordinates":[102.6916978,24.9762047]}},{"type":"Feature","properties":{"station_id":"n9712790280","station_name":"Xingti Road","station_name_local":"兴体路","network":"Unknown","network_local":null,"operator":null,"city":"Kunming","country":"China","lines":["5"],"wikidata":null},"geometry":{"type":"Point","coordinates":[102.6785695,24.978189]}},{"type":"Feature","properties":{"station_id":"n9712793215","station_name":"Jinjia River","station_name_local":"金家河","network":"Unknown","network_local":null,"operator":null,"city":"Kunming","country":"China","lines":["5"],"wikidata":"Q112939242"},"geometry":{"type":"Point","coordinates":[102.6918108,24.9646723]}},{"type":"Feature","properties":{"station_id":"n9712871007","station_name":"Jinlan Road","station_name_local":"金兰路","network":"Unknown","network_local":null,"operator":null,"city":"Kunming","country":"China","lines":["5"],"wikidata":"Q112939224"},"geometry":{"type":"Point","coordinates":[102.6889964,25.0170145]}},{"type":"Feature","properties":{"station_id":"n9712871008","station_name":"Huashan West Road","station_name_local":"华山西路","network":"Unknown","network_local":null,"operator":null,"city":"Kunming","country":"China","lines":["5"],"wikidata":"Q112939218"},"geometry":{"type":"Point","coordinates":[102.7062067,25.0478611]}},{"type":"Feature","properties":{"station_id":"n9712871009","station_name":"Yanjiadi","station_name_local":"严家地","network":"Unknown","network_local":null,"operator":null,"city":"Kunming","country":"China","lines":["5"],"wikidata":"Q112939221"},"geometry":{"type":"Point","coordinates":[102.6967787,25.0235703]}},{"type":"Feature","properties":{"station_id":"n9712871010","station_name":"Milesi","station_name_local":"弥勒寺","network":"Unknown","network_local":null,"operator":null,"city":"Kunming","country":"China","lines":["5"],"wikidata":"Q112939219"},"geometry":{"type":"Point","coordinates":[102.6985674,25.0349941]}},{"type":"Feature","properties":{"station_id":"n9712871011","station_name":"Wuyi Road","station_name_local":"五一路","network":"Unknown","network_local":null,"operator":null,"city":"Kunming","country":"China","lines":["5"],"wikidata":"Q52171137"},"geometry":{"type":"Point","coordinates":[102.7038433,25.0404784]}},{"type":"Feature","properties":{"station_id":"n9712871012","station_name":"Yuantong Hill","station_name_local":"圆通山","network":"Unknown","network_local":null,"operator":null,"city":"Kunming","country":"China","lines":["5"],"wikidata":"Q112939217"},"geometry":{"type":"Point","coordinates":[102.7113741,25.0579395]}},{"type":"Feature","properties":{"station_id":"n9712871013","station_name":"Chuanjin Road","station_name_local":"穿金路","network":"Unknown","network_local":null,"operator":null,"city":"Kunming","country":"China","lines":["5"],"wikidata":"Q112939215"},"geometry":{"type":"Point","coordinates":[102.7285341,25.0576072]}},{"type":"Feature","properties":{"station_id":"n9712871014","station_name":"World Horti-Expo Garden","station_name_local":"世博园","network":"Unknown","network_local":null,"operator":null,"city":"Kunming","country":"China","lines":["5"],"wikidata":"Q112939208"},"geometry":{"type":"Point","coordinates":[102.7529183,25.072067]}},{"type":"Feature","properties":{"station_id":"n9712871015","station_name":"Bailongsi","station_name_local":"白龙寺","network":"Unknown","network_local":null,"operator":null,"city":"Kunming","country":"China","lines":["5"],"wikidata":"Q112939211"},"geometry":{"type":"Point","coordinates":[102.7466684,25.0639158]}},{"type":"Feature","properties":{"station_id":"n9712871016","station_name":"Shizha","station_name_local":"石闸","network":"Unknown","network_local":null,"operator":null,"city":"Kunming","country":"China","lines":["5"],"wikidata":"Q112939213"},"geometry":{"type":"Point","coordinates":[102.7390008,25.0563202]}},{"type":"Feature","properties":{"station_id":"n9712890974","station_name":"Fubao","station_name_local":"福保","network":"Unknown","network_local":null,"operator":null,"city":"Kunming","country":"China","lines":["5"],"wikidata":"Q112939244"},"geometry":{"type":"Point","coordinates":[102.6952498,24.9476527]}},{"type":"Feature","properties":{"station_id":"n9712913333","station_name":"Yuhucun","station_name_local":"渔户村","network":"Unknown","network_local":null,"operator":null,"city":"Kunming","country":"China","lines":["5"],"wikidata":"Q112939236"},"geometry":{"type":"Point","coordinates":[102.6691826,24.9797208]}},{"type":"Feature","properties":{"station_id":"n9712913334","station_name":"Yinghai Road","station_name_local":"迎海路","network":"Unknown","network_local":null,"operator":null,"city":"Kunming","country":"China","lines":["5"],"wikidata":null},"geometry":{"type":"Point","coordinates":[102.6623398,24.9874025]}},{"type":"Feature","properties":{"station_id":"n9712921864","station_name":"Daba","station_name_local":"大坝","network":"Unknown","network_local":null,"operator":null,"city":"Kunming","country":"China","lines":["5"],"wikidata":"Q112939232"},"geometry":{"type":"Point","coordinates":[102.6631407,24.9979251]}},{"type":"Feature","properties":{"station_id":"n9712921865","station_name":"Fuhai","station_name_local":"福海","network":"Unknown","network_local":null,"operator":null,"city":"Kunming","country":"China","lines":["5"],"wikidata":"Q112939225"},"geometry":{"type":"Point","coordinates":[102.6838784,25.0139561]}},{"type":"Feature","properties":{"station_id":"n9712921870","station_name":"Guangfuluxikou","station_name_local":"广福路西口","network":"Unknown","network_local":null,"operator":null,"city":"Kunming","country":"China","lines":["5"],"wikidata":"Q112939227"},"geometry":{"type":"Point","coordinates":[102.6728682,25.0073583]}},{"type":"Feature","properties":{"station_id":"n10588105995","station_name":"East Coach Station","station_name_local":"东部汽车站","network":"Unknown","network_local":null,"operator":null,"city":"Kunming","country":"China","lines":["3"],"wikidata":null},"geometry":{"type":"Point","coordinates":[102.7868463,25.0392129]}},{"type":"Feature","properties":{"station_id":"n10857763964","station_name":"University Town South","station_name_local":"大学城南","network":"Unknown","network_local":null,"operator":null,"city":"Kunming","country":"China","lines":["1"],"wikidata":null},"geometry":{"type":"Point","coordinates":[102.8243349,24.8254968]}},{"type":"Feature","properties":{"station_id":"n10857763989","station_name":"University Town South","station_name_local":"大学城南","network":"Unknown","network_local":null,"operator":null,"city":"Kunming","country":"China","lines":["1"],"wikidata":null},"geometry":{"type":"Point","coordinates":[102.8243669,24.825458]}},{"type":"Feature","properties":{"station_id":"n13535995619","station_name":"Municipal Administration Center","station_name_local":"市级行政中心","network":"Unknown","network_local":null,"operator":null,"city":"Kunming","country":"China","lines":["1"],"wikidata":"Q43387551"},"geometry":{"type":"Point","coordinates":[102.8352576,24.885254]}},{"type":"Feature","properties":{"station_id":"n13535995620","station_name":"Yihe Road","station_name_local":"宜和路","network":"Unknown","network_local":null,"operator":null,"city":"Kunming","country":"China","lines":["1"],"wikidata":null},"geometry":{"type":"Point","coordinates":[102.8435041,24.8878018]}},{"type":"Feature","properties":{"station_id":"n13535995622","station_name":"Yihe Road","station_name_local":"宜和路","network":"Unknown","network_local":null,"operator":null,"city":"Kunming","country":"China","lines":null,"wikidata":null},"geometry":{"type":"Point","coordinates":[102.8396752,24.8951068]}},{"type":"Feature","properties":{"station_id":"n13535995623","station_name":"Municipal Administration Center","station_name_local":"市级行政中心","network":"Unknown","network_local":null,"operator":null,"city":"Kunming","country":"China","lines":null,"wikidata":"Q43387551"},"geometry":{"type":"Point","coordinates":[102.8314315,24.892575]}},{"type":"Feature","properties":{"station_id":"n13535995624","station_name":"Bailong Lake","station_name_local":"白龙潭","network":"Unknown","network_local":null,"operator":null,"city":"Kunming","country":"China","lines":["1"],"wikidata":null},"geometry":{"type":"Point","coordinates":[102.8505231,24.8776452]}},{"type":"Feature","properties":{"station_id":"n13535995698","station_name":"Yuantong Hill","station_name_local":"圆通山","network":"Unknown","network_local":null,"operator":null,"city":"Kunming","country":"China","lines":["5"],"wikidata":null},"geometry":{"type":"Point","coordinates":[102.7113652,25.0579483]}},{"type":"Feature","properties":{"station_id":"n13536002101","station_name":"Yinghai Road","station_name_local":"迎海路","network":"Unknown","network_local":null,"operator":null,"city":"Kunming","country":"China","lines":["5"],"wikidata":null},"geometry":{"type":"Point","coordinates":[102.6623344,24.987425]}},{"type":"Feature","properties":{"station_id":"n13536002102","station_name":"Guangfuluxikou","station_name_local":"广福路西口","network":"Unknown","network_local":null,"operator":null,"city":"Kunming","country":"China","lines":["5"],"wikidata":null},"geometry":{"type":"Point","coordinates":[102.6728766,25.0073594]}},{"type":"Feature","properties":{"station_id":"n13536002105","station_name":"Xingyao Road","station_name_local":"星耀路","network":"Unknown","network_local":null,"operator":null,"city":"Kunming","country":"China","lines":["1"],"wikidata":null},"geometry":{"type":"Point","coordinates":[102.7665893,24.959845]}},{"type":"Feature","properties":{"station_id":"n13536002148","station_name":"Kelecun","station_name_local":"可乐村","network":"Unknown","network_local":null,"operator":null,"city":"Kunming","country":"China","lines":["4"],"wikidata":"Q106021369"},"geometry":{"type":"Point","coordinates":[102.7951265,24.8771275]}},{"type":"Feature","properties":{"station_id":"n13536002149","station_name":"Gucheng","station_name_local":"古城","network":"Unknown","network_local":null,"operator":null,"city":"Kunming","country":"China","lines":["4"],"wikidata":"Q106021345"},"geometry":{"type":"Point","coordinates":[102.7909615,24.8852363]}},{"type":"Feature","properties":{"station_id":"n13536002150","station_name":"Guangwei","station_name_local":"广卫","network":"Unknown","network_local":null,"operator":null,"city":"Kunming","country":"China","lines":["4"],"wikidata":"Q106020713"},"geometry":{"type":"Point","coordinates":[102.7838908,24.9522611]}},{"type":"Feature","properties":{"station_id":"n13536002151","station_name":"Jingui Street","station_name_local":"金桂街","network":"Unknown","network_local":null,"operator":null,"city":"Kunming","country":"China","lines":["4"],"wikidata":"Q106020824"},"geometry":{"type":"Point","coordinates":[102.7894525,24.9046722]}},{"type":"Feature","properties":{"station_id":"n13536002152","station_name":"Meizicun","station_name_local":"梅子村","network":"Unknown","network_local":null,"operator":null,"city":"Kunming","country":"China","lines":["4"],"wikidata":"Q106021237"},"geometry":{"type":"Point","coordinates":[102.7843629,24.8956826]}},{"type":"Feature","properties":{"station_id":"n13536002153","station_name":"Bailong Street","station_name_local":"白龙路","network":"Unknown","network_local":null,"operator":null,"city":"Kunming","country":"China","lines":["4"],"wikidata":"Q106018280"},"geometry":{"type":"Point","coordinates":[102.7333797,25.0521615]}},{"type":"Feature","properties":{"station_id":"n13536002155","station_name":"Juhuacun","station_name_local":"菊花村","network":"Unknown","network_local":null,"operator":null,"city":"Kunming","country":"China","lines":["4"],"wikidata":"Q106018301"},"geometry":{"type":"Point","coordinates":[102.7416552,25.0329859]}},{"type":"Feature","properties":{"station_id":"n13536002156","station_name":"Niujiezhuang","station_name_local":"牛街庄","network":"Unknown","network_local":null,"operator":null,"city":"Kunming","country":"China","lines":["4"],"wikidata":null},"geometry":{"type":"Point","coordinates":[102.777121,25.0085726]}},{"type":"Feature","properties":{"station_id":"n13536002157","station_name":"Yuyuan Road","station_name_local":"玉缘路","network":"Unknown","network_local":null,"operator":null,"city":"Kunming","country":"China","lines":["4"],"wikidata":"Q106020586"},"geometry":{"type":"Point","coordinates":[102.7851414,24.9677002]}},{"type":"Feature","properties":{"station_id":"n13536002161","station_name":"Xiaocaiyuan","station_name_local":"小菜园","network":"Unknown","network_local":null,"operator":null,"city":"Kunming","country":"China","lines":["4"],"wikidata":"Q106018212"},"geometry":{"type":"Point","coordinates":[102.7045038,25.0633284]}},{"type":"Feature","properties":{"station_id":"n13536002168","station_name":"Sujiatang","station_name_local":"苏家塘","network":"Unknown","network_local":null,"operator":null,"city":"Kunming","country":"China","lines":["4"],"wikidata":"Q106017906"},"geometry":{"type":"Point","coordinates":[102.6920488,25.066608]}},{"type":"Feature","properties":{"station_id":"n13536002169","station_name":"Sujiatang","station_name_local":"苏家塘","network":"Unknown","network_local":null,"operator":null,"city":"Kunming","country":"China","lines":["4"],"wikidata":"Q106017906"},"geometry":{"type":"Point","coordinates":[102.6919934,25.0665044]}},{"type":"Feature","properties":{"station_id":"n13536002182","station_name":"Jindingshan North Road","station_name_local":"金鼎山北路","network":"Unknown","network_local":null,"operator":null,"city":"Kunming","country":"China","lines":["4"],"wikidata":"Q106017880"},"geometry":{"type":"Point","coordinates":[102.6839317,25.0670913]}},{"type":"Feature","properties":{"station_id":"n13536002183","station_name":"Xiaotun","station_name_local":"小屯","network":"Unknown","network_local":null,"operator":null,"city":"Kunming","country":"China","lines":["4"],"wikidata":"Q106017835"},"geometry":{"type":"Point","coordinates":[102.6718795,25.0754189]}},{"type":"Feature","properties":{"station_id":"n13536002184","station_name":"Xiaotun","station_name_local":"小屯","network":"Unknown","network_local":null,"operator":null,"city":"Kunming","country":"China","lines":["4"],"wikidata":"Q106017835"},"geometry":{"type":"Point","coordinates":[102.6718594,25.0753194]}},{"type":"Feature","properties":{"station_id":"n13536002195","station_name":"Haitun Road","station_name_local":"海屯路","network":"Unknown","network_local":null,"operator":null,"city":"Kunming","country":"China","lines":["4"],"wikidata":"Q106011884"},"geometry":{"type":"Point","coordinates":[102.6618844,25.0797016]}},{"type":"Feature","properties":{"station_id":"n13536002196","station_name":"Dahegeng","station_name_local":"大河埂","network":"Unknown","network_local":null,"operator":null,"city":"Kunming","country":"China","lines":["4"],"wikidata":"Q106011716"},"geometry":{"type":"Point","coordinates":[102.6539146,25.093078]}},{"type":"Feature","properties":{"station_id":"n13536002197","station_name":"Dahegeng","station_name_local":"大河埂","network":"Unknown","network_local":null,"operator":null,"city":"Kunming","country":"China","lines":["4"],"wikidata":"Q106011716"},"geometry":{"type":"Point","coordinates":[102.6540092,25.0930378]}},{"type":"Feature","properties":{"station_id":"n13536002198","station_name":"Jinchuan Road","station_name_local":"金川路","network":"Unknown","network_local":null,"operator":null,"city":"Kunming","country":"China","lines":["4"],"wikidata":"Q106011451"},"geometry":{"type":"Point","coordinates":[102.6559975,25.1021427]}},{"type":"Feature","properties":{"station_id":"n13536002199","station_name":"Jinchuan Road","station_name_local":"金川路","network":"Unknown","network_local":null,"operator":null,"city":"Kunming","country":"China","lines":["4"],"wikidata":"Q106011451"},"geometry":{"type":"Point","coordinates":[102.6558881,25.1021413]}},{"type":"Feature","properties":{"station_id":"n13536002204","station_name":"Xiangfeng Street","station_name_local":"祥丰街","network":"Unknown","network_local":null,"operator":null,"city":"Kunming","country":"China","lines":["4"],"wikidata":"Q106021391"},"geometry":{"type":"Point","coordinates":[102.8014132,24.8604504]}},{"type":"Feature","properties":{"station_id":"n13536002205","station_name":"Niutoushan","station_name_local":"牛头山","network":"Unknown","network_local":null,"operator":null,"city":"Kunming","country":"China","lines":["4"],"wikidata":"Q106021412"},"geometry":{"type":"Point","coordinates":[102.8127171,24.8567163]}},{"type":"Feature","properties":{"station_id":"n13536002206","station_name":"Wujiaying","station_name_local":"吴家营","network":"Unknown","network_local":null,"operator":null,"city":"Kunming","country":"China","lines":["4"],"wikidata":"Q106021439"},"geometry":{"type":"Point","coordinates":[102.8471313,24.8693288]}},{"type":"Feature","properties":{"station_id":"n13536002216","station_name":"New Asia Athletics Park","station_name_local":"新亚洲体育城","network":"Unknown","network_local":null,"operator":null,"city":"Kunming","country":"China","lines":["1"],"wikidata":"Q11081049"},"geometry":{"type":"Point","coordinates":[102.7681286,24.9499491]}},{"type":"Feature","properties":{"station_id":"n13536002218","station_name":"South Coach Station","station_name_local":"南部汽车站","network":"Unknown","network_local":null,"operator":null,"city":"Kunming","country":"China","lines":["1"],"wikidata":null},"geometry":{"type":"Point","coordinates":[102.7736637,24.9322381]}},{"type":"Feature","properties":{"station_id":"n13536002354","station_name":"Chunrong Street","station_name_local":"春融街","network":"Unknown","network_local":null,"operator":null,"city":"Kunming","country":"China","lines":["1"],"wikidata":"Q11088875"},"geometry":{"type":"Point","coordinates":[102.8239253,24.8869745]}},{"type":"Feature","properties":{"station_id":"n13536002357","station_name":"Erji Road","station_name_local":"珥季路","network":"Unknown","network_local":null,"operator":null,"city":"Kunming","country":"China","lines":["1"],"wikidata":"Q17060161"},"geometry":{"type":"Point","coordinates":[102.7653328,24.9754977]}},{"type":"Feature","properties":{"station_id":"n13536002358","station_name":"Xiaodongcun","station_name_local":"晓东村","network":"Unknown","network_local":null,"operator":null,"city":"Kunming","country":"China","lines":["1"],"wikidata":"Q11089476"},"geometry":{"type":"Point","coordinates":[102.7597001,24.9882534]}},{"type":"Feature","properties":{"station_id":"n13536002359","station_name":"Changhong West Road","station_name_local":"昌宏西路","network":"Unknown","network_local":null,"operator":null,"city":"Kunming","country":"China","lines":["1"],"wikidata":"Q28415043"},"geometry":{"type":"Point","coordinates":[102.7496445,24.9891553]}},{"type":"Feature","properties":{"station_id":"n13536002360","station_name":"Wujiaba","station_name_local":"巫家坝","network":"Unknown","network_local":null,"operator":null,"city":"Kunming","country":"China","lines":["1"],"wikidata":"Q28415045"},"geometry":{"type":"Point","coordinates":[102.7400503,24.9999855]}},{"type":"Feature","properties":{"station_id":"n13536002361","station_name":"Rixin Road","station_name_local":"日新路","network":"Unknown","network_local":null,"operator":null,"city":"Kunming","country":"China","lines":["1"],"wikidata":"Q28415050"},"geometry":{"type":"Point","coordinates":[102.7334815,25.0043246]}},{"type":"Feature","properties":{"station_id":"n13536002362","station_name":"Fude","station_name_local":"福德","network":"Unknown","network_local":null,"operator":null,"city":"Kunming","country":"China","lines":["1"],"wikidata":"Q28415048"},"geometry":{"type":"Point","coordinates":[102.7286428,25.009998]}},{"type":"Feature","properties":{"station_id":"n13536002363","station_name":"Kunming Railway Station","station_name_local":"昆明火车站","network":"Unknown","network_local":null,"operator":null,"city":"Kunming","country":"China","lines":["1"],"wikidata":"Q23530618"},"geometry":{"type":"Point","coordinates":[102.7217039,25.016444]}},{"type":"Feature","properties":{"station_id":"n13536002364","station_name":"Jiaosanqiao","station_name_local":"交三桥","network":"Unknown","network_local":null,"operator":null,"city":"Kunming","country":"China","lines":["2"],"wikidata":"Q26261984"},"geometry":{"type":"Point","coordinates":[102.7181876,25.0454326]}},{"type":"Feature","properties":{"station_id":"n13536002365","station_name":"Chuanxin Gulou","station_name_local":"穿心鼓楼","network":"Unknown","network_local":null,"operator":null,"city":"Kunming","country":"China","lines":["2"],"wikidata":"Q24832556"},"geometry":{"type":"Point","coordinates":[102.7180535,25.0524114]}},{"type":"Feature","properties":{"station_id":"n13536002366","station_name":"Jinxing","station_name_local":"金星","network":"Unknown","network_local":null,"operator":null,"city":"Kunming","country":"China","lines":["2"],"wikidata":"Q28415054"},"geometry":{"type":"Point","coordinates":[102.72632,25.0788965]}},{"type":"Feature","properties":{"station_id":"n13536002367","station_name":"Baiyun Road","station_name_local":"白云路","network":"Unknown","network_local":null,"operator":null,"city":"Kunming","country":"China","lines":["2"],"wikidata":"Q28415056"},"geometry":{"type":"Point","coordinates":[102.7223249,25.0687718]}},{"type":"Feature","properties":{"station_id":"n13536002368","station_name":"Beichen","station_name_local":"北辰","network":"Unknown","network_local":null,"operator":null,"city":"Kunming","country":"China","lines":["2"],"wikidata":"Q28415051"},"geometry":{"type":"Point","coordinates":[102.7310809,25.0839737]}},{"type":"Feature","properties":{"station_id":"n13536002369","station_name":"Linyu bridge","station_name_local":"霖雨桥","network":"Unknown","network_local":null,"operator":null,"city":"Kunming","country":"China","lines":["2"],"wikidata":"Q28415049"},"geometry":{"type":"Point","coordinates":[102.7376879,25.0963368]}},{"type":"Feature","properties":{"station_id":"n13536002370","station_name":"Yangchangcun","station_name_local":"羊肠村","network":"Unknown","network_local":null,"operator":null,"city":"Kunming","country":"China","lines":["2"],"wikidata":"Q28415047"},"geometry":{"type":"Point","coordinates":[102.7404338,25.1038361]}},{"type":"Feature","properties":{"station_id":"n13536002371","station_name":"Si jia ying","station_name_local":"司家营","network":"Unknown","network_local":null,"operator":null,"city":"Kunming","country":"China","lines":["2"],"wikidata":"Q28415046"},"geometry":{"type":"Point","coordinates":[102.7441976,25.1126937]}},{"type":"Feature","properties":{"station_id":"n13536002660","station_name":"Chejiabi","station_name_local":"车家壁","network":"Unknown","network_local":null,"operator":null,"city":"Kunming","country":"China","lines":["3"],"wikidata":"Q60675352"},"geometry":{"type":"Point","coordinates":[102.6146117,24.9976773]}},{"type":"Feature","properties":{"station_id":"n13536002669","station_name":"Pupingcun","station_name_local":"普坪村","network":"Unknown","network_local":null,"operator":null,"city":"Kunming","country":"China","lines":["3"],"wikidata":"Q60675354"},"geometry":{"type":"Point","coordinates":[102.6200053,25.0082009]}},{"type":"Feature","properties":{"station_id":"n13536002686","station_name":"Shizui","station_name_local":"石咀","network":"Unknown","network_local":null,"operator":null,"city":"Kunming","country":"China","lines":["3"],"wikidata":"Q60675348"},"geometry":{"type":"Point","coordinates":[102.6283886,25.0215612]}},{"type":"Feature","properties":{"station_id":"n13536002696","station_name":"Dayu Road","station_name_local":"大渔路","network":"Unknown","network_local":null,"operator":null,"city":"Kunming","country":"China","lines":["3"],"wikidata":"Q60675383"},"geometry":{"type":"Point","coordinates":[102.6345036,25.0309402]}},{"type":"Feature","properties":{"station_id":"n13536002702","station_name":"West Bus Station","station_name_local":"西部汽车站","network":"Unknown","network_local":null,"operator":null,"city":"Kunming","country":"China","lines":["3"],"wikidata":"Q60675344"},"geometry":{"type":"Point","coordinates":[102.6377178,25.0387453]}},{"type":"Feature","properties":{"station_id":"n13536002722","station_name":"Mianshan","station_name_local":"眠山","network":"Unknown","network_local":null,"operator":null,"city":"Kunming","country":"China","lines":["3"],"wikidata":"Q60675385"},"geometry":{"type":"Point","coordinates":[102.6482451,25.050209]}},{"type":"Feature","properties":{"station_id":"n13536002725","station_name":"Changyuan Middle Road","station_name_local":"昌源中路","network":"Unknown","network_local":null,"operator":null,"city":"Kunming","country":"China","lines":["3"],"wikidata":"Q60675361"},"geometry":{"type":"Point","coordinates":[102.6556335,25.0496702]}},{"type":"Feature","properties":{"station_id":"n13536002728","station_name":"Xiyuan","station_name_local":"西苑","network":"Unknown","network_local":null,"operator":null,"city":"Kunming","country":"China","lines":["3"],"wikidata":"Q60675334"},"geometry":{"type":"Point","coordinates":[102.6645773,25.0489916]}},{"type":"Feature","properties":{"station_id":"n13536002736","station_name":"Liangjiahe","station_name_local":"梁家河","network":"Unknown","network_local":null,"operator":null,"city":"Kunming","country":"China","lines":["3"],"wikidata":"Q60675387"},"geometry":{"type":"Point","coordinates":[102.6762542,25.0481395]}},{"type":"Feature","properties":{"station_id":"n13536002740","station_name":"Municipal Gymnasium Station","station_name_local":"市体育馆","network":"Unknown","network_local":null,"operator":null,"city":"Kunming","country":"China","lines":["3"],"wikidata":"Q60675389"},"geometry":{"type":"Point","coordinates":[102.6871282,25.0473471]}},{"type":"Feature","properties":{"station_id":"n13536002746","station_name":"Panjiawan","station_name_local":"潘家湾","network":"Unknown","network_local":null,"operator":null,"city":"Kunming","country":"China","lines":["3"],"wikidata":"Q60675381"},"geometry":{"type":"Point","coordinates":[102.693804,25.0468085]}},{"type":"Feature","properties":{"station_id":"n13536002763","station_name":"Wuyi Road","station_name_local":"五一路","network":"Unknown","network_local":null,"operator":null,"city":"Kunming","country":"China","lines":["3"],"wikidata":null},"geometry":{"type":"Point","coordinates":[102.7044293,25.0401727]}},{"type":"Feature","properties":{"station_id":"n13536002785","station_name":"Dongfeng Square","station_name_local":"东风广场","network":"Unknown","network_local":null,"operator":null,"city":"Kunming","country":"China","lines":["3"],"wikidata":null},"geometry":{"type":"Point","coordinates":[102.7178013,25.0410239]}},{"type":"Feature","properties":{"station_id":"n13536002788","station_name":"Tuodong Stadium","station_name_local":"拓东体育馆","network":"Unknown","network_local":null,"operator":null,"city":"Kunming","country":"China","lines":["3"],"wikidata":null},"geometry":{"type":"Point","coordinates":[102.7284555,25.0411523]}},{"type":"Feature","properties":{"station_id":"n13536002792","station_name":"Dashuying","station_name_local":"大树营","network":"Unknown","network_local":null,"operator":null,"city":"Kunming","country":"China","lines":["3"],"wikidata":null},"geometry":{"type":"Point","coordinates":[102.7399838,25.0400292]}},{"type":"Feature","properties":{"station_id":"n13536002797","station_name":"Jinma temple","station_name_local":"金马寺","network":"Unknown","network_local":null,"operator":null,"city":"Kunming","country":"China","lines":["3"],"wikidata":null},"geometry":{"type":"Point","coordinates":[102.7502655,25.0390093]}},{"type":"Feature","properties":{"station_id":"n13536002803","station_name":"Taipingcun","station_name_local":"太平村","network":"Unknown","network_local":null,"operator":null,"city":"Kunming","country":"China","lines":["3"],"wikidata":null},"geometry":{"type":"Point","coordinates":[102.7591024,25.0393008]}},{"type":"Feature","properties":{"station_id":"n13536002812","station_name":"Hongqiao","station_name_local":"虹桥","network":"Unknown","network_local":null,"operator":null,"city":"Kunming","country":"China","lines":["3"],"wikidata":"Q51345877"},"geometry":{"type":"Point","coordinates":[102.7716897,25.039045]}},{"type":"Feature","properties":{"station_id":"n13536002814","station_name":"Western Hills Park","station_name_local":"西山公园","network":"Unknown","network_local":null,"operator":null,"city":"Kunming","country":"China","lines":["3"],"wikidata":null},"geometry":{"type":"Point","coordinates":[102.6168538,24.9873307]}},{"type":"Feature","properties":{"station_id":"n13536002820","station_name":"Jinma temple","station_name_local":"金马寺","network":"Unknown","network_local":null,"operator":null,"city":"Kunming","country":"China","lines":["3"],"wikidata":null},"geometry":{"type":"Point","coordinates":[102.7502551,25.0390728]}},{"type":"Feature","properties":{"station_id":"n13536002826","station_name":"Taipingcun","station_name_local":"太平村","network":"Unknown","network_local":null,"operator":null,"city":"Kunming","country":"China","lines":["3"],"wikidata":null},"geometry":{"type":"Point","coordinates":[102.759092,25.0393416]}},{"type":"Feature","properties":{"station_id":"n13536002835","station_name":"Hongqiao","station_name_local":"虹桥","network":"Unknown","network_local":null,"operator":null,"city":"Kunming","country":"China","lines":["3"],"wikidata":"Q51345877"},"geometry":{"type":"Point","coordinates":[102.7716838,25.0390875]}},{"type":"Feature","properties":{"station_id":"n13536002837","station_name":"Dashuying","station_name_local":"大树营","network":"Unknown","network_local":null,"operator":null,"city":"Kunming","country":"China","lines":["3"],"wikidata":null},"geometry":{"type":"Point","coordinates":[102.7400477,25.0401256]}},{"type":"Feature","properties":{"station_id":"n13536002856","station_name":"Chejiabi","station_name_local":"车家壁","network":"Unknown","network_local":null,"operator":null,"city":"Kunming","country":"China","lines":["3"],"wikidata":"Q60675352"},"geometry":{"type":"Point","coordinates":[102.6144953,24.9977161]}},{"type":"Feature","properties":{"station_id":"n13536002865","station_name":"Pupingcun","station_name_local":"普坪村","network":"Unknown","network_local":null,"operator":null,"city":"Kunming","country":"China","lines":["3"],"wikidata":"Q60675354"},"geometry":{"type":"Point","coordinates":[102.6198792,25.0082026]}},{"type":"Feature","properties":{"station_id":"n13536002882","station_name":"Shizui","station_name_local":"石咀","network":"Unknown","network_local":null,"operator":null,"city":"Kunming","country":"China","lines":["3"],"wikidata":"Q60675348"},"geometry":{"type":"Point","coordinates":[102.6282825,25.0216193]}},{"type":"Feature","properties":{"station_id":"n13536002892","station_name":"Dayu Road","station_name_local":"大渔路","network":"Unknown","network_local":null,"operator":null,"city":"Kunming","country":"China","lines":["3"],"wikidata":"Q60675383"},"geometry":{"type":"Point","coordinates":[102.6343905,25.0309866]}},{"type":"Feature","properties":{"station_id":"n13536002898","station_name":"West Bus Station","station_name_local":"西部汽车站","network":"Unknown","network_local":null,"operator":null,"city":"Kunming","country":"China","lines":["3"],"wikidata":"Q60675344"},"geometry":{"type":"Point","coordinates":[102.6375995,25.0387791]}},{"type":"Feature","properties":{"station_id":"n13536002918","station_name":"Mianshan","station_name_local":"眠山","network":"Unknown","network_local":null,"operator":null,"city":"Kunming","country":"China","lines":["3"],"wikidata":"Q60675385"},"geometry":{"type":"Point","coordinates":[102.6482553,25.0503209]}},{"type":"Feature","properties":{"station_id":"n13536002921","station_name":"Changyuan Middle Road","station_name_local":"昌源中路","network":"Unknown","network_local":null,"operator":null,"city":"Kunming","country":"China","lines":["3"],"wikidata":"Q60675361"},"geometry":{"type":"Point","coordinates":[102.6556441,25.0497821]}},{"type":"Feature","properties":{"station_id":"n13536002924","station_name":"Xiyuan","station_name_local":"西苑","network":"Unknown","network_local":null,"operator":null,"city":"Kunming","country":"China","lines":["3"],"wikidata":"Q60675334"},"geometry":{"type":"Point","coordinates":[102.6645881,25.0491035]}},{"type":"Feature","properties":{"station_id":"n13536002932","station_name":"Liangjiahe","station_name_local":"梁家河","network":"Unknown","network_local":null,"operator":null,"city":"Kunming","country":"China","lines":["3"],"wikidata":"Q60675387"},"geometry":{"type":"Point","coordinates":[102.676264,25.0482514]}},{"type":"Feature","properties":{"station_id":"n13536002936","station_name":"Municipal Gymnasium Station","station_name_local":"市体育馆","network":"Unknown","network_local":null,"operator":null,"city":"Kunming","country":"China","lines":["3"],"wikidata":"Q60675389"},"geometry":{"type":"Point","coordinates":[102.6871405,25.0474588]}},{"type":"Feature","properties":{"station_id":"n13536002942","station_name":"Panjiawan","station_name_local":"潘家湾","network":"Unknown","network_local":null,"operator":null,"city":"Kunming","country":"China","lines":["3"],"wikidata":"Q60675381"},"geometry":{"type":"Point","coordinates":[102.6938142,25.0469204]}},{"type":"Feature","properties":{"station_id":"n13536002959","station_name":"Wuyi Road","station_name_local":"五一路","network":"Unknown","network_local":null,"operator":null,"city":"Kunming","country":"China","lines":["3"],"wikidata":null},"geometry":{"type":"Point","coordinates":[102.7044768,25.0402765]}},{"type":"Feature","properties":{"station_id":"n13536002981","station_name":"Dongfeng Square","station_name_local":"东风广场","network":"Unknown","network_local":null,"operator":null,"city":"Kunming","country":"China","lines":["3"],"wikidata":null},"geometry":{"type":"Point","coordinates":[102.7178,25.0411362]}},{"type":"Feature","properties":{"station_id":"n13536002984","station_name":"Tuodong Stadium","station_name_local":"拓东体育馆","network":"Unknown","network_local":null,"operator":null,"city":"Kunming","country":"China","lines":["3"],"wikidata":null},"geometry":{"type":"Point","coordinates":[102.7284538,25.0412646]}},{"type":"Feature","properties":{"station_id":"n13536002989","station_name":"Western Hills Park","station_name_local":"西山公园","network":"Unknown","network_local":null,"operator":null,"city":"Kunming","country":"China","lines":["3"],"wikidata":null},"geometry":{"type":"Point","coordinates":[102.6168354,24.9873015]}},{"type":"Feature","properties":{"station_id":"n13536003408","station_name":"North Coach Station","station_name_local":"北部汽车站","network":"Unknown","network_local":null,"operator":null,"city":"Kunming","country":"China","lines":["2"],"wikidata":"Q17021823"},"geometry":{"type":"Point","coordinates":[102.7619011,25.1101304]}},{"type":"Feature","properties":{"station_id":"n13536003531","station_name":"Haitun Road","station_name_local":"海屯路","network":"Unknown","network_local":null,"operator":null,"city":"Kunming","country":"China","lines":["4"],"wikidata":"Q106011884"},"geometry":{"type":"Point","coordinates":[102.661872,25.0796253]}},{"type":"Feature","properties":{"station_id":"n13536003542","station_name":"Jindingshan North Road","station_name_local":"金鼎山北路","network":"Unknown","network_local":null,"operator":null,"city":"Kunming","country":"China","lines":["4"],"wikidata":"Q106017880"},"geometry":{"type":"Point","coordinates":[102.6839506,25.06707]}},{"type":"Feature","properties":{"station_id":"n13536003555","station_name":"Xiaocaiyuan","station_name_local":"小菜园","network":"Unknown","network_local":null,"operator":null,"city":"Kunming","country":"China","lines":["4"],"wikidata":"Q106018212"},"geometry":{"type":"Point","coordinates":[102.7045018,25.0632673]}},{"type":"Feature","properties":{"station_id":"n13536003573","station_name":"Bailong Street","station_name_local":"白龙路","network":"Unknown","network_local":null,"operator":null,"city":"Kunming","country":"China","lines":["4"],"wikidata":"Q106018280"},"geometry":{"type":"Point","coordinates":[102.7333246,25.0521417]}},{"type":"Feature","properties":{"station_id":"n13536003577","station_name":"Dashuying","station_name_local":"大树营","network":"Unknown","network_local":null,"operator":null,"city":"Kunming","country":"China","lines":["4"],"wikidata":null},"geometry":{"type":"Point","coordinates":[102.7387489,25.039981]}},{"type":"Feature","properties":{"station_id":"n13536003583","station_name":"Juhua","station_name_local":"菊华","network":"Unknown","network_local":null,"operator":null,"city":"Kunming","country":"China","lines":["4"],"wikidata":null},"geometry":{"type":"Point","coordinates":[102.7479318,25.0275287]}},{"type":"Feature","properties":{"station_id":"n13536003598","station_name":"Hedianying","station_name_local":"和甸营","network":"Unknown","network_local":null,"operator":null,"city":"Kunming","country":"China","lines":["4"],"wikidata":null},"geometry":{"type":"Point","coordinates":[102.7610572,25.0178202]}},{"type":"Feature","properties":{"station_id":"n13536003608","station_name":"Niujiezhuang","station_name_local":"牛街庄","network":"Unknown","network_local":null,"operator":null,"city":"Kunming","country":"China","lines":["4"],"wikidata":null},"geometry":{"type":"Point","coordinates":[102.7771019,25.0085122]}},{"type":"Feature","properties":{"station_id":"n13536003636","station_name":"Zhujiacun","station_name_local":"朱家村","network":"Unknown","network_local":null,"operator":null,"city":"Kunming","country":"China","lines":["4"],"wikidata":"Q106020490"},"geometry":{"type":"Point","coordinates":[102.7820999,24.9966713]}},{"type":"Feature","properties":{"station_id":"n13536003646","station_name":"Yangfutou","station_name_local":"羊甫头","network":"Unknown","network_local":null,"operator":null,"city":"Kunming","country":"China","lines":["4"],"wikidata":null},"geometry":{"type":"Point","coordinates":[102.7841193,24.9812]}},{"type":"Feature","properties":{"station_id":"n13536003653","station_name":"Yuyuan Road","station_name_local":"玉缘路","network":"Unknown","network_local":null,"operator":null,"city":"Kunming","country":"China","lines":["4"],"wikidata":"Q106020586"},"geometry":{"type":"Point","coordinates":[102.7850987,24.9676873]}},{"type":"Feature","properties":{"station_id":"n13536003679","station_name":"Guangwei","station_name_local":"广卫","network":"Unknown","network_local":null,"operator":null,"city":"Kunming","country":"China","lines":["4"],"wikidata":"Q106020713"},"geometry":{"type":"Point","coordinates":[102.7838268,24.9522499]}},{"type":"Feature","properties":{"station_id":"n13536003707","station_name":"Dounan","station_name_local":"斗南","network":"Unknown","network_local":null,"operator":null,"city":"Kunming","country":"China","lines":["4"],"wikidata":null},"geometry":{"type":"Point","coordinates":[102.7911788,24.9113548]}},{"type":"Feature","properties":{"station_id":"n13536003724","station_name":"Jingui Street","station_name_local":"金桂街","network":"Unknown","network_local":null,"operator":null,"city":"Kunming","country":"China","lines":["4"],"wikidata":"Q106020824"},"geometry":{"type":"Point","coordinates":[102.7887417,24.9043296]}},{"type":"Feature","properties":{"station_id":"n13536003739","station_name":"Meizicun","station_name_local":"梅子村","network":"Unknown","network_local":null,"operator":null,"city":"Kunming","country":"China","lines":["4"],"wikidata":"Q106021237"},"geometry":{"type":"Point","coordinates":[102.784318,24.8956549]}},{"type":"Feature","properties":{"station_id":"n13536003742","station_name":"Gucheng","station_name_local":"古城","network":"Unknown","network_local":null,"operator":null,"city":"Kunming","country":"China","lines":["4"],"wikidata":"Q106021345"},"geometry":{"type":"Point","coordinates":[102.7908834,24.8852078]}},{"type":"Feature","properties":{"station_id":"n13536003747","station_name":"Kelecun","station_name_local":"可乐村","network":"Unknown","network_local":null,"operator":null,"city":"Kunming","country":"China","lines":["4"],"wikidata":"Q106021369"},"geometry":{"type":"Point","coordinates":[102.7950605,24.8771107]}},{"type":"Feature","properties":{"station_id":"n13536003753","station_name":"Xiangfeng Street","station_name_local":"祥丰街","network":"Unknown","network_local":null,"operator":null,"city":"Kunming","country":"China","lines":["4"],"wikidata":"Q106021391"},"geometry":{"type":"Point","coordinates":[102.8013491,24.8604327]}},{"type":"Feature","properties":{"station_id":"n13536003765","station_name":"Niutoushan","station_name_local":"牛头山","network":"Unknown","network_local":null,"operator":null,"city":"Kunming","country":"China","lines":["4"],"wikidata":"Q106021412"},"geometry":{"type":"Point","coordinates":[102.8127475,24.8566557]}},{"type":"Feature","properties":{"station_id":"n13536003767","station_name":"Lianda Street","station_name_local":"联大街","network":"Unknown","network_local":null,"operator":null,"city":"Kunming","country":"China","lines":["4"],"wikidata":null},"geometry":{"type":"Point","coordinates":[102.832457,24.8625438]}},{"type":"Feature","properties":{"station_id":"n13536003775","station_name":"Wujiaying","station_name_local":"吴家营","network":"Unknown","network_local":null,"operator":null,"city":"Kunming","country":"China","lines":["4"],"wikidata":"Q106021439"},"geometry":{"type":"Point","coordinates":[102.8471454,24.8692675]}},{"type":"Feature","properties":{"station_id":"n13536003776","station_name":"Kunming South Railway Station","station_name_local":"昆明南火车站","network":"Unknown","network_local":null,"operator":null,"city":"Kunming","country":"China","lines":["4"],"wikidata":null},"geometry":{"type":"Point","coordinates":[102.8594521,24.8729985]}},{"type":"Feature","properties":{"station_id":"n13536003778","station_name":"North Railway Station","station_name_local":"火车北站","network":"Unknown","network_local":null,"operator":null,"city":"Kunming","country":"China","lines":["4"],"wikidata":null},"geometry":{"type":"Point","coordinates":[102.7217086,25.0594979]}},{"type":"Feature","properties":{"station_id":"n13536630269","station_name":"Kunming Airport","station_name_local":"机场中心","network":"Kunming Rail Transit","network_local":"昆明轨道交通","operator":null,"city":"Kunming","country":"China","lines":["6"],"wikidata":"Q11095039"},"geometry":{"type":"Point","coordinates":[102.9262573,25.0985508]}},{"type":"Feature","properties":{"station_id":"n13569391595","station_name":"Zhujiacun","station_name_local":"朱家村","network":"Unknown","network_local":null,"operator":null,"city":"Kunming","country":"China","lines":["4"],"wikidata":"Q106020490"},"geometry":{"type":"Point","coordinates":[102.7821609,24.9966587]}},{"type":"Feature","properties":{"station_id":"n13569391596","station_name":"Tami","station_name_local":"塔密","network":"Unknown","network_local":null,"operator":null,"city":"Kunming","country":"China","lines":["4"],"wikidata":"Q106020723"},"geometry":{"type":"Point","coordinates":[102.7858785,24.9402369]}},{"type":"Feature","properties":{"station_id":"n13572581608","station_name":"Cha jie","station_name_local":"岔街","network":"Unknown","network_local":null,"operator":null,"city":"Kunming","country":"China","lines":["6"],"wikidata":"Q52171127"},"geometry":{"type":"Point","coordinates":[102.7329216,25.0339764]}},{"type":"Feature","properties":{"station_id":"n13572581609","station_name":"Dongjiao Road","station_name_local":"东郊路","network":"Unknown","network_local":null,"operator":null,"city":"Kunming","country":"China","lines":["6"],"wikidata":"Q106020270"},"geometry":{"type":"Point","coordinates":[102.7396151,25.0305433]}},{"type":"Feature","properties":{"station_id":"n13580931863","station_name":"Hedianying","station_name_local":"和甸营","network":"Unknown","network_local":null,"operator":null,"city":"Kunming","country":"China","lines":["4"],"wikidata":"Q106020438"},"geometry":{"type":"Point","coordinates":[102.7610895,25.0178684]}},{"type":"Feature","properties":{"station_id":"n13584361551","station_name":"Longtou Street","station_name_local":"龙头街","network":"Unknown","network_local":null,"operator":null,"city":"Kunming","country":"China","lines":["2"],"wikidata":"Q28415053"},"geometry":{"type":"Point","coordinates":[102.7523334,25.1147982]}},{"type":"Feature","properties":{"station_id":"n13584362725","station_name":"Yangfutou","station_name_local":"羊甫头","network":"Unknown","network_local":null,"operator":null,"city":"Kunming","country":"China","lines":["4"],"wikidata":"Q106020515"},"geometry":{"type":"Point","coordinates":[102.7841766,24.9811968]}}]}