{"type":"FeatureCollection","metro_system":{"continent":"asia","country":"China","city":"Lanzhou","osm_networks":["Lanzhou Metro","Unknown"],"operator":"Lanzhou Rail Transit","official_website":null,"official_map":"https://en.wikipedia.org/wiki/Line_1_(Lanzhou_Metro)","wikidata":"Q10893610","line_count":2,"station_count":26,"audit":{"strategies_tried":[],"passed":true,"checks":[{"id":"system_exists","ok":true,"detail":"matched OSM system systems/asia/china/asia-china-lanzhou.geojson","level":"error"},{"id":"has_lines","ok":true,"detail":"2 lines","level":"error"},{"id":"has_stations","ok":true,"detail":"26 stations","level":"error"},{"id":"station_ratio","ok":true,"detail":"OSM 26 vs Wikipedia 27（比值 0.96）","level":"error"},{"id":"stations_have_lines","ok":true,"detail":"26/26 站皆有所屬路線","level":"error"},{"id":"stations_named","ok":true,"detail":"26/26 站有名稱","level":"warn"},{"id":"station_order","ok":true,"detail":"所有線路站序合理","level":"warn"}],"reasons":[],"warnings":[],"audited_at":"2026-07-10T07:56:59.653Z"}},"features":[{"type":"Feature","properties":{"route_id":"rm10380194","route_name":"Lanzhou Metro Line 1","route_name_local":"兰州轨道交通1号线","route_ref":"1","route_color":"#0080bc","network":"Lanzhou Metro","network_local":"兰州轨道交通","operator":"Lanzhou Rail Transit","city":"Lanzhou","country":"China","wikidata":"Q10893610","wikipedia":"en:Line 1 (Lanzhou Metro)","osm_route_ids":[6078060,10380192]},"geometry":{"type":"MultiLineString","coordinates":[[[103.6600231,36.0872438],[103.6746846,36.0904412],[103.6988974,36.0991122],[103.7069729,36.094683],[103.724763,36.083139],[103.740682,36.0733287],[103.7499499,36.0705343],[103.7672184,36.0687054],[103.7788684,36.0666748],[103.7922185,36.0642293],[103.8029961,36.0613487],[103.8148845,36.0598963],[103.8394882,36.0533933],[103.8544478,36.0504734],[103.8677873,36.047257],[103.8811081,36.0421071],[103.8936447,36.0394794],[103.9051859,36.0386393],[103.9156375,36.0407627]],[[103.9156237,36.0408062],[103.90517,36.0386824],[103.8936517,36.039524],[103.8811239,36.0421502],[103.8678027,36.0473001],[103.8544628,36.0505168],[103.8395378,36.053632],[103.8134006,36.0599877],[103.8030154,36.0613909],[103.7922335,36.0642726],[103.7788794,36.0667189],[103.767228,36.0687562],[103.749961,36.0705783],[103.740689,36.0733733],[103.7248102,36.0831627],[103.7070171,36.0947103],[103.6989087,36.0991562],[103.6746578,36.0904806],[103.6600567,36.0873388]]]}},{"type":"Feature","properties":{"route_id":"rm15924888","route_name":"Lanzhou Metro Line 2","route_name_local":"兰州轨道交通2号线","route_ref":"2","route_color":"#ff0000","network":"Lanzhou Metro","network_local":"兰州轨道交通","operator":"Lanzhou Rail Transit","city":"Lanzhou","country":"China","wikidata":"Q65050458","wikipedia":"zh:兰州轨道交通2号线","osm_route_ids":[15917615,15917616]},"geometry":{"type":"MultiLineString","coordinates":[[[103.8822285,36.0691422],[103.8782142,36.0605785],[103.8748729,36.0561861],[103.8691206,36.0470524],[103.8668206,36.0398243],[103.8575943,36.0346665],[103.8509427,36.0362086],[103.846228,36.0426253],[103.8395002,36.0534954]]]}},{"type":"Feature","properties":{"station_id":"n3945258045","station_name":"Jiaojiawan","station_name_local":"焦家湾","network":"Unknown","network_local":null,"operator":null,"city":"Lanzhou","country":"China","lines":["1"],"wikidata":"Q64761777"},"geometry":{"type":"Point","coordinates":[103.9051784,36.0386607]}},{"type":"Feature","properties":{"station_id":"n4077238744","station_name":"Junjiatan","station_name_local":"均家滩","network":"Unknown","network_local":null,"operator":null,"city":"Lanzhou","country":"China","lines":["2"],"wikidata":null,"merged_from":3},"geometry":{"type":"Point","coordinates":[103.87819776666667,36.06059153333333]}},{"type":"Feature","properties":{"station_id":"n4173957771","station_name":"Wulipu","station_name_local":"五里铺","network":"Unknown","network_local":null,"operator":null,"city":"Lanzhou","country":"China","lines":["2"],"wikidata":"Q64761823"},"geometry":{"type":"Point","coordinates":[103.8690966,36.04699]}},{"type":"Feature","properties":{"station_id":"n4290398448","station_name":"Donggang","station_name_local":"东岗","network":"Unknown","network_local":null,"operator":null,"city":"Lanzhou","country":"China","lines":["1"],"wikidata":"Q64761716"},"geometry":{"type":"Point","coordinates":[103.9156283,36.0407831]}},{"type":"Feature","properties":{"station_id":"n5636152181","station_name":"Chenguanying","station_name_local":"陈官营","network":"Unknown","network_local":null,"operator":null,"city":"Lanzhou","country":"China","lines":["1"],"wikidata":null},"geometry":{"type":"Point","coordinates":[103.6600319,36.0873004]}},{"type":"Feature","properties":{"station_id":"n6563923252","station_name":"Olympic Sports Center","station_name_local":"奥体中心","network":"Unknown","network_local":null,"operator":null,"city":"Lanzhou","country":"China","lines":["1"],"wikidata":"Q64761295"},"geometry":{"type":"Point","coordinates":[103.674672,36.0904595]}},{"type":"Feature","properties":{"station_id":"n6563941615","station_name":"Lanzhou City University (Gansu Science & Technology Museum)","station_name_local":"兰州城市学院（省科技馆）","network":"Unknown","network_local":null,"operator":null,"city":"Lanzhou","country":"China","lines":["1"],"wikidata":"Q64761642"},"geometry":{"type":"Point","coordinates":[103.6989021,36.0991341]}},{"type":"Feature","properties":{"station_id":"n6563941624","station_name":"Yingmentan","station_name_local":"兰州海关","network":"Unknown","network_local":null,"operator":null,"city":"Lanzhou","country":"China","lines":["1"],"wikidata":null},"geometry":{"type":"Point","coordinates":[103.706994,36.0946963]}},{"type":"Feature","properties":{"station_id":"n6563941662","station_name":"Matan","station_name_local":"马滩","network":"Unknown","network_local":null,"operator":null,"city":"Lanzhou","country":"China","lines":["1"],"wikidata":"Q64762051"},"geometry":{"type":"Point","coordinates":[103.7247854,36.0831509]}},{"type":"Feature","properties":{"station_id":"n6563941666","station_name":"Tumendun","station_name_local":"土门墩","network":"Unknown","network_local":null,"operator":null,"city":"Lanzhou","country":"China","lines":["1"],"wikidata":"Q64762040"},"geometry":{"type":"Point","coordinates":[103.740685,36.0733499]}},{"type":"Feature","properties":{"station_id":"n6563941677","station_name":"North Square of Lanzhou West Railway Station","station_name_local":"兰州西站北广场","network":"Unknown","network_local":null,"operator":null,"city":"Lanzhou","country":"China","lines":["1"],"wikidata":"Q64761145"},"geometry":{"type":"Point","coordinates":[103.749977,36.0705554]}},{"type":"Feature","properties":{"station_id":"n6563941678","station_name":"Xizhanshizi","station_name_local":"西站什字","network":"Unknown","network_local":null,"operator":null,"city":"Lanzhou","country":"China","lines":["1"],"wikidata":"Q64761312"},"geometry":{"type":"Point","coordinates":[103.767222,36.0687137]}},{"type":"Feature","properties":{"station_id":"n6563941698","station_name":"Qilihe","station_name_local":"七里河","network":"Unknown","network_local":null,"operator":null,"city":"Lanzhou","country":"China","lines":["1"],"wikidata":"Q64764471"},"geometry":{"type":"Point","coordinates":[103.7788752,36.0667017]}},{"type":"Feature","properties":{"station_id":"n6563941701","station_name":"Xiaoxihu Park","station_name_local":"小西湖","network":"Unknown","network_local":null,"operator":null,"city":"Lanzhou","country":"China","lines":["1"],"wikidata":"Q64764475"},"geometry":{"type":"Point","coordinates":[103.7922285,36.0642528]}},{"type":"Feature","properties":{"station_id":"n6563941758","station_name":"Cultural Palace","station_name_local":"文化宫","network":"Unknown","network_local":null,"operator":null,"city":"Lanzhou","country":"China","lines":["1"],"wikidata":"Q64764470"},"geometry":{"type":"Point","coordinates":[103.8030056,36.061368]}},{"type":"Feature","properties":{"station_id":"n6563941759","station_name":"Xiguan","station_name_local":"西关","network":"Unknown","network_local":null,"operator":null,"city":"Lanzhou","country":"China","lines":["1"],"wikidata":"Q64761304"},"geometry":{"type":"Point","coordinates":[103.8142589,36.0599412]}},{"type":"Feature","properties":{"station_id":"n6563941854","station_name":"Dongfanghong Square","station_name_local":"东方红广场","network":"Unknown","network_local":null,"operator":null,"city":"Lanzhou","country":"China","lines":["2"],"wikidata":"Q64760071"},"geometry":{"type":"Point","coordinates":[103.8395179,36.0535609]}},{"type":"Feature","properties":{"station_id":"n6563941940","station_name":"Lanzhou University","station_name_local":"兰州大学","network":"Unknown","network_local":null,"operator":null,"city":"Lanzhou","country":"China","lines":["1"],"wikidata":"Q64760069"},"geometry":{"type":"Point","coordinates":[103.8544558,36.0504988]}},{"type":"Feature","properties":{"station_id":"n6563942021","station_name":"Gansu Meteorological Bureau","station_name_local":"省气象局","network":"Unknown","network_local":null,"operator":null,"city":"Lanzhou","country":"China","lines":["1"],"wikidata":"Q64761819"},"geometry":{"type":"Point","coordinates":[103.8811156,36.0421288]}},{"type":"Feature","properties":{"station_id":"n6563942044","station_name":"Gongxingdun","station_name_local":"拱星墩","network":"Unknown","network_local":null,"operator":null,"city":"Lanzhou","country":"China","lines":["1"],"wikidata":"Q64761870"},"geometry":{"type":"Point","coordinates":[103.8936549,36.0395045]}},{"type":"Feature","properties":{"station_id":"n10937066500","station_name":"Zhangsutan","station_name_local":"张苏滩","network":"Unknown","network_local":null,"operator":null,"city":"Lanzhou","country":"China","lines":["2"],"wikidata":null},"geometry":{"type":"Point","coordinates":[103.8748527,36.05619]}},{"type":"Feature","properties":{"station_id":"n10937066504","station_name":"Postal Building","station_name_local":"邮电大楼","network":"Unknown","network_local":null,"operator":null,"city":"Lanzhou","country":"China","lines":["2"],"wikidata":null},"geometry":{"type":"Point","coordinates":[103.8462456,36.0426254]}},{"type":"Feature","properties":{"station_id":"n10937090905","station_name":"Lanzhou Railway Station","station_name_local":"兰州火车站","network":"Unknown","network_local":null,"operator":null,"city":"Lanzhou","country":"China","lines":["2"],"wikidata":null},"geometry":{"type":"Point","coordinates":[103.8507557,36.0362598]}},{"type":"Feature","properties":{"station_id":"n10937090907","station_name":"Hongxingxiang","station_name_local":"红星巷","network":"Unknown","network_local":null,"operator":null,"city":"Lanzhou","country":"China","lines":["2"],"wikidata":null},"geometry":{"type":"Point","coordinates":[103.8576024,36.0346802]}},{"type":"Feature","properties":{"station_id":"n10937090908","station_name":"Tuanjie Xincun","station_name_local":"团结新村","network":"Unknown","network_local":null,"operator":null,"city":"Lanzhou","country":"China","lines":["2"],"wikidata":null},"geometry":{"type":"Point","coordinates":[103.8667966,36.039832]}},{"type":"Feature","properties":{"station_id":"n10937090909","station_name":"Yanbai Bridge","station_name_local":"雁白大桥","network":"Unknown","network_local":null,"operator":null,"city":"Lanzhou","country":"China","lines":["2"],"wikidata":null},"geometry":{"type":"Point","coordinates":[103.88221,36.0691473]}}]}