{"type":"FeatureCollection","metro_system":{"continent":"asia","country":"China","city":"Kunming","osm_networks":["Kunming Metro","Kunming Rail Transit","Unknown","昆明长水国际机场捷运"],"operator":"昆明地铁运营有限公司","official_website":null,"official_map":"https://zh.wikipedia.org/wiki/昆明地铁2号线","wikidata":"Q11087464","line_count":6,"station_count":105,"audit":{"strategies_tried":[],"passed":true,"checks":[{"id":"system_exists","ok":true,"detail":"matched OSM system systems/asia/china/asia-china-kunming.geojson","level":"error"},{"id":"has_lines","ok":true,"detail":"6 lines","level":"error"},{"id":"has_stations","ok":true,"detail":"105 stations","level":"error"},{"id":"station_ratio","ok":true,"detail":"OSM 105 vs Wikipedia 103（比值 1.02）","level":"error"},{"id":"stations_have_lines","ok":true,"detail":"105/105 站皆有所屬路線","level":"error"},{"id":"stations_named","ok":true,"detail":"105/105 站有名稱","level":"warn"},{"id":"station_order","ok":true,"detail":"所有線路站序合理","level":"warn"}],"reasons":[],"warnings":[],"audited_at":"2026-07-10T07:56:59.652Z"}},"features":[{"type":"Feature","properties":{"route_id":"rm7909740","route_name":"Kunming Metro Line 2","route_name_local":"昆明地铁2号线","route_ref":"2","route_color":"#235a99","network":"Kunming Metro","network_local":"昆明地铁","operator":"昆明地铁运营有限公司","city":"Kunming","country":"China","wikidata":"Q11087464","wikipedia":"zh:昆明地铁2号线","osm_route_ids":[4508011,5456209]},"geometry":{"type":"MultiLineString","coordinates":[[[102.7194132,25.0269575],[102.7186774,25.0353422],[102.7183592,25.0412872],[102.7182298,25.045447],[102.718094,25.0524308],[102.7192994,25.0603624],[102.7223716,25.0687596],[102.726366,25.0788773],[102.7311224,25.0839415],[102.7377354,25.0963155],[102.740487,25.1038284],[102.7442637,25.1126604],[102.7523163,25.1147868],[102.7618873,25.1101136]]]}},{"type":"Feature","properties":{"route_id":"rm7909748","route_name":"Kunming Metro Line 1","route_name_local":"昆明地铁1号线","route_ref":"1","route_color":"#bf3334","network":"Kunming Metro","network_local":"昆明地铁","operator":"昆明地铁运营有限公司","city":"Kunming","country":"China","wikidata":"Q11087462","wikipedia":"zh:昆明地铁1号线","osm_route_ids":[5456208,7909741,7909742,7909745]},"geometry":{"type":"MultiLineString","coordinates":[[[102.7194449,25.0269519],[102.7216595,25.0164675],[102.7286056,25.0099868],[102.7334522,25.004271],[102.7399867,24.9999797],[102.7496292,24.9891045],[102.7597013,24.9882104],[102.7652665,24.9755043],[102.7665115,24.9598588],[102.7680399,24.9499387],[102.7735791,24.9322145],[102.7902297,24.911168],[102.8239058,24.8869687],[102.8281453,24.8750225],[102.8325295,24.8626011],[102.8368126,24.8508077],[102.840973,24.8391291],[102.8245744,24.8251194]],[[102.8594063,24.8731537],[102.8505872,24.8776744],[102.843487,24.8878443],[102.8352414,24.8853118],[102.8240475,24.8870093],[102.7903458,24.9112663],[102.773738,24.9322519],[102.7681831,24.9499676],[102.7666585,24.9598711],[102.7653903,24.9755049],[102.7597055,24.9883002],[102.7496593,24.9891901],[102.7400823,25.0000039],[102.7334979,25.0043507],[102.7287009,25.0100116],[102.7217174,25.0164746],[102.719515,25.0269555]]]}},{"type":"Feature","properties":{"route_id":"rm8040148","route_name":"Kunming Metro Line 3","route_name_local":"昆明地铁3号线","route_ref":"3","route_color":"#fe4998","network":"Kunming Metro","network_local":"昆明地铁","operator":"昆明地铁运营有限公司","city":"Kunming","country":"China","wikidata":"Q11087465","wikipedia":"zh:昆明地铁3号线","osm_route_ids":[5456210,8040149]},"geometry":{"type":"MultiLineString","coordinates":[[[102.6168538,24.9873307],[102.6146117,24.9976773],[102.6200053,25.0082009],[102.6283886,25.0215612],[102.6345036,25.0309402],[102.6377178,25.0387453],[102.6482451,25.050209],[102.6556335,25.0496702],[102.6645773,25.0489916],[102.6762542,25.0481395],[102.6871282,25.0473471],[102.693804,25.0468085],[102.7044293,25.0401727],[102.7178013,25.0410239],[102.7284555,25.0411523],[102.7399838,25.0400292],[102.7502655,25.0390093],[102.7591024,25.0393008],[102.7716897,25.039045],[102.7868463,25.0392129]]]}},{"type":"Feature","properties":{"route_id":"rm2653338","route_name":"Kunming Metro Line 6","route_name_local":"昆明地铁6号线","route_ref":"6","route_color":"#0290a4","network":"Kunming Metro","network_local":"昆明地铁","operator":"昆明地铁运营有限公司","city":"Kunming","country":"China","wikidata":"Q6553143","wikipedia":"zh:昆明地铁6号线","osm_route_ids":[5456211,8040142]},"geometry":{"type":"MultiLineString","coordinates":[[[102.9262889,25.0985898],[102.9112648,25.0879525],[102.875075,25.0565318],[102.7868971,25.0390916],[102.7483039,25.0280636],[102.7396215,25.0305532],[102.7329437,25.0340219],[102.7184401,25.0354764]]]}},{"type":"Feature","properties":{"route_id":"rm11643429","route_name":"Kunming Metro Line 4","route_name_local":"昆明地铁4号线","route_ref":"4","route_color":"#dd8800","network":"Kunming Metro","network_local":"昆明地铁","operator":"云南京建轨道交通投资建设有限公司","city":"Kunming","country":"China","wikidata":"Q24837537","wikipedia":"zh:昆明地铁4号线","osm_route_ids":[7957933,11645555]},"geometry":{"type":"MultiLineString","coordinates":[[[102.8594406,24.8730306],[102.8471074,24.8693698],[102.8324194,24.8626462],[102.8127122,24.8567588],[102.8014624,24.8604658],[102.795173,24.877146],[102.7909874,24.8852603],[102.7844219,24.8957076],[102.7887713,24.9042275],[102.7912907,24.9113914],[102.7859327,24.9402139],[102.783942,24.952277],[102.7852165,24.9677028],[102.7842381,24.9811933],[102.7822151,24.9966439],[102.77714,25.0086144],[102.7611227,25.0179102],[102.7480008,25.0276166],[102.7417029,25.0330136],[102.7388595,25.0400207],[102.7334354,25.052181],[102.7217349,25.0596031],[102.7044884,25.0633701],[102.6920488,25.066608],[102.6839417,25.0671787],[102.6718795,25.0754189],[102.6619066,25.079749],[102.6540092,25.0930378],[102.6559975,25.1021427]]]}},{"type":"Feature","properties":{"route_id":"rm14317129","route_name":"Kunming Metro Line 5","route_name_local":"昆明地铁5号线","route_ref":"5","route_color":"#2aa844","network":"Kunming Metro","network_local":"昆明地铁","operator":"昆明地铁运营有限公司","city":"Kunming","country":"China","wikidata":"Q24837356","wikipedia":"zh:昆明地铁5号线","osm_route_ids":[14317127,14317128]},"geometry":{"type":"MultiLineString","coordinates":[[[102.7216755,24.9335144],[102.7069568,24.9419732],[102.6952723,24.947666],[102.6918518,24.9646694],[102.6917479,24.9762095],[102.67856,24.9782338],[102.6692194,24.9797435],[102.662375,24.987485],[102.6632035,24.9979009],[102.672911,25.0073245],[102.6838802,25.0139086],[102.6890365,25.0169754],[102.6968118,25.0235216],[102.698618,25.0349868],[102.7039133,25.0404399],[102.7062581,25.0478652],[102.7114322,25.05791],[102.7217545,25.0594844],[102.7285126,25.0575768],[102.7390089,25.0562655],[102.7466909,25.0639017],[102.7529516,25.072057]]]}},{"type":"Feature","properties":{"station_id":"n2788302364","station_name":"University Town South","station_name_local":"大学城南","network":"Unknown","network_local":null,"operator":null,"city":"Kunming","country":"China","lines":["1"],"wikidata":"Q10934796","merged_from":3},"geometry":{"type":"Point","coordinates":[102.82443353333333,24.825348599999998]}},{"type":"Feature","properties":{"station_id":"n2788302371","station_name":"Dounan","station_name_local":"斗南","network":"Unknown","network_local":null,"operator":null,"city":"Kunming","country":"China","lines":["4"],"wikidata":"Q11080500","merged_from":2},"geometry":{"type":"Point","coordinates":[102.79107644999999,24.9112842]}},{"type":"Feature","properties":{"station_id":"n2788302419","station_name":"Lianda Street","station_name_local":"联大街","network":"Unknown","network_local":null,"operator":null,"city":"Kunming","country":"China","lines":["1","4"],"wikidata":"Q17027197","merged_from":2},"geometry":{"type":"Point","coordinates":[102.83249285,24.86259085]}},{"type":"Feature","properties":{"station_id":"n2788302424","station_name":"Yikang South Road","station_name_local":"谊康南路","network":"Unknown","network_local":null,"operator":null,"city":"Kunming","country":"China","lines":["1"],"wikidata":null},"geometry":{"type":"Point","coordinates":[102.8368549,24.8508203]}},{"type":"Feature","properties":{"station_id":"n2788302429","station_name":"Tuofeng Street","station_name_local":"驼峰街","network":"Unknown","network_local":null,"operator":null,"city":"Kunming","country":"China","lines":["1"],"wikidata":"Q17034304"},"geometry":{"type":"Point","coordinates":[102.8281876,24.8750352]}},{"type":"Feature","properties":{"station_id":"n2824223595","station_name":"East Coach Station","station_name_local":"东部汽车站","network":"Unknown","network_local":null,"operator":null,"city":"Kunming","country":"China","lines":["3","6"],"wikidata":null,"merged_from":3},"geometry":{"type":"Point","coordinates":[102.78695016666666,25.039196333333333]}},{"type":"Feature","properties":{"station_id":"n2824223905","station_name":"Hongqiao","station_name_local":"虹桥","network":"Unknown","network_local":null,"operator":null,"city":"Kunming","country":"China","lines":["3"],"wikidata":"Q51345877","merged_from":3},"geometry":{"type":"Point","coordinates":[102.77168776666667,25.039067666666668]}},{"type":"Feature","properties":{"station_id":"n2824223915","station_name":"Taipingcun","station_name_local":"太平村","network":"Unknown","network_local":null,"operator":null,"city":"Kunming","country":"China","lines":["3"],"wikidata":"Q51346456","merged_from":3},"geometry":{"type":"Point","coordinates":[102.75909566666667,25.039321633333333]}},{"type":"Feature","properties":{"station_id":"n2824223936","station_name":"Jinma temple","station_name_local":"金马寺","network":"Unknown","network_local":null,"operator":null,"city":"Kunming","country":"China","lines":["3"],"wikidata":"Q52166605","merged_from":3},"geometry":{"type":"Point","coordinates":[102.75026100000001,25.039040999999997]}},{"type":"Feature","properties":{"station_id":"n2824223949","station_name":"Tuodong Stadium","station_name_local":"拓东体育馆","network":"Unknown","network_local":null,"operator":null,"city":"Kunming","country":"China","lines":["3"],"wikidata":"Q52170354","merged_from":3},"geometry":{"type":"Point","coordinates":[102.72845466666666,25.0412077]}},{"type":"Feature","properties":{"station_id":"n2824223971","station_name":"Panjiawan","station_name_local":"潘家湾","network":"Unknown","network_local":null,"operator":null,"city":"Kunming","country":"China","lines":["3"],"wikidata":"Q60675381","merged_from":3},"geometry":{"type":"Point","coordinates":[102.69380903333332,25.046863700000003]}},{"type":"Feature","properties":{"station_id":"n2824223999","station_name":"West Bus Station","station_name_local":"西部汽车站","network":"Unknown","network_local":null,"operator":null,"city":"Kunming","country":"China","lines":["3"],"wikidata":"Q60675344","merged_from":3},"geometry":{"type":"Point","coordinates":[102.63765943333333,25.038761966666666]}},{"type":"Feature","properties":{"station_id":"n2824224004","station_name":"Dayu Road","station_name_local":"大渔路","network":"Unknown","network_local":null,"operator":null,"city":"Kunming","country":"China","lines":["3"],"wikidata":"Q60675383","merged_from":3},"geometry":{"type":"Point","coordinates":[102.63444779999999,25.030963099999997]}},{"type":"Feature","properties":{"station_id":"n2845408107","station_name":"North Railway Station","station_name_local":"火车北站","network":"Unknown","network_local":null,"operator":null,"city":"Kunming","country":"China","lines":["2","4"],"wikidata":"Q28415052","merged_from":2},"geometry":{"type":"Point","coordinates":[102.72046305,25.059798100000002]}},{"type":"Feature","properties":{"station_id":"n3015753488","station_name":"University Town","station_name_local":"大学城","network":"Unknown","network_local":null,"operator":null,"city":"Kunming","country":"China","lines":["1"],"wikidata":"Q10934798"},"geometry":{"type":"Point","coordinates":[102.8410106,24.8391404]}},{"type":"Feature","properties":{"station_id":"n4583028884","station_name":"Kunming South Railway Station","station_name_local":"昆明南火车站","network":"Unknown","network_local":null,"operator":null,"city":"Kunming","country":"China","lines":["1","4"],"wikidata":"Q105497387","merged_from":2},"geometry":{"type":"Point","coordinates":[102.8594269,24.8730397]}},{"type":"Feature","properties":{"station_id":"n5067703493","station_name":"Municipal Gymnasium Station","station_name_local":"市体育馆","network":"Unknown","network_local":null,"operator":null,"city":"Kunming","country":"China","lines":["3"],"wikidata":"Q60675389","merged_from":3},"geometry":{"type":"Point","coordinates":[102.68713426666666,25.047402200000004]}},{"type":"Feature","properties":{"station_id":"n5067703494","station_name":"Liangjiahe","station_name_local":"梁家河","network":"Unknown","network_local":null,"operator":null,"city":"Kunming","country":"China","lines":["3"],"wikidata":"Q60675387","merged_from":3},"geometry":{"type":"Point","coordinates":[102.67625903333334,25.0481947]}},{"type":"Feature","properties":{"station_id":"n5067703498","station_name":"Xiyuan","station_name_local":"西苑","network":"Unknown","network_local":null,"operator":null,"city":"Kunming","country":"China","lines":["3"],"wikidata":"Q60675334","merged_from":3},"geometry":{"type":"Point","coordinates":[102.66458263333334,25.0490468]}},{"type":"Feature","properties":{"station_id":"n5067703499","station_name":"Changyuan Middle Road","station_name_local":"昌源中路","network":"Unknown","network_local":null,"operator":null,"city":"Kunming","country":"China","lines":["3"],"wikidata":"Q60675361","merged_from":3},"geometry":{"type":"Point","coordinates":[102.65563873333333,25.0497254]}},{"type":"Feature","properties":{"station_id":"n5067703500","station_name":"Mianshan","station_name_local":"眠山","network":"Unknown","network_local":null,"operator":null,"city":"Kunming","country":"China","lines":["3"],"wikidata":"Q60675385","merged_from":3},"geometry":{"type":"Point","coordinates":[102.64825013333335,25.0502642]}},{"type":"Feature","properties":{"station_id":"n5067703504","station_name":"Shizui","station_name_local":"石咀","network":"Unknown","network_local":null,"operator":null,"city":"Kunming","country":"China","lines":["3"],"wikidata":"Q60675348","merged_from":3},"geometry":{"type":"Point","coordinates":[102.62833626666666,25.02158986666667]}},{"type":"Feature","properties":{"station_id":"n5067703513","station_name":"Pupingcun","station_name_local":"普坪村","network":"Unknown","network_local":null,"operator":null,"city":"Kunming","country":"China","lines":["3"],"wikidata":"Q60675354","merged_from":3},"geometry":{"type":"Point","coordinates":[102.6199431,25.00820176666667]}},{"type":"Feature","properties":{"station_id":"n5067703622","station_name":"Chejiabi","station_name_local":"车家壁","network":"Unknown","network_local":null,"operator":null,"city":"Kunming","country":"China","lines":["3"],"wikidata":"Q60675352","merged_from":3},"geometry":{"type":"Point","coordinates":[102.61455426666667,24.997696433333335]}},{"type":"Feature","properties":{"station_id":"n5258890595","station_name":"Western Hills Park","station_name_local":"西山公园","network":"Unknown","network_local":null,"operator":null,"city":"Kunming","country":"China","lines":["3"],"wikidata":"Q60675350","merged_from":3},"geometry":{"type":"Point","coordinates":[102.61684423333334,24.987314366666666]}},{"type":"Feature","properties":{"station_id":"n5345104404","station_name":"Dongfeng Square","station_name_local":"东风广场","network":"Unknown","network_local":null,"operator":null,"city":"Kunming","country":"China","lines":["2","3"],"wikidata":"Q28415055","merged_from":3},"geometry":{"type":"Point","coordinates":[102.71789133333334,25.04111903333333]}},{"type":"Feature","properties":{"station_id":"n6245594236","station_name":"Xiangfeng Street","station_name_local":"祥丰街","network":"Unknown","network_local":null,"operator":null,"city":"Kunming","country":"China","lines":["4"],"wikidata":"Q106021391","merged_from":3},"geometry":{"type":"Point","coordinates":[102.80140823333333,24.860449633333335]}},{"type":"Feature","properties":{"station_id":"n6245594260","station_name":"Meizicun","station_name_local":"梅子村","network":"Unknown","network_local":null,"operator":null,"city":"Kunming","country":"China","lines":["4"],"wikidata":"Q106021237","merged_from":3},"geometry":{"type":"Point","coordinates":[102.7843676,24.8956817]}},{"type":"Feature","properties":{"station_id":"n6245594278","station_name":"Jingui Street","station_name_local":"金桂街","network":"Unknown","network_local":null,"operator":null,"city":"Kunming","country":"China","lines":["4"],"wikidata":"Q106020824","merged_from":3},"geometry":{"type":"Point","coordinates":[102.7889885,24.904409766666664]}},{"type":"Feature","properties":{"station_id":"n6245594930","station_name":"Guangwei","station_name_local":"广卫","network":"Unknown","network_local":null,"operator":null,"city":"Kunming","country":"China","lines":["4"],"wikidata":"Q106020713","merged_from":3},"geometry":{"type":"Point","coordinates":[102.78388653333333,24.952262666666666]}},{"type":"Feature","properties":{"station_id":"n6245630854","station_name":"Niujiezhuang","station_name_local":"牛街庄","network":"Unknown","network_local":null,"operator":null,"city":"Kunming","country":"China","lines":["4"],"wikidata":null,"merged_from":3},"geometry":{"type":"Point","coordinates":[102.77712096666666,25.008566399999996]}},{"type":"Feature","properties":{"station_id":"n6245630888","station_name":"Xiaocaiyuan","station_name_local":"小菜园","network":"Unknown","network_local":null,"operator":null,"city":"Kunming","country":"China","lines":["4"],"wikidata":"Q106018212","merged_from":3},"geometry":{"type":"Point","coordinates":[102.704498,25.063321933333338]}},{"type":"Feature","properties":{"station_id":"n7077203939","station_name":"Juhuacun","station_name_local":"菊花村","network":"Unknown","network_local":null,"operator":null,"city":"Kunming","country":"China","lines":["4"],"wikidata":"Q106018301","merged_from":2},"geometry":{"type":"Point","coordinates":[102.74167905,25.032999750000002]}},{"type":"Feature","properties":{"station_id":"n7150791296","station_name":"Airport Front","station_name_local":"机场前","network":"Unknown","network_local":null,"operator":null,"city":"Kunming","country":"China","lines":["6"],"wikidata":"Q11095040"},"geometry":{"type":"Point","coordinates":[102.9113227,25.0879431]}},{"type":"Feature","properties":{"station_id":"n7150791297","station_name":"Dabanqiao","station_name_local":"大板桥","network":"Unknown","network_local":null,"operator":null,"city":"Kunming","country":"China","lines":["6"],"wikidata":"Q10935762"},"geometry":{"type":"Point","coordinates":[102.8751183,25.0564619]}},{"type":"Feature","properties":{"station_id":"n7822767421","station_name":"Sujiatang","station_name_local":"苏家塘","network":"Unknown","network_local":null,"operator":null,"city":"Kunming","country":"China","lines":["4"],"wikidata":"Q106017906","merged_from":3},"geometry":{"type":"Point","coordinates":[102.69201299999999,25.066570566666666]}},{"type":"Feature","properties":{"station_id":"n7822767422","station_name":"Jindingshan North Road","station_name_local":"金鼎山北路","network":"Unknown","network_local":null,"operator":null,"city":"Kunming","country":"China","lines":["4"],"wikidata":"Q106017880","merged_from":3},"geometry":{"type":"Point","coordinates":[102.68394133333334,25.067113333333335]}},{"type":"Feature","properties":{"station_id":"n7822767424","station_name":"Xiaotun","station_name_local":"小屯","network":"Unknown","network_local":null,"operator":null,"city":"Kunming","country":"China","lines":["4"],"wikidata":"Q106017835","merged_from":3},"geometry":{"type":"Point","coordinates":[102.67186063333334,25.07537603333333]}},{"type":"Feature","properties":{"station_id":"n7921798108","station_name":"Wujiaying","station_name_local":"吴家营","network":"Unknown","network_local":null,"operator":null,"city":"Kunming","country":"China","lines":["4"],"wikidata":"Q106021439","merged_from":3},"geometry":{"type":"Point","coordinates":[102.84712803333333,24.869322033333333]}},{"type":"Feature","properties":{"station_id":"n7921798110","station_name":"Niutoushan","station_name_local":"牛头山","network":"Unknown","network_local":null,"operator":null,"city":"Kunming","country":"China","lines":["4"],"wikidata":"Q106021412","merged_from":3},"geometry":{"type":"Point","coordinates":[102.81272560000001,24.856710266666667]}},{"type":"Feature","properties":{"station_id":"n7921798116","station_name":"Kelecun","station_name_local":"可乐村","network":"Unknown","network_local":null,"operator":null,"city":"Kunming","country":"China","lines":["4"],"wikidata":"Q106021369","merged_from":3},"geometry":{"type":"Point","coordinates":[102.79512,24.877128066666668]}},{"type":"Feature","properties":{"station_id":"n7921798118","station_name":"Gucheng","station_name_local":"古城","network":"Unknown","network_local":null,"operator":null,"city":"Kunming","country":"China","lines":["4"],"wikidata":"Q106021345","merged_from":3},"geometry":{"type":"Point","coordinates":[102.79094409999999,24.885234800000003]}},{"type":"Feature","properties":{"station_id":"n7921798125","station_name":"Yuyuan Road","station_name_local":"玉缘路","network":"Unknown","network_local":null,"operator":null,"city":"Kunming","country":"China","lines":["4"],"wikidata":"Q106020586","merged_from":3},"geometry":{"type":"Point","coordinates":[102.78515220000001,24.967696766666666]}},{"type":"Feature","properties":{"station_id":"n7921798132","station_name":"Juhua","station_name_local":"菊华","network":"Unknown","network_local":null,"operator":null,"city":"Kunming","country":"China","lines":["4","6"],"wikidata":"Q17032574","merged_from":2},"geometry":{"type":"Point","coordinates":[102.74806244999999,25.02766885]}},{"type":"Feature","properties":{"station_id":"n7921798134","station_name":"Dashuying","station_name_local":"大树营","network":"Unknown","network_local":null,"operator":null,"city":"Kunming","country":"China","lines":["3","4"],"wikidata":"Q52167406","merged_from":4},"geometry":{"type":"Point","coordinates":[102.739550275,25.040081474999997]}},{"type":"Feature","properties":{"station_id":"n7921798137","station_name":"Haitun Road","station_name_local":"海屯路","network":"Unknown","network_local":null,"operator":null,"city":"Kunming","country":"China","lines":["4"],"wikidata":"Q106011884","merged_from":3},"geometry":{"type":"Point","coordinates":[102.66188766666666,25.07969196666667]}},{"type":"Feature","properties":{"station_id":"n7921798139","station_name":"Dahegeng","station_name_local":"大河埂","network":"Unknown","network_local":null,"operator":null,"city":"Kunming","country":"China","lines":["4"],"wikidata":"Q106011716","merged_from":3},"geometry":{"type":"Point","coordinates":[102.65396373333334,25.093084166666667]}},{"type":"Feature","properties":{"station_id":"n7921798140","station_name":"Jinchuan Road","station_name_local":"金川路","network":"Unknown","network_local":null,"operator":null,"city":"Kunming","country":"China","lines":["4"],"wikidata":"Q106011451","merged_from":3},"geometry":{"type":"Point","coordinates":[102.6559446,25.1021472]}},{"type":"Feature","properties":{"station_id":"n7931462208","station_name":"Tangzixiang","station_name_local":"塘子巷","network":"Unknown","network_local":null,"operator":null,"city":"Kunming","country":"China","lines":["2"],"wikidata":"Q10931009"},"geometry":{"type":"Point","coordinates":[102.7187718,25.0356716]}},{"type":"Feature","properties":{"station_id":"n9006301320","station_name":"South Ring Road","station_name_local":"环城南路","network":"Unknown","network_local":null,"operator":null,"city":"Kunming","country":"China","lines":["1"],"wikidata":"Q28063772"},"geometry":{"type":"Point","coordinates":[102.7194592,25.0269613]}},{"type":"Feature","properties":{"station_id":"n9711460811","station_name":"Baofeng","station_name_local":"宝丰","network":"Unknown","network_local":null,"operator":null,"city":"Kunming","country":"China","lines":["5"],"wikidata":"Q112939249"},"geometry":{"type":"Point","coordinates":[102.7217134,24.9335548]}},{"type":"Feature","properties":{"station_id":"n9711530918","station_name":"Dianchi International Convention and Exhibition Center","station_name_local":"滇池国际会展中心","network":"Unknown","network_local":null,"operator":null,"city":"Kunming","country":"China","lines":["5"],"wikidata":"Q112939246"},"geometry":{"type":"Point","coordinates":[102.7069761,24.9420043]}},{"type":"Feature","properties":{"station_id":"n9712790279","station_name":"Zhuangjiatang Overpass","station_name_local":"庄家塘立交桥","network":"Unknown","network_local":null,"operator":null,"city":"Kunming","country":"China","lines":["5"],"wikidata":"Q112939240"},"geometry":{"type":"Point","coordinates":[102.6916978,24.9762047]}},{"type":"Feature","properties":{"station_id":"n9712790280","station_name":"Xingti Road","station_name_local":"兴体路","network":"Unknown","network_local":null,"operator":null,"city":"Kunming","country":"China","lines":["5"],"wikidata":null},"geometry":{"type":"Point","coordinates":[102.6785695,24.978189]}},{"type":"Feature","properties":{"station_id":"n9712793215","station_name":"Jinjia River","station_name_local":"金家河","network":"Unknown","network_local":null,"operator":null,"city":"Kunming","country":"China","lines":["5"],"wikidata":"Q112939242"},"geometry":{"type":"Point","coordinates":[102.6918108,24.9646723]}},{"type":"Feature","properties":{"station_id":"n9712871007","station_name":"Jinlan Road","station_name_local":"金兰路","network":"Unknown","network_local":null,"operator":null,"city":"Kunming","country":"China","lines":["5"],"wikidata":"Q112939224"},"geometry":{"type":"Point","coordinates":[102.6889964,25.0170145]}},{"type":"Feature","properties":{"station_id":"n9712871008","station_name":"Huashan West Road","station_name_local":"华山西路","network":"Unknown","network_local":null,"operator":null,"city":"Kunming","country":"China","lines":["5"],"wikidata":"Q112939218"},"geometry":{"type":"Point","coordinates":[102.7062067,25.0478611]}},{"type":"Feature","properties":{"station_id":"n9712871009","station_name":"Yanjiadi","station_name_local":"严家地","network":"Unknown","network_local":null,"operator":null,"city":"Kunming","country":"China","lines":["5"],"wikidata":"Q112939221"},"geometry":{"type":"Point","coordinates":[102.6967787,25.0235703]}},{"type":"Feature","properties":{"station_id":"n9712871010","station_name":"Milesi","station_name_local":"弥勒寺","network":"Unknown","network_local":null,"operator":null,"city":"Kunming","country":"China","lines":["5"],"wikidata":"Q112939219"},"geometry":{"type":"Point","coordinates":[102.6985674,25.0349941]}},{"type":"Feature","properties":{"station_id":"n9712871011","station_name":"Wuyi Road","station_name_local":"五一路","network":"Unknown","network_local":null,"operator":null,"city":"Kunming","country":"China","lines":["3","5"],"wikidata":"Q52171137","merged_from":3},"geometry":{"type":"Point","coordinates":[102.7042498,25.0403092]}},{"type":"Feature","properties":{"station_id":"n9712871012","station_name":"Yuantong Hill","station_name_local":"圆通山","network":"Unknown","network_local":null,"operator":null,"city":"Kunming","country":"China","lines":["5"],"wikidata":"Q112939217","merged_from":2},"geometry":{"type":"Point","coordinates":[102.71136965,25.057943899999998]}},{"type":"Feature","properties":{"station_id":"n9712871013","station_name":"Chuanjin Road","station_name_local":"穿金路","network":"Unknown","network_local":null,"operator":null,"city":"Kunming","country":"China","lines":["5"],"wikidata":"Q112939215"},"geometry":{"type":"Point","coordinates":[102.7285341,25.0576072]}},{"type":"Feature","properties":{"station_id":"n9712871014","station_name":"World Horti-Expo Garden","station_name_local":"世博园","network":"Unknown","network_local":null,"operator":null,"city":"Kunming","country":"China","lines":["5"],"wikidata":"Q112939208"},"geometry":{"type":"Point","coordinates":[102.7529183,25.072067]}},{"type":"Feature","properties":{"station_id":"n9712871015","station_name":"Bailongsi","station_name_local":"白龙寺","network":"Unknown","network_local":null,"operator":null,"city":"Kunming","country":"China","lines":["5"],"wikidata":"Q112939211"},"geometry":{"type":"Point","coordinates":[102.7466684,25.0639158]}},{"type":"Feature","properties":{"station_id":"n9712871016","station_name":"Shizha","station_name_local":"石闸","network":"Unknown","network_local":null,"operator":null,"city":"Kunming","country":"China","lines":["5"],"wikidata":"Q112939213"},"geometry":{"type":"Point","coordinates":[102.7390008,25.0563202]}},{"type":"Feature","properties":{"station_id":"n9712890974","station_name":"Fubao","station_name_local":"福保","network":"Unknown","network_local":null,"operator":null,"city":"Kunming","country":"China","lines":["5"],"wikidata":"Q112939244"},"geometry":{"type":"Point","coordinates":[102.6952498,24.9476527]}},{"type":"Feature","properties":{"station_id":"n9712913333","station_name":"Yuhucun","station_name_local":"渔户村","network":"Unknown","network_local":null,"operator":null,"city":"Kunming","country":"China","lines":["5"],"wikidata":"Q112939236"},"geometry":{"type":"Point","coordinates":[102.6691826,24.9797208]}},{"type":"Feature","properties":{"station_id":"n9712913334","station_name":"Yinghai Road","station_name_local":"迎海路","network":"Unknown","network_local":null,"operator":null,"city":"Kunming","country":"China","lines":["5"],"wikidata":null,"merged_from":2},"geometry":{"type":"Point","coordinates":[102.6623371,24.98741375]}},{"type":"Feature","properties":{"station_id":"n9712921864","station_name":"Daba","station_name_local":"大坝","network":"Unknown","network_local":null,"operator":null,"city":"Kunming","country":"China","lines":["5"],"wikidata":"Q112939232"},"geometry":{"type":"Point","coordinates":[102.6631407,24.9979251]}},{"type":"Feature","properties":{"station_id":"n9712921865","station_name":"Fuhai","station_name_local":"福海","network":"Unknown","network_local":null,"operator":null,"city":"Kunming","country":"China","lines":["5"],"wikidata":"Q112939225"},"geometry":{"type":"Point","coordinates":[102.6838784,25.0139561]}},{"type":"Feature","properties":{"station_id":"n9712921870","station_name":"Guangfuluxikou","station_name_local":"广福路西口","network":"Unknown","network_local":null,"operator":null,"city":"Kunming","country":"China","lines":["5"],"wikidata":"Q112939227","merged_from":2},"geometry":{"type":"Point","coordinates":[102.67287239999999,25.00735885]}},{"type":"Feature","properties":{"station_id":"n13535995619","station_name":"Municipal Administration Center","station_name_local":"市级行政中心","network":"Unknown","network_local":null,"operator":null,"city":"Kunming","country":"China","lines":["1"],"wikidata":"Q43387551"},"geometry":{"type":"Point","coordinates":[102.8352576,24.885254]}},{"type":"Feature","properties":{"station_id":"n13535995620","station_name":"Yihe Road","station_name_local":"宜和路","network":"Unknown","network_local":null,"operator":null,"city":"Kunming","country":"China","lines":["1"],"wikidata":null},"geometry":{"type":"Point","coordinates":[102.8435041,24.8878018]}},{"type":"Feature","properties":{"station_id":"n13535995624","station_name":"Bailong Lake","station_name_local":"白龙潭","network":"Unknown","network_local":null,"operator":null,"city":"Kunming","country":"China","lines":["1"],"wikidata":null},"geometry":{"type":"Point","coordinates":[102.8505231,24.8776452]}},{"type":"Feature","properties":{"station_id":"n13536002105","station_name":"Xingyao Road","station_name_local":"星耀路","network":"Unknown","network_local":null,"operator":null,"city":"Kunming","country":"China","lines":["1"],"wikidata":null},"geometry":{"type":"Point","coordinates":[102.7665893,24.959845]}},{"type":"Feature","properties":{"station_id":"n13536002153","station_name":"Bailong Street","station_name_local":"白龙路","network":"Unknown","network_local":null,"operator":null,"city":"Kunming","country":"China","lines":["4"],"wikidata":"Q106018280","merged_from":2},"geometry":{"type":"Point","coordinates":[102.73335215,25.052151600000002]}},{"type":"Feature","properties":{"station_id":"n13536002216","station_name":"New Asia Athletics Park","station_name_local":"新亚洲体育城","network":"Unknown","network_local":null,"operator":null,"city":"Kunming","country":"China","lines":["1"],"wikidata":"Q11081049"},"geometry":{"type":"Point","coordinates":[102.7681286,24.9499491]}},{"type":"Feature","properties":{"station_id":"n13536002218","station_name":"South Coach Station","station_name_local":"南部汽车站","network":"Unknown","network_local":null,"operator":null,"city":"Kunming","country":"China","lines":["1"],"wikidata":null},"geometry":{"type":"Point","coordinates":[102.7736637,24.9322381]}},{"type":"Feature","properties":{"station_id":"n13536002354","station_name":"Chunrong Street","station_name_local":"春融街","network":"Unknown","network_local":null,"operator":null,"city":"Kunming","country":"China","lines":["1"],"wikidata":"Q11088875"},"geometry":{"type":"Point","coordinates":[102.8239253,24.8869745]}},{"type":"Feature","properties":{"station_id":"n13536002357","station_name":"Erji Road","station_name_local":"珥季路","network":"Unknown","network_local":null,"operator":null,"city":"Kunming","country":"China","lines":["1"],"wikidata":"Q17060161"},"geometry":{"type":"Point","coordinates":[102.7653328,24.9754977]}},{"type":"Feature","properties":{"station_id":"n13536002358","station_name":"Xiaodongcun","station_name_local":"晓东村","network":"Unknown","network_local":null,"operator":null,"city":"Kunming","country":"China","lines":["1"],"wikidata":"Q11089476"},"geometry":{"type":"Point","coordinates":[102.7597001,24.9882534]}},{"type":"Feature","properties":{"station_id":"n13536002359","station_name":"Changhong West Road","station_name_local":"昌宏西路","network":"Unknown","network_local":null,"operator":null,"city":"Kunming","country":"China","lines":["1"],"wikidata":"Q28415043"},"geometry":{"type":"Point","coordinates":[102.7496445,24.9891553]}},{"type":"Feature","properties":{"station_id":"n13536002360","station_name":"Wujiaba","station_name_local":"巫家坝","network":"Unknown","network_local":null,"operator":null,"city":"Kunming","country":"China","lines":["1"],"wikidata":"Q28415045"},"geometry":{"type":"Point","coordinates":[102.7400503,24.9999855]}},{"type":"Feature","properties":{"station_id":"n13536002361","station_name":"Rixin Road","station_name_local":"日新路","network":"Unknown","network_local":null,"operator":null,"city":"Kunming","country":"China","lines":["1"],"wikidata":"Q28415050"},"geometry":{"type":"Point","coordinates":[102.7334815,25.0043246]}},{"type":"Feature","properties":{"station_id":"n13536002362","station_name":"Fude","station_name_local":"福德","network":"Unknown","network_local":null,"operator":null,"city":"Kunming","country":"China","lines":["1"],"wikidata":"Q28415048"},"geometry":{"type":"Point","coordinates":[102.7286428,25.009998]}},{"type":"Feature","properties":{"station_id":"n13536002363","station_name":"Kunming Railway Station","station_name_local":"昆明火车站","network":"Unknown","network_local":null,"operator":null,"city":"Kunming","country":"China","lines":["1"],"wikidata":"Q23530618"},"geometry":{"type":"Point","coordinates":[102.7217039,25.016444]}},{"type":"Feature","properties":{"station_id":"n13536002364","station_name":"Jiaosanqiao","station_name_local":"交三桥","network":"Unknown","network_local":null,"operator":null,"city":"Kunming","country":"China","lines":["2"],"wikidata":"Q26261984"},"geometry":{"type":"Point","coordinates":[102.7181876,25.0454326]}},{"type":"Feature","properties":{"station_id":"n13536002365","station_name":"Chuanxin Gulou","station_name_local":"穿心鼓楼","network":"Unknown","network_local":null,"operator":null,"city":"Kunming","country":"China","lines":["2"],"wikidata":"Q24832556"},"geometry":{"type":"Point","coordinates":[102.7180535,25.0524114]}},{"type":"Feature","properties":{"station_id":"n13536002366","station_name":"Jinxing","station_name_local":"金星","network":"Unknown","network_local":null,"operator":null,"city":"Kunming","country":"China","lines":["2"],"wikidata":"Q28415054"},"geometry":{"type":"Point","coordinates":[102.72632,25.0788965]}},{"type":"Feature","properties":{"station_id":"n13536002367","station_name":"Baiyun Road","station_name_local":"白云路","network":"Unknown","network_local":null,"operator":null,"city":"Kunming","country":"China","lines":["2"],"wikidata":"Q28415056"},"geometry":{"type":"Point","coordinates":[102.7223249,25.0687718]}},{"type":"Feature","properties":{"station_id":"n13536002368","station_name":"Beichen","station_name_local":"北辰","network":"Unknown","network_local":null,"operator":null,"city":"Kunming","country":"China","lines":["2"],"wikidata":"Q28415051"},"geometry":{"type":"Point","coordinates":[102.7310809,25.0839737]}},{"type":"Feature","properties":{"station_id":"n13536002369","station_name":"Linyu bridge","station_name_local":"霖雨桥","network":"Unknown","network_local":null,"operator":null,"city":"Kunming","country":"China","lines":["2"],"wikidata":"Q28415049"},"geometry":{"type":"Point","coordinates":[102.7376879,25.0963368]}},{"type":"Feature","properties":{"station_id":"n13536002370","station_name":"Yangchangcun","station_name_local":"羊肠村","network":"Unknown","network_local":null,"operator":null,"city":"Kunming","country":"China","lines":["2"],"wikidata":"Q28415047"},"geometry":{"type":"Point","coordinates":[102.7404338,25.1038361]}},{"type":"Feature","properties":{"station_id":"n13536002371","station_name":"Si jia ying","station_name_local":"司家营","network":"Unknown","network_local":null,"operator":null,"city":"Kunming","country":"China","lines":["2"],"wikidata":"Q28415046"},"geometry":{"type":"Point","coordinates":[102.7441976,25.1126937]}},{"type":"Feature","properties":{"station_id":"n13536003408","station_name":"North Coach Station","station_name_local":"北部汽车站","network":"Unknown","network_local":null,"operator":null,"city":"Kunming","country":"China","lines":["2"],"wikidata":"Q17021823"},"geometry":{"type":"Point","coordinates":[102.7619011,25.1101304]}},{"type":"Feature","properties":{"station_id":"n13536003598","station_name":"Hedianying","station_name_local":"和甸营","network":"Unknown","network_local":null,"operator":null,"city":"Kunming","country":"China","lines":["4"],"wikidata":null,"merged_from":2},"geometry":{"type":"Point","coordinates":[102.76107335,25.0178443]}},{"type":"Feature","properties":{"station_id":"n13536003636","station_name":"Zhujiacun","station_name_local":"朱家村","network":"Unknown","network_local":null,"operator":null,"city":"Kunming","country":"China","lines":["4"],"wikidata":"Q106020490","merged_from":2},"geometry":{"type":"Point","coordinates":[102.7821304,24.996665]}},{"type":"Feature","properties":{"station_id":"n13536003646","station_name":"Yangfutou","station_name_local":"羊甫头","network":"Unknown","network_local":null,"operator":null,"city":"Kunming","country":"China","lines":["4"],"wikidata":null,"merged_from":2},"geometry":{"type":"Point","coordinates":[102.78414795,24.9811984]}},{"type":"Feature","properties":{"station_id":"n13536630269","station_name":"Kunming Airport","station_name_local":"机场中心","network":"Kunming Rail Transit","network_local":"昆明轨道交通","operator":null,"city":"Kunming","country":"China","lines":["6"],"wikidata":"Q11095039"},"geometry":{"type":"Point","coordinates":[102.9262573,25.0985508]}},{"type":"Feature","properties":{"station_id":"n13569391596","station_name":"Tami","station_name_local":"塔密","network":"Unknown","network_local":null,"operator":null,"city":"Kunming","country":"China","lines":["4"],"wikidata":"Q106020723"},"geometry":{"type":"Point","coordinates":[102.7858785,24.9402369]}},{"type":"Feature","properties":{"station_id":"n13572581608","station_name":"Cha jie","station_name_local":"岔街","network":"Unknown","network_local":null,"operator":null,"city":"Kunming","country":"China","lines":["6"],"wikidata":"Q52171127"},"geometry":{"type":"Point","coordinates":[102.7329216,25.0339764]}},{"type":"Feature","properties":{"station_id":"n13572581609","station_name":"Dongjiao Road","station_name_local":"东郊路","network":"Unknown","network_local":null,"operator":null,"city":"Kunming","country":"China","lines":["6"],"wikidata":"Q106020270"},"geometry":{"type":"Point","coordinates":[102.7396151,25.0305433]}},{"type":"Feature","properties":{"station_id":"n13584361551","station_name":"Longtou Street","station_name_local":"龙头街","network":"Unknown","network_local":null,"operator":null,"city":"Kunming","country":"China","lines":["2"],"wikidata":"Q28415053"},"geometry":{"type":"Point","coordinates":[102.7523334,25.1147982]}},{"type":"Feature","properties":{"station_id":"n13723182806","station_name":"Terminal T1 Front","station_name_local":"T1航站楼前","network":"昆明长水国际机场捷运","network_local":"昆明长水国际机场捷运","operator":"广州有轨电车公司","city":"Kunming","country":"China","lines":["6"],"wikidata":null},"geometry":{"type":"Point","coordinates":[102.9276257,25.1003157]}},{"type":"Feature","properties":{"station_id":"n13723182807","station_name":"Terminal T1 Back","station_name_local":"T1航站楼后","network":"昆明长水国际机场捷运","network_local":"昆明长水国际机场捷运","operator":"广州有轨电车公司","city":"Kunming","country":"China","lines":["6"],"wikidata":null},"geometry":{"type":"Point","coordinates":[102.9306997,25.1038433]}}]}