{"type":"FeatureCollection","metro_system":{"continent":"asia","country":"China","city":"Nantong","osm_networks":["Unknown","南通城市轨道交通有限公司","南通轨道交通"],"operator":"Nantong Rail Transit","official_website":null,"official_map":null,"wikidata":"Q47015943","line_count":2,"segment_count":2,"station_count":53,"audit":{"strategies_tried":[],"passed":true,"checks":[{"id":"system_exists","ok":true,"detail":"matched OSM system systems/asia/china/asia-china-nantong.geojson","level":"error"},{"id":"has_lines","ok":true,"detail":"2 lines","level":"error"},{"id":"has_stations","ok":true,"detail":"53 stations","level":"error"},{"id":"station_ratio","ok":true,"detail":"OSM 53 vs Wikipedia 43（比值 1.23）","level":"error"},{"id":"stations_have_lines","ok":true,"detail":"53/53 站皆有所屬路線","level":"error"},{"id":"line_geometry_stations","ok":true,"detail":"45 個折點/端點皆為車站","level":"error"},{"id":"stations_named","ok":false,"detail":"43/53 站有名稱","level":"warn"},{"id":"station_order","ok":true,"detail":"所有線路站序合理","level":"warn"}],"reasons":[],"warnings":["43/53 站有名稱"],"audited_at":"2026-07-10T10:07:31.375Z"}},"features":[{"type":"Feature","properties":{"seg_id":"nantong-0","routes":[{"route_id":"rm14870574","route_name":"Nantong Metro Line 1","route_name_local":"南通轨道交通1号线","route_ref":"1","route_color":"#ff0000","network":"南通轨道交通","network_local":"南通轨道交通","operator":"Nantong Rail Transit","wikidata":"Q47015943","wikipedia":null,"osm_route_ids":[14863572,14870559],"order_suspect":0}],"route_count":1,"route_refs":["1"],"route_colors":["#ff0000"],"route_color":"#ff0000","city":"Nantong","country":"China"},"geometry":{"type":"MultiLineString","coordinates":[[[120.7538143,32.107874],[120.7610809,32.1036163],[120.773385,32.0923484],[120.7891268,32.0873923],[120.8138998,32.0731439],[120.8257551,32.0640101],[120.8179311,32.0451884],[120.8114079,32.0337508],[120.8155559,32.025918],[120.8315433,32.0171482],[120.8459621,32.0179111],[120.8549131,32.0182881],[120.8645956,32.0201076],[120.8778074,32.0170983],[120.8788374,32.0082784],[120.8804172,31.9994235],[120.8821767,31.9899037],[120.8840758,31.9812745],[120.8905694,31.9762521],[120.9023228,31.9780256],[120.9161791,31.9797047],[120.9290215,31.9797935],[120.9401125,31.9785149],[120.9423548,31.9672406],[120.9432828,31.9561972],[120.9546769,31.9357884],[120.9546929,31.924213],[120.9519491,31.9125816]]]}},{"type":"Feature","properties":{"seg_id":"nantong-1","routes":[{"route_id":"rm16918818","route_name":"Nantong Metro Line 2","route_name_local":"南通轨道交通2号线","route_ref":"2","route_color":"#0072c8","network":"南通轨道交通","network_local":"南通轨道交通","operator":null,"wikidata":"Q48899680","wikipedia":null,"osm_route_ids":[16918816,16918817],"order_suspect":0}],"route_count":1,"route_refs":["2"],"route_colors":["#0072c8"],"route_color":"#0072c8","city":"Nantong","country":"China"},"geometry":{"type":"MultiLineString","coordinates":[[[120.8479539,32.0840967],[120.8545286,32.0734601],[120.8559327,32.0620735],[120.8559756,32.0508573],[120.8560231,32.0443001],[120.8516035,32.0313633],[120.8549131,32.0182881],[120.8599934,32.007787],[120.8714903,32.0056442],[120.8788374,32.0082784],[120.8889269,32.0080782],[120.9035454,32.0054239],[120.9142946,32.0036793],[120.9237355,32.0023742],[120.9330645,32.0011915],[120.9497853,32.0003294],[120.9720285,32.0037341]]]}},{"type":"Feature","properties":{"station_id":"n4927734936","station_name":"Zhenxing Lu","station_name_local":"振兴路","network":"南通城市轨道交通有限公司","network_local":null,"operator":"南通城市轨道交通有限公司","city":"Nantong","country":"China","lines":["1"],"wikidata":null},"geometry":{"type":"Point","coordinates":[120.9519491,31.9125816]}},{"type":"Feature","properties":{"station_id":"n4927734937","station_name":"Shipping College","station_name_local":"航运学院","network":"南通城市轨道交通有限公司","network_local":null,"operator":"南通城市轨道交通有限公司","city":"Nantong","country":"China","lines":["1"],"wikidata":null},"geometry":{"type":"Point","coordinates":[120.9546929,31.924213]}},{"type":"Feature","properties":{"station_id":"n4927734938","station_name":"NETDA Business District","station_name_local":"能达商务区","network":"南通城市轨道交通有限公司","network_local":null,"operator":"南通城市轨道交通有限公司","city":"Nantong","country":"China","lines":["1"],"wikidata":null},"geometry":{"type":"Point","coordinates":[120.9546769,31.9357884]}},{"type":"Feature","properties":{"station_id":"n4927734939","station_name":"Zilang Lake","station_name_local":"紫琅湖","network":"南通城市轨道交通有限公司","network_local":null,"operator":"南通城市轨道交通有限公司","city":"Nantong","country":"China","lines":["1"],"wikidata":null},"geometry":{"type":"Point","coordinates":[120.9432828,31.9561972]}},{"type":"Feature","properties":{"station_id":"n4927734940","station_name":"Grand Theatre","station_name_local":"大剧院","network":"南通城市轨道交通有限公司","network_local":null,"operator":"南通城市轨道交通有限公司","city":"Nantong","country":"China","lines":["1"],"wikidata":null},"geometry":{"type":"Point","coordinates":[120.9423548,31.9672406]}},{"type":"Feature","properties":{"station_id":"n4927734941","station_name":"Jinghai Dadao","station_name_local":"静海大道","network":"南通城市轨道交通有限公司","network_local":null,"operator":"南通城市轨道交通有限公司","city":"Nantong","country":"China","lines":["1"],"wikidata":null},"geometry":{"type":"Point","coordinates":[120.9401125,31.9785149]}},{"type":"Feature","properties":{"station_id":"n4927734942","station_name":"Chongzhou Dadao","station_name_local":"崇州大道","network":"南通城市轨道交通有限公司","network_local":null,"operator":"南通城市轨道交通有限公司","city":"Nantong","country":"China","lines":["1"],"wikidata":null},"geometry":{"type":"Point","coordinates":[120.9290215,31.9797935]}},{"type":"Feature","properties":{"station_id":"n4927734943","station_name":"Panxiang Lu","station_name_local":"盘香路","network":"南通城市轨道交通有限公司","network_local":null,"operator":"南通城市轨道交通有限公司","city":"Nantong","country":"China","lines":["1"],"wikidata":null},"geometry":{"type":"Point","coordinates":[120.9161791,31.9797047]}},{"type":"Feature","properties":{"station_id":"n4927734944","station_name":"Nantong University","station_name_local":"南通大学","network":"南通城市轨道交通有限公司","network_local":null,"operator":"南通城市轨道交通有限公司","city":"Nantong","country":"China","lines":["1"],"wikidata":null},"geometry":{"type":"Point","coordinates":[120.9023228,31.9780256]}},{"type":"Feature","properties":{"station_id":"n4927734945","station_name":"Nantong Library","station_name_local":"图书馆","network":"南通城市轨道交通有限公司","network_local":null,"operator":"南通城市轨道交通有限公司","city":"Nantong","country":"China","lines":["1"],"wikidata":null},"geometry":{"type":"Point","coordinates":[120.8905694,31.9762521]}},{"type":"Feature","properties":{"station_id":"n4927734946","station_name":"Shiji Dadao","station_name_local":"世纪大道","network":"南通城市轨道交通有限公司","network_local":null,"operator":"南通城市轨道交通有限公司","city":"Nantong","country":"China","lines":["1"],"wikidata":null},"geometry":{"type":"Point","coordinates":[120.8840758,31.9812745]}},{"type":"Feature","properties":{"station_id":"n4927734947","station_name":"Government Affairs Center","station_name_local":"政务中心","network":"南通城市轨道交通有限公司","network_local":null,"operator":"南通城市轨道交通有限公司","city":"Nantong","country":"China","lines":["1"],"wikidata":null},"geometry":{"type":"Point","coordinates":[120.8821767,31.9899037]}},{"type":"Feature","properties":{"station_id":"n4927734948","station_name":"Charity Museum","station_name_local":"慈善博物馆","network":"南通城市轨道交通有限公司","network_local":null,"operator":"南通城市轨道交通有限公司","city":"Nantong","country":"China","lines":["1"],"wikidata":null},"geometry":{"type":"Point","coordinates":[120.8804172,31.9994235]}},{"type":"Feature","properties":{"station_id":"n4927734949","station_name":"Wenfeng","station_name_local":"文峰","network":"南通城市轨道交通有限公司","network_local":null,"operator":"南通城市轨道交通有限公司","city":"Nantong","country":"China","lines":["1"],"wikidata":"Q47092091"},"geometry":{"type":"Point","coordinates":[120.8788374,32.0082784]}},{"type":"Feature","properties":{"station_id":"n4927734950","station_name":"Xuetian","station_name_local":"学田","network":"南通城市轨道交通有限公司","network_local":null,"operator":"南通城市轨道交通有限公司","city":"Nantong","country":"China","lines":["1"],"wikidata":null},"geometry":{"type":"Point","coordinates":[120.8778074,32.0170983]}},{"type":"Feature","properties":{"station_id":"n4927734952","station_name":"Hepingqiao","station_name_local":"和平桥","network":"南通城市轨道交通有限公司","network_local":null,"operator":"南通城市轨道交通有限公司","city":"Nantong","country":"China","lines":["2"],"wikidata":"Q50968606"},"geometry":{"type":"Point","coordinates":[120.8549131,32.0182881]}},{"type":"Feature","properties":{"station_id":"n4927734953","station_name":"Hai'er Xiang","station_name_local":"孩儿巷","network":"南通城市轨道交通有限公司","network_local":null,"operator":"南通城市轨道交通有限公司","city":"Nantong","country":"China","lines":["1"],"wikidata":null},"geometry":{"type":"Point","coordinates":[120.8459621,32.0179111]}},{"type":"Feature","properties":{"station_id":"n4927734954","station_name":"Cha'an Dian","station_name_local":"茶庵殿","network":"南通城市轨道交通有限公司","network_local":null,"operator":"南通城市轨道交通有限公司","city":"Nantong","country":"China","lines":["1"],"wikidata":null},"geometry":{"type":"Point","coordinates":[120.8315433,32.0171482]}},{"type":"Feature","properties":{"station_id":"n4927734955","station_name":"Shuguang","station_name_local":"曙光","network":"南通城市轨道交通有限公司","network_local":null,"operator":"南通城市轨道交通有限公司","city":"Nantong","country":"China","lines":["1"],"wikidata":null},"geometry":{"type":"Point","coordinates":[120.8155559,32.025918]}},{"type":"Feature","properties":{"station_id":"n4927734956","station_name":"Chenggang Lu","station_name_local":"城港路","network":"南通城市轨道交通有限公司","network_local":null,"operator":"南通城市轨道交通有限公司","city":"Nantong","country":"China","lines":["1"],"wikidata":null},"geometry":{"type":"Point","coordinates":[120.8114079,32.0337508]}},{"type":"Feature","properties":{"station_id":"n4927734957","station_name":"Shilifang","station_name_local":"十里坊","network":"南通城市轨道交通有限公司","network_local":null,"operator":"南通城市轨道交通有限公司","city":"Nantong","country":"China","lines":["1"],"wikidata":null},"geometry":{"type":"Point","coordinates":[120.8179311,32.0451884]}},{"type":"Feature","properties":{"station_id":"n4927734958","station_name":"Puxian Lu","station_name_local":"普贤路","network":"南通城市轨道交通有限公司","network_local":null,"operator":"南通城市轨道交通有限公司","city":"Nantong","country":"China","lines":["1"],"wikidata":null},"geometry":{"type":"Point","coordinates":[120.8257551,32.0640101]}},{"type":"Feature","properties":{"station_id":"n4927734959","station_name":"Tangzha Park","station_name_local":"唐闸公园","network":"南通城市轨道交通有限公司","network_local":null,"operator":"南通城市轨道交通有限公司","city":"Nantong","country":"China","lines":["1"],"wikidata":null},"geometry":{"type":"Point","coordinates":[120.8138998,32.0731439]}},{"type":"Feature","properties":{"station_id":"n4927734960","station_name":"Hekou","station_name_local":"河口","network":"南通城市轨道交通有限公司","network_local":null,"operator":"南通城市轨道交通有限公司","city":"Nantong","country":"China","lines":["1"],"wikidata":null},"geometry":{"type":"Point","coordinates":[120.7891268,32.0873923]}},{"type":"Feature","properties":{"station_id":"n4927734961","station_name":"Jichengcun","station_name_local":"集成村","network":"南通城市轨道交通有限公司","network_local":null,"operator":"南通城市轨道交通有限公司","city":"Nantong","country":"China","lines":["1"],"wikidata":null},"geometry":{"type":"Point","coordinates":[120.773385,32.0923484]}},{"type":"Feature","properties":{"station_id":"n4927734962","station_name":"Nantongxi Railway Station","station_name_local":"南通西站","network":"南通城市轨道交通有限公司","network_local":null,"operator":"南通城市轨道交通有限公司","city":"Nantong","country":"China","lines":["1"],"wikidata":null},"geometry":{"type":"Point","coordinates":[120.7610809,32.1036163]}},{"type":"Feature","properties":{"station_id":"n4927747305","station_name":"Pingchao","station_name_local":"平潮","network":"南通城市轨道交通有限公司","network_local":null,"operator":"南通城市轨道交通有限公司","city":"Nantong","country":"China","lines":["1"],"wikidata":null},"geometry":{"type":"Point","coordinates":[120.7538143,32.107874]}},{"type":"Feature","properties":{"station_id":"n5504439153","station_name":"Nantong Railway Station","station_name_local":"南通火车站 (暂不开放)","network":"南通城市轨道交通有限公司","network_local":null,"operator":"南通城市轨道交通有限公司","city":"Nantong","country":"China","lines":["2"],"wikidata":null},"geometry":{"type":"Point","coordinates":[120.8545286,32.0734601]}},{"type":"Feature","properties":{"station_id":"n5504439154","station_name":"Chang'an","station_name_local":"长岸","network":"南通城市轨道交通有限公司","network_local":null,"operator":"南通城市轨道交通有限公司","city":"Nantong","country":"China","lines":["2"],"wikidata":null},"geometry":{"type":"Point","coordinates":[120.8559327,32.0620735]}},{"type":"Feature","properties":{"station_id":"n5504439155","station_name":"Bei Dajie","station_name_local":"北大街","network":"南通城市轨道交通有限公司","network_local":null,"operator":"南通城市轨道交通有限公司","city":"Nantong","country":"China","lines":["2"],"wikidata":null},"geometry":{"type":"Point","coordinates":[120.8559756,32.0508573]}},{"type":"Feature","properties":{"station_id":"n5504439156","station_name":"Beicheng Bridge","station_name_local":"北城大桥","network":"南通城市轨道交通有限公司","network_local":null,"operator":"南通城市轨道交通有限公司","city":"Nantong","country":"China","lines":["2"],"wikidata":"Q124024039"},"geometry":{"type":"Point","coordinates":[120.8560231,32.0443001]}},{"type":"Feature","properties":{"station_id":"n5504439157","station_name":"Zhongxiu Xilu","station_name_local":"钟秀西路","network":"南通城市轨道交通有限公司","network_local":null,"operator":"南通城市轨道交通有限公司","city":"Nantong","country":"China","lines":["2"],"wikidata":"Q124024040"},"geometry":{"type":"Point","coordinates":[120.8516035,32.0313633]}},{"type":"Feature","properties":{"station_id":"n5504439159","station_name":"Sports Park","station_name_local":"体育公园","network":"南通城市轨道交通有限公司","network_local":null,"operator":"南通城市轨道交通有限公司","city":"Nantong","country":"China","lines":["2"],"wikidata":"Q124024042"},"geometry":{"type":"Point","coordinates":[120.8599934,32.007787]}},{"type":"Feature","properties":{"station_id":"n5504439160","station_name":"Yijiaqiao","station_name_local":"易家桥","network":"南通城市轨道交通有限公司","network_local":null,"operator":"南通城市轨道交通有限公司","city":"Nantong","country":"China","lines":["2"],"wikidata":"Q124024043"},"geometry":{"type":"Point","coordinates":[120.8714903,32.0056442]}},{"type":"Feature","properties":{"station_id":"n5504439162","station_name":"Wuyi Lu","station_name_local":"五一路","network":"南通城市轨道交通有限公司","network_local":null,"operator":"南通城市轨道交通有限公司","city":"Nantong","country":"China","lines":["2"],"wikidata":"Q124024046"},"geometry":{"type":"Point","coordinates":[120.8889269,32.0080782]}},{"type":"Feature","properties":{"station_id":"n5504439163","station_name":"Yuanlin Lu","station_name_local":"园林路","network":"南通城市轨道交通有限公司","network_local":null,"operator":"南通城市轨道交通有限公司","city":"Nantong","country":"China","lines":["2"],"wikidata":"Q124024047"},"geometry":{"type":"Point","coordinates":[120.9035454,32.0054239]}},{"type":"Feature","properties":{"station_id":"n5504439164","station_name":"East Coach Station","station_name_local":"汽车东站","network":"南通城市轨道交通有限公司","network_local":null,"operator":"南通城市轨道交通有限公司","city":"Nantong","country":"China","lines":["2"],"wikidata":"Q124024048"},"geometry":{"type":"Point","coordinates":[120.9142946,32.0036793]}},{"type":"Feature","properties":{"station_id":"n5504439165","station_name":"Tongfu Beilu","station_name_local":"通富北路","network":"南通城市轨道交通有限公司","network_local":null,"operator":"南通城市轨道交通有限公司","city":"Nantong","country":"China","lines":["2"],"wikidata":"Q124024049"},"geometry":{"type":"Point","coordinates":[120.9237355,32.0023742]}},{"type":"Feature","properties":{"station_id":"n5504439166","station_name":"Guanyinshan","station_name_local":"观音山","network":"南通城市轨道交通有限公司","network_local":null,"operator":"南通城市轨道交通有限公司","city":"Nantong","country":"China","lines":["2"],"wikidata":"Q124024050"},"geometry":{"type":"Point","coordinates":[120.9330645,32.0011915]}},{"type":"Feature","properties":{"station_id":"n5504439167","station_name":"Nantongdong Railway Station","station_name_local":"南通东站","network":"南通城市轨道交通有限公司","network_local":null,"operator":"南通城市轨道交通有限公司","city":"Nantong","country":"China","lines":["2"],"wikidata":"Q124024051"},"geometry":{"type":"Point","coordinates":[120.9497853,32.0003294]}},{"type":"Feature","properties":{"station_id":"n5504439168","station_name":"Xianfeng","station_name_local":"先锋","network":"南通城市轨道交通有限公司","network_local":null,"operator":"南通城市轨道交通有限公司","city":"Nantong","country":"China","lines":["2"],"wikidata":"Q124024052"},"geometry":{"type":"Point","coordinates":[120.9720285,32.0037341]}},{"type":"Feature","properties":{"station_id":"n6749310487","station_name":"Youyiqiao","station_name_local":"友谊桥","network":"南通城市轨道交通有限公司","network_local":null,"operator":"南通城市轨道交通有限公司","city":"Nantong","country":"China","lines":["1"],"wikidata":null},"geometry":{"type":"Point","coordinates":[120.8645956,32.0201076]}},{"type":"Feature","properties":{"station_id":"n11454302399","station_name":"Xingfu","station_name_local":"幸福","network":"Unknown","network_local":null,"operator":null,"city":"Nantong","country":"China","lines":["2"],"wikidata":null},"geometry":{"type":"Point","coordinates":[120.8479539,32.0840967]}},{"type":"Feature","properties":{"station_id":"n640287341","station_name":"n640287341","station_name_local":null,"network":"Unknown","network_local":null,"operator":null,"city":"Nantong","country":"China","lines":["1"],"wikidata":null},"geometry":{"type":"Point","coordinates":[120.9547333,31.9247747]}},{"type":"Feature","properties":{"station_id":"n640287342","station_name":"n640287342","station_name_local":null,"network":"Unknown","network_local":null,"operator":null,"city":"Nantong","country":"China","lines":["1"],"wikidata":null},"geometry":{"type":"Point","coordinates":[120.9546699,31.9358958]}},{"type":"Feature","properties":{"station_id":"n640287343","station_name":"n640287343","station_name_local":null,"network":"Unknown","network_local":null,"operator":null,"city":"Nantong","country":"China","lines":["1"],"wikidata":null},"geometry":{"type":"Point","coordinates":[120.951556,31.9111903]}},{"type":"Feature","properties":{"station_id":"n640287356","station_name":"n640287356","station_name_local":null,"network":"Unknown","network_local":null,"operator":null,"city":"Nantong","country":"China","lines":["1"],"wikidata":null},"geometry":{"type":"Point","coordinates":[120.8182221,32.0455196]}},{"type":"Feature","properties":{"station_id":"n640287357","station_name":"n640287357","station_name_local":null,"network":"Unknown","network_local":null,"operator":null,"city":"Nantong","country":"China","lines":["1"],"wikidata":null},"geometry":{"type":"Point","coordinates":[120.8245651,32.0649229]}},{"type":"Feature","properties":{"station_id":"n640287358","station_name":"n640287358","station_name_local":null,"network":"Unknown","network_local":null,"operator":null,"city":"Nantong","country":"China","lines":["1"],"wikidata":null},"geometry":{"type":"Point","coordinates":[120.8137965,32.0732155]}},{"type":"Feature","properties":{"station_id":"n640287359","station_name":"n640287359","station_name_local":null,"network":"Unknown","network_local":null,"operator":null,"city":"Nantong","country":"China","lines":["1"],"wikidata":null},"geometry":{"type":"Point","coordinates":[120.7894612,32.0873166]}},{"type":"Feature","properties":{"station_id":"n640287361","station_name":"n640287361","station_name_local":null,"network":"Unknown","network_local":null,"operator":null,"city":"Nantong","country":"China","lines":["1"],"wikidata":null},"geometry":{"type":"Point","coordinates":[120.7736016,32.0922687]}},{"type":"Feature","properties":{"station_id":"n640287362","station_name":"n640287362","station_name_local":null,"network":"Unknown","network_local":null,"operator":null,"city":"Nantong","country":"China","lines":["1"],"wikidata":null},"geometry":{"type":"Point","coordinates":[120.7613018,32.1035037]}},{"type":"Feature","properties":{"station_id":"n640287363","station_name":"n640287363","station_name_local":null,"network":"Unknown","network_local":null,"operator":null,"city":"Nantong","country":"China","lines":["1"],"wikidata":null},"geometry":{"type":"Point","coordinates":[120.7537396,32.1079291]}}]}