{"type":"FeatureCollection","metro_system":{"continent":"asia","country":"China","city":"Hefei","osm_networks":["Hefei Metro","Unknown","合肥市轨道交通集团有限公司","合肥轨道交通集团有限公司"],"operator":"合肥轨道交通集团有限公司","official_website":null,"official_map":"https://en.wikipedia.org/wiki/Line_2_(Hefei_Metro)","wikidata":"Q10916960","line_count":8,"station_count":199,"audit":{"strategies_tried":[],"passed":true,"checks":[{"id":"system_exists","ok":true,"detail":"matched OSM system systems/asia/china/asia-china-hefei.geojson","level":"error"},{"id":"has_lines","ok":true,"detail":"8 lines","level":"error"},{"id":"has_stations","ok":true,"detail":"199 stations","level":"error"},{"id":"station_ratio","ok":true,"detail":"OSM 199 vs Wikipedia 195（比值 1.02）","level":"error"},{"id":"stations_have_lines","ok":true,"detail":"199/199 站皆有所屬路線","level":"error"},{"id":"stations_named","ok":true,"detail":"198/199 站有名稱","level":"warn"},{"id":"station_order","ok":true,"detail":"所有線路站序合理","level":"warn"}],"reasons":[],"warnings":[],"audited_at":"2026-07-10T07:56:59.649Z"}},"features":[{"type":"Feature","properties":{"route_id":"rm7949335","route_name":"Hefei Metro Line 2","route_name_local":"合肥轨道交通2号线","route_ref":"2","route_color":"#006bfa","network":"Hefei Metro","network_local":"合肥轨道交通","operator":"合肥轨道交通集团有限公司","city":"Hefei","country":"China","wikidata":"Q10916960","wikipedia":"en:Line 2 (Hefei Metro)","osm_route_ids":[5964585,7949331]},"geometry":{"type":"MultiLineString","coordinates":[[[117.1101756,31.8525074],[117.1213937,31.852643],[117.1307523,31.8529205],[117.1461541,31.8530571],[117.1629102,31.8533561],[117.1804733,31.8537341],[117.1931741,31.8559974],[117.2037806,31.8577084],[117.2177843,31.8566036],[117.2252519,31.8543048],[117.2355609,31.8528941],[117.2505142,31.8567302],[117.259772,31.8601447],[117.2698555,31.8631416],[117.2843578,31.8636176],[117.296009,31.8659755],[117.3083174,31.869598],[117.3191702,31.8697109],[117.3310602,31.8697412],[117.3459362,31.8699431],[117.3614353,31.8701786],[117.3700883,31.8702548],[117.3838497,31.8706037],[117.3915518,31.8708037],[117.4141382,31.8737413],[117.4239403,31.8758357],[117.437008,31.8757287],[117.44968,31.8743724],[117.466213,31.876999],[117.4750561,31.8729556],[117.4802771,31.861331],[117.4865488,31.8538948],[117.486508,31.8466882],[117.4864444,31.8357052],[117.4863729,31.8243962]]]}},{"type":"Feature","properties":{"route_id":"rm7949047","route_name":"Hefei Metro Line 1","route_name_local":"合肥轨道交通1号线","route_ref":"1","route_color":"#f50000","network":"Hefei Metro","network_local":"合肥轨道交通","operator":"合肥轨道交通集团有限公司","city":"Hefei","country":"China","wikidata":"Q10916959","wikipedia":"en:Line 1, Hefei Metro","osm_route_ids":[5964920,7949046]},"geometry":{"type":"MultiLineString","coordinates":[[[117.3165732,31.9199958],[117.3081309,31.9054837],[117.3088216,31.8921657],[117.3099158,31.8854948],[117.3036522,31.8774194],[117.2993393,31.8720703],[117.2951417,31.8660544],[117.2957314,31.8581516],[117.2951295,31.8492549],[117.2962325,31.8340831],[117.2966121,31.8253693],[117.2980181,31.8164627],[117.2868197,31.807565],[117.2845044,31.8006489],[117.2859288,31.7945464],[117.2859822,31.7850889],[117.2858281,31.7749323],[117.2970979,31.7565706],[117.2970775,31.742794],[117.2970389,31.7333321],[117.2970684,31.7248552],[117.2965818,31.7151064],[117.2965097,31.7077419],[117.2964781,31.7005586],[117.2919403,31.6933987],[117.2807371,31.6933663]]]}},{"type":"Feature","properties":{"route_id":"rm10488951","route_name":"Hefei Metro Line 3","route_name_local":"合肥轨道交通3号线","route_ref":"3","route_color":"#098137","network":"Hefei Metro","network_local":"合肥轨道交通","operator":"合肥轨道交通集团有限公司","city":"Hefei","country":"China","wikidata":"Q17023374","wikipedia":"en:Line 3 (Hefei Metro)","osm_route_ids":[5964922,10488950]},"geometry":{"type":"MultiLineString","coordinates":[[[117.1703723,31.6891965],[117.1704125,31.6964908],[117.1609872,31.7026479],[117.1518724,31.7112551],[117.1508083,31.7204206],[117.1569321,31.7257342],[117.1632516,31.7439532],[117.1755648,31.753137],[117.1867339,31.7612045],[117.1997125,31.7673466],[117.2043661,31.7770103],[117.2044479,31.784234],[117.2044883,31.7918015],[117.2098997,31.8029643],[117.2100916,31.8110707],[117.218497,31.8162325],[117.2264782,31.8236791],[117.2260598,31.8341981],[117.2258238,31.8428998],[117.2254257,31.8544486],[117.2252158,31.8637077],[117.2312234,31.8729206],[117.240655,31.8830118],[117.2513916,31.8885928],[117.2627219,31.8887526],[117.2729017,31.8889409],[117.2817276,31.889027],[117.290539,31.8895149],[117.3025925,31.8895998],[117.3097893,31.8853006],[117.3255456,31.8871936],[117.3365536,31.8869499],[117.3467529,31.8868682],[117.3535544,31.8921856],[117.3555889,31.8989237],[117.3626773,31.9117637],[117.3668378,31.923211],[117.3775561,31.9269645],[117.3915932,31.926923],[117.4019575,31.9269089]]]}},{"type":"Feature","properties":{"route_id":"rm11803249","route_name":"Hefei Metro Line 6","route_name_local":"合肥轨道交通6","route_ref":"6","route_color":"#c99fcd","network":"Hefei Metro","network_local":"合肥轨道交通","operator":"合肥轨道交通集团有限公司","city":"Hefei","country":"China","wikidata":"Q47519725","wikipedia":null,"osm_route_ids":[11747972,11755285]},"geometry":{"type":"MultiLineString","coordinates":[[[117.0827361,31.8315948],[117.0948259,31.8313716],[117.1097121,31.8319305],[117.1286141,31.8320923],[117.1521807,31.822738],[117.1793495,31.833664],[117.1973578,31.8346126],[117.2166654,31.8354049],[117.2259799,31.8341965],[117.2407078,31.8326597],[117.252402,31.8320021],[117.2651945,31.8306424],[117.2798561,31.8324552],[117.296255,31.8340842],[117.3186739,31.8269104],[117.3498647,31.8376531],[117.3615622,31.831959],[117.3724111,31.8298697],[117.3798832,31.8376926],[117.3928635,31.839605],[117.4114374,31.8383683]]]}},{"type":"Feature","properties":{"route_id":"rm11803246","route_name":"Hefei Metro Line 7","route_name_local":"合肥轨道交通7","route_ref":"7","route_color":"#f1cc40","network":"Hefei Metro","network_local":"合肥轨道交通","operator":"合肥轨道交通集团有限公司","city":"Hefei","country":"China","wikidata":"Q108340194","wikipedia":null,"osm_route_ids":[11755131,11755284]},"geometry":{"type":"MultiLineString","coordinates":[[[117.364028,31.7434346],[117.343335,31.7426993],[117.3186653,31.7426875],[117.3095355,31.742806],[117.2977189,31.742819],[117.2858587,31.7426898],[117.2804576,31.7520998],[117.2647915,31.7579706],[117.2542216,31.7554128],[117.2447429,31.7618331],[117.2448324,31.7728253],[117.2336261,31.77824],[117.2258664,31.7783313],[117.2157086,31.7828338],[117.2032415,31.7843725],[117.1908645,31.7843611]]]}},{"type":"Feature","properties":{"route_id":"rm11803245","route_name":"Hefei Metro Line 8","route_name_local":"合肥轨道交通8号线","route_ref":"8","route_color":"#64aee3","network":"Hefei Metro","network_local":"合肥轨道交通","operator":"合肥轨道交通集团有限公司","city":"Hefei","country":"China","wikidata":"Q111240211","wikipedia":"zh:合肥轨道交通8号线","osm_route_ids":[11755282,11755283]},"geometry":{"type":"MultiLineString","coordinates":[[[117.2815407,31.8901165],[117.278573,31.9054277],[117.2746189,31.9252092],[117.2658224,31.9322335],[117.2543666,31.9381077],[117.251566,31.9585472],[117.2494365,31.9778433],[117.2485317,31.9968033],[117.2425355,32.0130427],[117.2431699,32.0315526],[117.2406631,32.0465667],[117.2508886,32.0647891]],[[117.2507629,32.0647721],[117.2405372,32.0465514],[117.2430468,32.0315254],[117.2424117,32.0130176],[117.2484055,31.9967891],[117.2493092,31.9778405],[117.251441,31.9585673],[117.2542393,31.9381066],[117.2658457,31.9321273],[117.2744952,31.9251839],[117.2784471,31.9054118],[117.2814151,31.8900989]]]}},{"type":"Feature","properties":{"route_id":"rm12385671","route_name":"Hefei Metro Line 5","route_name_local":"合肥轨道交通5号线","route_ref":"5","route_color":"#c1d522","network":"Hefei Metro","network_local":"合肥轨道交通","operator":"合肥轨道交通集团有限公司","city":"Hefei","country":"China","wikidata":"Q43445187","wikipedia":"zh:合肥轨道交通5号线","osm_route_ids":[12385669,12385670]},"geometry":{"type":"MultiLineString","coordinates":[[[117.2586352,31.7012461],[117.2586773,31.7114145],[117.2699715,31.7150952],[117.2806683,31.7150784],[117.2965425,31.7150637],[117.3055118,31.7150558],[117.3139415,31.7150409],[117.3245696,31.7150193],[117.3330854,31.7201527],[117.3331271,31.733271],[117.3331731,31.7427195],[117.3332059,31.7547643],[117.3286762,31.7677038],[117.3286694,31.7753045],[117.3266826,31.7875671],[117.3191442,31.7965881],[117.3116924,31.7957678],[117.2964267,31.7946549],[117.2847447,31.8006629],[117.2831483,31.8111142],[117.271072,31.8162227],[117.2635126,31.8204657],[117.2651871,31.8305566],[117.2675708,31.8438368],[117.2684506,31.8513623],[117.2703378,31.8639495],[117.2730965,31.8730526],[117.2729736,31.8815392],[117.2728283,31.8889132],[117.2701028,31.8995292],[117.2661822,31.9189826],[117.264601,31.9319352],[117.2583182,31.9430089]]]}},{"type":"Feature","properties":{"route_id":"rm13536846","route_name":"Hefei Metro Line 4","route_name_local":"合肥轨道交通4号线","route_ref":"4","route_color":"#ff850d","network":"Hefei Metro","network_local":"合肥轨道交通","operator":"合肥轨道交通集团有限公司","city":"Hefei","country":"China","wikidata":"Q43283453","wikipedia":"zh:合肥轨道交通4号线","osm_route_ids":[13536844,13536845,17537792,17537793]},"geometry":{"type":"MultiLineString","coordinates":[[[117.0964297,31.7572318],[117.0892437,31.7614573],[117.0869495,31.7678032],[117.1112103,31.7842793],[117.1322066,31.7843203],[117.1397137,31.8047416],[117.1395425,31.8177749],[117.1521809,31.8228096],[117.1702309,31.8225878],[117.1821851,31.8181355],[117.1928129,31.8135999],[117.2101243,31.8110555],[117.2221321,31.8102191],[117.2330575,31.8110716],[117.2437655,31.8106185],[117.2519714,31.8104683],[117.2633985,31.8096861],[117.2709344,31.8052209],[117.275611,31.8016618],[117.2846057,31.8021253],[117.2967341,31.8067747],[117.3077037,31.8108002],[117.3202881,31.8169121],[117.3187097,31.8270244],[117.3184665,31.8392562],[117.3300551,31.856046],[117.3328782,31.8705541],[117.3352404,31.8778889],[117.3366002,31.8869732],[117.3371182,31.8985846],[117.3418683,31.9066885],[117.3396533,31.9284049],[117.3432863,31.9388938],[117.3483681,31.9527853]]]}},{"type":"Feature","properties":{"station_id":"n759787671","station_name":"n759787671","station_name_local":null,"network":"Unknown","network_local":null,"operator":null,"city":"Hefei","country":"China","lines":["4"],"wikidata":null},"geometry":{"type":"Point","coordinates":[117.2116321,31.8113496]}},{"type":"Feature","properties":{"station_id":"n2987302556","station_name":"Bingzipu","station_name_local":"丙子铺","network":"合肥轨道交通集团有限公司","network_local":null,"operator":"合肥轨道交通集团有限公司","city":"Hefei","country":"China","lines":["1"],"wikidata":"Q17031057"},"geometry":{"type":"Point","coordinates":[117.2919403,31.6933795]}},{"type":"Feature","properties":{"station_id":"n2987302557","station_name":"Jiulianwei","station_name_local":"九联圩","network":"合肥轨道交通集团有限公司","network_local":null,"operator":"合肥轨道交通集团有限公司","city":"Hefei","country":"China","lines":["1"],"wikidata":null},"geometry":{"type":"Point","coordinates":[117.2807372,31.6933471]}},{"type":"Feature","properties":{"station_id":"n2987302580","station_name":"Gaowang","station_name_local":"高王","network":"合肥轨道交通集团有限公司","network_local":null,"operator":"合肥轨道交通集团有限公司","city":"Hefei","country":"China","lines":["1"],"wikidata":"Q17028894"},"geometry":{"type":"Point","coordinates":[117.2858507,31.7749324]}},{"type":"Feature","properties":{"station_id":"n2987302581","station_name":"Luogang","station_name_local":"骆岗","network":"合肥轨道交通集团有限公司","network_local":null,"operator":"合肥轨道交通集团有限公司","city":"Hefei","country":"China","lines":["1"],"wikidata":null},"geometry":{"type":"Point","coordinates":[117.2860048,31.7850886]}},{"type":"Feature","properties":{"station_id":"n2987302583","station_name":"Hefei South Station South Square","station_name_local":"南站南广场","network":"合肥轨道交通集团有限公司","network_local":null,"operator":"合肥轨道交通集团有限公司","city":"Hefei","country":"China","lines":["1"],"wikidata":null},"geometry":{"type":"Point","coordinates":[117.2859514,31.7945458]}},{"type":"Feature","properties":{"station_id":"n2987302590","station_name":"Wanghucheng","station_name_local":"望湖城","network":"合肥轨道交通集团有限公司","network_local":null,"operator":"合肥轨道交通集团有限公司","city":"Hefei","country":"China","lines":["1"],"wikidata":"Q17025591"},"geometry":{"type":"Point","coordinates":[117.2868337,31.8075499]}},{"type":"Feature","properties":{"station_id":"n2987302597","station_name":"Gedadian","station_name_local":"葛大店","network":"合肥轨道交通集团有限公司","network_local":null,"operator":"合肥轨道交通集团有限公司","city":"Hefei","country":"China","lines":["1"],"wikidata":"Q17033793","merged_from":3},"geometry":{"type":"Point","coordinates":[117.29803936666667,31.816469033333334]}},{"type":"Feature","properties":{"station_id":"n2987302599","station_name":"Qiupuhelu","station_name_local":"秋浦河路","network":"合肥轨道交通集团有限公司","network_local":null,"operator":"合肥轨道交通集团有限公司","city":"Hefei","country":"China","lines":["1"],"wikidata":"Q17028468"},"geometry":{"type":"Point","coordinates":[117.2966346,31.8253703]}},{"type":"Feature","properties":{"station_id":"n2987302601","station_name":"Hefei University of Technology South Campus","station_name_local":"合工大南区","network":"合肥轨道交通集团有限公司","network_local":null,"operator":"合肥轨道交通集团有限公司","city":"Hefei","country":"China","lines":["1"],"wikidata":"Q17022502"},"geometry":{"type":"Point","coordinates":[117.2951521,31.8492551]}},{"type":"Feature","properties":{"station_id":"n2987302603","station_name":"Baogongyuan","station_name_local":"包公园","network":"合肥轨道交通集团有限公司","network_local":null,"operator":"合肥轨道交通集团有限公司","city":"Hefei","country":"China","lines":["1"],"wikidata":"Q17028612"},"geometry":{"type":"Point","coordinates":[117.2957533,31.858147]}},{"type":"Feature","properties":{"station_id":"n2987302608","station_name":"Mingguanglu","station_name_local":"明光路","network":"合肥轨道交通集团有限公司","network_local":null,"operator":"合肥轨道交通集团有限公司","city":"Hefei","country":"China","lines":["1"],"wikidata":"Q17025479"},"geometry":{"type":"Point","coordinates":[117.2993577,31.8720592]}},{"type":"Feature","properties":{"station_id":"n2987302609","station_name":"Changhuai","station_name_local":"长淮","network":"合肥轨道交通集团有限公司","network_local":null,"operator":"合肥轨道交通集团有限公司","city":"Hefei","country":"China","lines":["1"],"wikidata":"Q17020499"},"geometry":{"type":"Point","coordinates":[117.3036709,31.8774087]}},{"type":"Feature","properties":{"station_id":"n3473112196","station_name":"Xingfuba","station_name_local":"幸福坝","network":"Unknown","network_local":null,"operator":null,"city":"Hefei","country":"China","lines":["3"],"wikidata":"Q28414972"},"geometry":{"type":"Point","coordinates":[117.1755126,31.7531885]}},{"type":"Feature","properties":{"station_id":"n3473112197","station_name":"Andaqingyuanxiaoqu","station_name_local":"安大磬苑校区","network":"Unknown","network_local":null,"operator":null,"city":"Hefei","country":"China","lines":["3"],"wikidata":"Q80408377"},"geometry":{"type":"Point","coordinates":[117.1866826,31.7612566]}},{"type":"Feature","properties":{"station_id":"n3473112198","station_name":"Gongdafeicuihuxiaoqu","station_name_local":"工大翡翠湖校区","network":"Unknown","network_local":null,"operator":null,"city":"Hefei","country":"China","lines":["3"],"wikidata":null},"geometry":{"type":"Point","coordinates":[117.1996609,31.7673985]}},{"type":"Feature","properties":{"station_id":"n3473112199","station_name":"Daxuechengbei","station_name_local":"大学城北","network":"Unknown","network_local":null,"operator":null,"city":"Hefei","country":"China","lines":["3"],"wikidata":null},"geometry":{"type":"Point","coordinates":[117.2042861,31.7770118]}},{"type":"Feature","properties":{"station_id":"n3473112200","station_name":"Anyida'erfuyuan","station_name_local":"安医大二附院","network":"Unknown","network_local":null,"operator":null,"city":"Hefei","country":"China","lines":["3"],"wikidata":null},"geometry":{"type":"Point","coordinates":[117.2044083,31.7918037]}},{"type":"Feature","properties":{"station_id":"n3473112201","station_name":"Fanhuadadao","station_name_local":"繁华大道","network":"Unknown","network_local":null,"operator":null,"city":"Hefei","country":"China","lines":["3","7"],"wikidata":null,"merged_from":2},"geometry":{"type":"Point","coordinates":[117.203804,31.7843032]}},{"type":"Feature","properties":{"station_id":"n3473112202","station_name":"Shengbowuyuan","station_name_local":"省博物馆","network":"Unknown","network_local":null,"operator":null,"city":"Hefei","country":"China","lines":["3"],"wikidata":null},"geometry":{"type":"Point","coordinates":[117.2098212,31.8029762]}},{"type":"Feature","properties":{"station_id":"n3473112204","station_name":"Hefeidajuyuan","station_name_local":"合肥大剧院","network":"Unknown","network_local":null,"operator":null,"city":"Hefei","country":"China","lines":["3"],"wikidata":null},"geometry":{"type":"Point","coordinates":[117.2184959,31.8163005]}},{"type":"Feature","properties":{"station_id":"n3473112205","station_name":"Shizhengwuzhongxin","station_name_local":"市政务中心","network":"Unknown","network_local":null,"operator":null,"city":"Hefei","country":"China","lines":["3"],"wikidata":null},"geometry":{"type":"Point","coordinates":[117.2263983,31.8236772]}},{"type":"Feature","properties":{"station_id":"n3473112206","station_name":"Honggang","station_name_local":"洪岗","network":"Unknown","network_local":null,"operator":null,"city":"Hefei","country":"China","lines":["6"],"wikidata":null},"geometry":{"type":"Point","coordinates":[117.225981,31.8342389]}},{"type":"Feature","properties":{"station_id":"n3473112207","station_name":"Guofangkejidaxue","station_name_local":"国防科技大学","network":"Unknown","network_local":null,"operator":null,"city":"Hefei","country":"China","lines":["3"],"wikidata":"Q80769774"},"geometry":{"type":"Point","coordinates":[117.2257438,31.8428986]}},{"type":"Feature","properties":{"station_id":"n3634890674","station_name":"Sanshibu","station_name_local":"三十埠","network":"Unknown","network_local":null,"operator":null,"city":"Hefei","country":"China","lines":["2"],"wikidata":null},"geometry":{"type":"Point","coordinates":[117.3915512,31.8708214]}},{"type":"Feature","properties":{"station_id":"n3634890682","station_name":"Longgang","station_name_local":"龙岗","network":"Unknown","network_local":null,"operator":null,"city":"Hefei","country":"China","lines":["2"],"wikidata":"Q47018009"},"geometry":{"type":"Point","coordinates":[117.370088,31.8702725]}},{"type":"Feature","properties":{"station_id":"n3634890684","station_name":"Dong'ershibu","station_name_local":"东二十埠","network":"Unknown","network_local":null,"operator":null,"city":"Hefei","country":"China","lines":["2"],"wikidata":null},"geometry":{"type":"Point","coordinates":[117.3614351,31.8701963]}},{"type":"Feature","properties":{"station_id":"n3634890771","station_name":"Kexue Dadao","station_name_local":"科学大道","network":"Unknown","network_local":null,"operator":null,"city":"Hefei","country":"China","lines":["2"],"wikidata":"Q47018136"},"geometry":{"type":"Point","coordinates":[117.2037764,31.8577257]}},{"type":"Feature","properties":{"station_id":"n3634890840","station_name":"Zhangwa","station_name_local":"张洼","network":"Unknown","network_local":null,"operator":null,"city":"Hefei","country":"China","lines":["1"],"wikidata":"Q17023705"},"geometry":{"type":"Point","coordinates":[117.3165943,31.9199889]}},{"type":"Feature","properties":{"station_id":"n3634890855","station_name":"Wannianbu","station_name_local":"万年埠","network":"合肥轨道交通集团有限公司","network_local":null,"operator":"合肥轨道交通集团有限公司","city":"Hefei","country":"China","lines":["1"],"wikidata":"Q17039480"},"geometry":{"type":"Point","coordinates":[117.2965006,31.7005586]}},{"type":"Feature","properties":{"station_id":"n3634890856","station_name":"Wandacheng","station_name_local":"万达城","network":"合肥轨道交通集团有限公司","network_local":null,"operator":"合肥轨道交通集团有限公司","city":"Hefei","country":"China","lines":["1"],"wikidata":"Q17022726"},"geometry":{"type":"Point","coordinates":[117.2965323,31.7077415]}},{"type":"Feature","properties":{"station_id":"n3634890866","station_name":"Jindougongyuan","station_name_local":"金斗公园","network":"合肥轨道交通集团有限公司","network_local":null,"operator":"合肥轨道交通集团有限公司","city":"Hefei","country":"China","lines":["1"],"wikidata":"Q17025434"},"geometry":{"type":"Point","coordinates":[117.297091,31.7248551]}},{"type":"Feature","properties":{"station_id":"n3634890869","station_name":"Tangxihegongyuan","station_name_local":"塘西河公园","network":"合肥轨道交通集团有限公司","network_local":null,"operator":"合肥轨道交通集团有限公司","city":"Hefei","country":"China","lines":["1"],"wikidata":"Q15895006"},"geometry":{"type":"Point","coordinates":[117.2970614,31.7333322]}},{"type":"Feature","properties":{"station_id":"n3634890870","station_name":"Zilu","station_name_local":"紫庐","network":"合肥轨道交通集团有限公司","network_local":null,"operator":"合肥轨道交通集团有限公司","city":"Hefei","country":"China","lines":["1","7"],"wikidata":"Q17032362","merged_from":2},"geometry":{"type":"Point","coordinates":[117.2974095,31.74280655]}},{"type":"Feature","properties":{"station_id":"n3634890871","station_name":"Binhu International Convention Center","station_name_local":"滨湖会展中心","network":"合肥轨道交通集团有限公司","network_local":null,"operator":"合肥轨道交通集团有限公司","city":"Hefei","country":"China","lines":["1"],"wikidata":"Q17029311"},"geometry":{"type":"Point","coordinates":[117.2971205,31.7565705]}},{"type":"Feature","properties":{"station_id":"n3634890874","station_name":"Hefei Railway Station","station_name_local":"合肥火车站","network":"Unknown","network_local":null,"operator":null,"city":"Hefei","country":"China","lines":["3"],"wikidata":"Q17023373"},"geometry":{"type":"Point","coordinates":[117.3098017,31.8853159]}},{"type":"Feature","properties":{"station_id":"n3634890876","station_name":"Xinghuayuan","station_name_local":"兴华苑","network":"Unknown","network_local":null,"operator":null,"city":"Hefei","country":"China","lines":["1"],"wikidata":null},"geometry":{"type":"Point","coordinates":[117.3081526,31.9054785]}},{"type":"Feature","properties":{"station_id":"n3634890883","station_name":"Caochong","station_name_local":"漕冲","network":"Unknown","network_local":null,"operator":null,"city":"Hefei","country":"China","lines":["2"],"wikidata":"Q47018061"},"geometry":{"type":"Point","coordinates":[117.3459358,31.8699608]}},{"type":"Feature","properties":{"station_id":"n3634890884","station_name":"Dong Qili","station_name_local":"东七里","network":"Unknown","network_local":null,"operator":null,"city":"Hefei","country":"China","lines":["4"],"wikidata":"Q47018063"},"geometry":{"type":"Point","coordinates":[117.3325665,31.8697738]}},{"type":"Feature","properties":{"station_id":"n3634890885","station_name":"Dong Wulijing","station_name_local":"东五里井","network":"Unknown","network_local":null,"operator":null,"city":"Hefei","country":"China","lines":["2"],"wikidata":"Q47018084"},"geometry":{"type":"Point","coordinates":[117.3191706,31.8697286]}},{"type":"Feature","properties":{"station_id":"n3634890886","station_name":"Sanlijie","station_name_local":"三里街","network":"Unknown","network_local":null,"operator":null,"city":"Hefei","country":"China","lines":["2"],"wikidata":"Q47018106"},"geometry":{"type":"Point","coordinates":[117.308313,31.8696153]}},{"type":"Feature","properties":{"station_id":"n3634890887","station_name":"Sipailou","station_name_local":"四牌楼","network":"Unknown","network_local":null,"operator":null,"city":"Hefei","country":"China","lines":["2"],"wikidata":"Q47018107"},"geometry":{"type":"Point","coordinates":[117.2843552,31.8636352]}},{"type":"Feature","properties":{"station_id":"n3634890888","station_name":"Sanxiaokou","station_name_local":"三孝口","network":"Unknown","network_local":null,"operator":null,"city":"Hefei","country":"China","lines":["2"],"wikidata":"Q17039593"},"geometry":{"type":"Point","coordinates":[117.2698517,31.8631591]}},{"type":"Feature","properties":{"station_id":"n3634890889","station_name":"Anhui Agriculture University","station_name_local":"安农大","network":"Unknown","network_local":null,"operator":null,"city":"Hefei","country":"China","lines":["2"],"wikidata":null,"merged_from":2},"geometry":{"type":"Point","coordinates":[117.259915,31.86020885]}},{"type":"Feature","properties":{"station_id":"n3634890890","station_name":"Sanli'an","station_name_local":"三里庵","network":"合肥市轨道交通集团有限公司","network_local":null,"operator":"合肥市轨道交通集团有限公司","city":"Hefei","country":"China","lines":["2"],"wikidata":null},"geometry":{"type":"Point","coordinates":[117.2505061,31.8567465]}},{"type":"Feature","properties":{"station_id":"n3634890891","station_name":"Wulidun","station_name_local":"五里墩","network":"Unknown","network_local":null,"operator":null,"city":"Hefei","country":"China","lines":["2"],"wikidata":"Q47018127"},"geometry":{"type":"Point","coordinates":[117.2355608,31.8529118]}},{"type":"Feature","properties":{"station_id":"n3634890892","station_name":"Xiqilitang","station_name_local":"西七里塘","network":"Unknown","network_local":null,"operator":null,"city":"Hefei","country":"China","lines":["2"],"wikidata":"Q15951946"},"geometry":{"type":"Point","coordinates":[117.2254075,31.8542739]}},{"type":"Feature","properties":{"station_id":"n3634890893","station_name":"Shilimiao","station_name_local":"十里庙","network":"Unknown","network_local":null,"operator":null,"city":"Hefei","country":"China","lines":["2"],"wikidata":"Q47018134"},"geometry":{"type":"Point","coordinates":[117.2177909,31.8566204]}},{"type":"Feature","properties":{"station_id":"n3634890895","station_name":"Tianzhu Lu","station_name_local":"天柱路","network":"Unknown","network_local":null,"operator":null,"city":"Hefei","country":"China","lines":["2"],"wikidata":"Q47018497"},"geometry":{"type":"Point","coordinates":[117.19317,31.8560148]}},{"type":"Feature","properties":{"station_id":"n3634890896","station_name":"Dashushan","station_name_local":"大蜀山","network":"Unknown","network_local":null,"operator":null,"city":"Hefei","country":"China","lines":["2"],"wikidata":"Q47018502"},"geometry":{"type":"Point","coordinates":[117.1804692,31.8537515]}},{"type":"Feature","properties":{"station_id":"n3634890897","station_name":"Shushan Xi","station_name_local":"蜀山西","network":"Unknown","network_local":null,"operator":null,"city":"Hefei","country":"China","lines":["2"],"wikidata":"Q47018507"},"geometry":{"type":"Point","coordinates":[117.1629098,31.8533738]}},{"type":"Feature","properties":{"station_id":"n3634890898","station_name":"Zhenxing Lu","station_name_local":"振兴路","network":"Unknown","network_local":null,"operator":null,"city":"Hefei","country":"China","lines":["2"],"wikidata":"Q47018536"},"geometry":{"type":"Point","coordinates":[117.1461537,31.8530748]}},{"type":"Feature","properties":{"station_id":"n3634890899","station_name":"Qiche Xizhan","station_name_local":"汽车西站","network":"Unknown","network_local":null,"operator":null,"city":"Hefei","country":"China","lines":["2"],"wikidata":"Q47018548"},"geometry":{"type":"Point","coordinates":[117.130752,31.8529383]}},{"type":"Feature","properties":{"station_id":"n3634890900","station_name":"Guizhuang","station_name_local":"桂庄","network":"Unknown","network_local":null,"operator":null,"city":"Hefei","country":"China","lines":["2"],"wikidata":"Q47018552"},"geometry":{"type":"Point","coordinates":[117.1213933,31.8526607]}},{"type":"Feature","properties":{"station_id":"n3634890901","station_name":"Nangang","station_name_local":"南岗","network":"Unknown","network_local":null,"operator":null,"city":"Hefei","country":"China","lines":["2"],"wikidata":"Q17030208"},"geometry":{"type":"Point","coordinates":[117.1101752,31.8525251]}},{"type":"Feature","properties":{"station_id":"n3634991555","station_name":"Yalinchong","station_name_local":"鸭林冲","network":"Unknown","network_local":null,"operator":null,"city":"Hefei","country":"China","lines":["3"],"wikidata":"Q61741790"},"geometry":{"type":"Point","coordinates":[117.3026053,31.8896149]}},{"type":"Feature","properties":{"station_id":"n3634991576","station_name":"Huainan Street","station_name_local":"淮南路","network":"Unknown","network_local":null,"operator":null,"city":"Hefei","country":"China","lines":["3"],"wikidata":"Q61982623"},"geometry":{"type":"Point","coordinates":[117.2905388,31.8895334]}},{"type":"Feature","properties":{"station_id":"n3634991604","station_name":"Wenhuiyuan","station_name_local":"文浍苑","network":"Unknown","network_local":null,"operator":null,"city":"Hefei","country":"China","lines":["3"],"wikidata":"Q61568428"},"geometry":{"type":"Point","coordinates":[117.3626572,31.9117711]}},{"type":"Feature","properties":{"station_id":"n3634991623","station_name":"Hefeixi Railway Station","station_name_local":"合肥西站","network":"Unknown","network_local":null,"operator":null,"city":"Hefei","country":"China","lines":["3"],"wikidata":null,"merged_from":2},"geometry":{"type":"Point","coordinates":[117.23096755,31.8733991]}},{"type":"Feature","properties":{"station_id":"n3634991775","station_name":"Nanxinzhuang","station_name_local":"南新庄","network":"Unknown","network_local":null,"operator":null,"city":"Hefei","country":"China","lines":["3"],"wikidata":"Q86726507"},"geometry":{"type":"Point","coordinates":[117.2251939,31.8637073]}},{"type":"Feature","properties":{"station_id":"n3634991777","station_name":"Xinghuacun","station_name_local":"杏花村","network":"Unknown","network_local":null,"operator":null,"city":"Hefei","country":"China","lines":["3"],"wikidata":"Q86726515"},"geometry":{"type":"Point","coordinates":[117.2406379,31.8830233]}},{"type":"Feature","properties":{"station_id":"n3634991778","station_name":"Siquanqiao","station_name_local":"四泉桥","network":"Unknown","network_local":null,"operator":null,"city":"Hefei","country":"China","lines":["3"],"wikidata":"Q86726509"},"geometry":{"type":"Point","coordinates":[117.2513911,31.8886114]}},{"type":"Feature","properties":{"station_id":"n3634991779","station_name":"Zhenghe","station_name_local":"郑河","network":"Unknown","network_local":null,"operator":null,"city":"Hefei","country":"China","lines":["3"],"wikidata":"Q86726496"},"geometry":{"type":"Point","coordinates":[117.2627214,31.8887712]}},{"type":"Feature","properties":{"station_id":"n3634991780","station_name":"Haitang","station_name_local":"海棠","network":"Unknown","network_local":null,"operator":null,"city":"Hefei","country":"China","lines":["3"],"wikidata":"Q36931313"},"geometry":{"type":"Point","coordinates":[117.2729012,31.8889595]}},{"type":"Feature","properties":{"station_id":"n3634991781","station_name":"Yilijing","station_name_local":"一里井","network":"Unknown","network_local":null,"operator":null,"city":"Hefei","country":"China","lines":["3","8"],"wikidata":"Q61989167","merged_from":2},"geometry":{"type":"Point","coordinates":[117.2816024,31.889577250000002]}},{"type":"Feature","properties":{"station_id":"n3634991785","station_name":"Douqiaowan","station_name_local":"窦桥湾","network":"Unknown","network_local":null,"operator":null,"city":"Hefei","country":"China","lines":["3"],"wikidata":"Q61568363"},"geometry":{"type":"Point","coordinates":[117.3467532,31.8868868]}},{"type":"Feature","properties":{"station_id":"n3634991786","station_name":"Xinhaidadao","station_name_local":"新海大道","network":"Unknown","network_local":null,"operator":null,"city":"Hefei","country":"China","lines":["3"],"wikidata":"Q61568387"},"geometry":{"type":"Point","coordinates":[117.3535325,31.8921848]}},{"type":"Feature","properties":{"station_id":"n3634991787","station_name":"Qinlaocun","station_name_local":"勤劳村","network":"Unknown","network_local":null,"operator":null,"city":"Hefei","country":"China","lines":["3"],"wikidata":"Q61568407"},"geometry":{"type":"Point","coordinates":[117.3555695,31.8989323]}},{"type":"Feature","properties":{"station_id":"n3637175223","station_name":"Qinglonggang","station_name_local":"青龙岗","network":"Unknown","network_local":null,"operator":null,"city":"Hefei","country":"China","lines":["4","6"],"wikidata":"Q110008766"},"geometry":{"type":"Point","coordinates":[117.082736,31.8316487]}},{"type":"Feature","properties":{"station_id":"n3637175272","station_name":"Yulandadao","station_name_local":"玉兰大道","network":"Unknown","network_local":null,"operator":null,"city":"Hefei","country":"China","lines":["4"],"wikidata":null},"geometry":{"type":"Point","coordinates":[117.1702435,31.8226406]}},{"type":"Feature","properties":{"station_id":"n3637175285","station_name":"Liushutang","station_name_local":"柳树塘","network":"Unknown","network_local":null,"operator":null,"city":"Hefei","country":"China","lines":["4"],"wikidata":null},"geometry":{"type":"Point","coordinates":[117.1928435,31.8136472]}},{"type":"Feature","properties":{"station_id":"n3637176203","station_name":"Tian'ehu","station_name_local":"天鹅湖","network":"Unknown","network_local":null,"operator":null,"city":"Hefei","country":"China","lines":["4"],"wikidata":null},"geometry":{"type":"Point","coordinates":[117.2221298,31.810273]}},{"type":"Feature","properties":{"station_id":"n3637176227","station_name":"Yaogongmiao","station_name_local":"姚公庙","network":"Unknown","network_local":null,"operator":null,"city":"Hefei","country":"China","lines":["4"],"wikidata":null},"geometry":{"type":"Point","coordinates":[117.2437677,31.8106724]}},{"type":"Feature","properties":{"station_id":"n3637176235","station_name":"Nanpinglu","station_name_local":"南屏路","network":"Unknown","network_local":null,"operator":null,"city":"Hefei","country":"China","lines":["4"],"wikidata":null},"geometry":{"type":"Point","coordinates":[117.2519739,31.8105222]}},{"type":"Feature","properties":{"station_id":"n3637176242","station_name":"Xuehe","station_name_local":"薛河","network":"Unknown","network_local":null,"operator":null,"city":"Hefei","country":"China","lines":["4"],"wikidata":null},"geometry":{"type":"Point","coordinates":[117.2634046,31.8097398]}},{"type":"Feature","properties":{"station_id":"n3637176248","station_name":"Zhuxi","station_name_local":"竹西","network":"Unknown","network_local":null,"operator":null,"city":"Hefei","country":"China","lines":["4"],"wikidata":null},"geometry":{"type":"Point","coordinates":[117.2709978,31.8052222]}},{"type":"Feature","properties":{"station_id":"n3637176304","station_name":"Wulimiao","station_name_local":"五里庙","network":"Unknown","network_local":null,"operator":null,"city":"Hefei","country":"China","lines":["4"],"wikidata":null},"geometry":{"type":"Point","coordinates":[117.3184146,31.8392871]}},{"type":"Feature","properties":{"station_id":"n3637176327","station_name":"Tangqiao","station_name_local":"唐桥","network":"Unknown","network_local":null,"operator":null,"city":"Hefei","country":"China","lines":["4"],"wikidata":null},"geometry":{"type":"Point","coordinates":[117.3299935,31.8560589]}},{"type":"Feature","properties":{"station_id":"n3637176358","station_name":"Zhantang","station_name_local":"站塘","network":"Unknown","network_local":null,"operator":null,"city":"Hefei","country":"China","lines":["4"],"wikidata":null},"geometry":{"type":"Point","coordinates":[117.3351855,31.8779157]}},{"type":"Feature","properties":{"station_id":"n3637176376","station_name":"Xinhaigongyuan","station_name_local":"新海公园","network":"Unknown","network_local":null,"operator":null,"city":"Hefei","country":"China","lines":["4"],"wikidata":null},"geometry":{"type":"Point","coordinates":[117.3370585,31.898603]}},{"type":"Feature","properties":{"station_id":"n3637176391","station_name":"Shilicun","station_name_local":"十里村","network":"Unknown","network_local":null,"operator":null,"city":"Hefei","country":"China","lines":["4"],"wikidata":null},"geometry":{"type":"Point","coordinates":[117.3418144,31.906717]}},{"type":"Feature","properties":{"station_id":"n3637176411","station_name":"Feinan","station_name_local":"淝南","network":"Unknown","network_local":null,"operator":null,"city":"Hefei","country":"China","lines":["4"],"wikidata":null},"geometry":{"type":"Point","coordinates":[117.2756057,31.8017155]}},{"type":"Feature","properties":{"station_id":"n3637176412","station_name":"Tian'ehudong","station_name_local":"天鹅湖东","network":"Unknown","network_local":null,"operator":null,"city":"Hefei","country":"China","lines":["4"],"wikidata":null},"geometry":{"type":"Point","coordinates":[117.2331209,31.810681]}},{"type":"Feature","properties":{"station_id":"n3637176414","station_name":"Jingui","station_name_local":"金桂","network":"Unknown","network_local":null,"operator":null,"city":"Hefei","country":"China","lines":["4"],"wikidata":null},"geometry":{"type":"Point","coordinates":[117.1822116,31.8181845]}},{"type":"Feature","properties":{"station_id":"n3637176418","station_name":"Hefei No.7 High School","station_name_local":"合肥七中","network":"Unknown","network_local":null,"operator":null,"city":"Hefei","country":"China","lines":["4","6"],"wikidata":null},"geometry":{"type":"Point","coordinates":[117.0948261,31.8314255]}},{"type":"Feature","properties":{"station_id":"n5134150551","station_name":"Yaohaigongyuan","station_name_local":"瑶海公园","network":"Unknown","network_local":null,"operator":null,"city":"Hefei","country":"China","lines":["1"],"wikidata":"Q17064983"},"geometry":{"type":"Point","coordinates":[117.3088307,31.8921833]}},{"type":"Feature","properties":{"station_id":"n5305457529","station_name":"Wanggang","station_name_local":"王岗","network":"Unknown","network_local":null,"operator":null,"city":"Hefei","country":"China","lines":["2"],"wikidata":"Q47017956"},"geometry":{"type":"Point","coordinates":[117.383849,31.8706214]}},{"type":"Feature","properties":{"station_id":"n5371044758","station_name":"Dadongmen","station_name_local":"大东门","network":"合肥轨道交通集团有限公司","network_local":null,"operator":"合肥轨道交通集团有限公司","city":"Hefei","country":"China","lines":["1"],"wikidata":"Q10933376"},"geometry":{"type":"Point","coordinates":[117.2951406,31.8658551]}},{"type":"Feature","properties":{"station_id":"n5523927130","station_name":"Gedadiannan","station_name_local":"葛大店南","network":"Unknown","network_local":null,"operator":null,"city":"Hefei","country":"China","lines":["4"],"wikidata":null},"geometry":{"type":"Point","coordinates":[117.3076854,31.8108518]}},{"type":"Feature","properties":{"station_id":"n5523927132","station_name":"Gongjingxueyuan","station_name_local":"工经学院","network":"Unknown","network_local":null,"operator":null,"city":"Hefei","country":"China","lines":["4"],"wikidata":null},"geometry":{"type":"Point","coordinates":[117.3202253,31.8169047]}},{"type":"Feature","properties":{"station_id":"n5523927133","station_name":"Wanghuchengnan","station_name_local":"望湖城南","network":"Unknown","network_local":null,"operator":null,"city":"Hefei","country":"China","lines":["4"],"wikidata":null},"geometry":{"type":"Point","coordinates":[117.296715,31.8068261]}},{"type":"Feature","properties":{"station_id":"n7093187766","station_name":"Tushuguan","station_name_local":"图书馆","network":"Unknown","network_local":null,"operator":null,"city":"Hefei","country":"China","lines":["3"],"wikidata":"Q80403117"},"geometry":{"type":"Point","coordinates":[117.2100116,31.8110688]}},{"type":"Feature","properties":{"station_id":"n7098934034","station_name":"Fangmiao","station_name_local":"方庙","network":"Unknown","network_local":null,"operator":null,"city":"Hefei","country":"China","lines":["3","4"],"wikidata":"Q61568328","merged_from":3},"geometry":{"type":"Point","coordinates":[117.33653676666665,31.8869729]}},{"type":"Feature","properties":{"station_id":"n7101733258","station_name":"Zhusitan","station_name_local":"竹丝滩","network":"Unknown","network_local":null,"operator":null,"city":"Hefei","country":"China","lines":["3"],"wikidata":"Q61714774"},"geometry":{"type":"Point","coordinates":[117.3255467,31.8872122]}},{"type":"Feature","properties":{"station_id":"n7284562662","station_name":"Hefeinan Railway Station","station_name_local":"合肥南站","network":"合肥轨道交通集团有限公司","network_local":null,"operator":"合肥轨道交通集团有限公司","city":"Hefei","country":"China","lines":["4"],"wikidata":null},"geometry":{"type":"Point","coordinates":[117.2846034,31.8021792]}},{"type":"Feature","properties":{"station_id":"n8001180693","station_name":"Liwan","station_name_local":"李湾","network":"Unknown","network_local":null,"operator":null,"city":"Hefei","country":"China","lines":["3"],"wikidata":null},"geometry":{"type":"Point","coordinates":[117.1507443,31.7204676]}},{"type":"Feature","properties":{"station_id":"n8001180721","station_name":"Anyi Yifuyuan Nanqu","station_name_local":"安医一附院南区","network":"Unknown","network_local":null,"operator":null,"city":"Hefei","country":"China","lines":["3"],"wikidata":null},"geometry":{"type":"Point","coordinates":[117.1631947,31.7440064]}},{"type":"Feature","properties":{"station_id":"n8001180722","station_name":"Liangting","station_name_local":"凉亭","network":"Unknown","network_local":null,"operator":null,"city":"Hefei","country":"China","lines":["3"],"wikidata":"Q124016659"},"geometry":{"type":"Point","coordinates":[117.1568727,31.7257854]}},{"type":"Feature","properties":{"station_id":"n8001180723","station_name":"四十埠","station_name_local":"四十埠","network":"Unknown","network_local":null,"operator":null,"city":"Hefei","country":"China","lines":["3"],"wikidata":null},"geometry":{"type":"Point","coordinates":[117.1518102,31.7112065]}},{"type":"Feature","properties":{"station_id":"n8001180725","station_name":"Ruici","station_name_local":"芮祠","network":"Unknown","network_local":null,"operator":null,"city":"Hefei","country":"China","lines":["3"],"wikidata":null},"geometry":{"type":"Point","coordinates":[117.1609256,31.7025987]}},{"type":"Feature","properties":{"station_id":"n8001180726","station_name":"Leping","station_name_local":"乐平","network":"Unknown","network_local":null,"operator":null,"city":"Hefei","country":"China","lines":["3"],"wikidata":null},"geometry":{"type":"Point","coordinates":[117.170328,31.6964908]}},{"type":"Feature","properties":{"station_id":"n8001180727","station_name":"Sheng Ertong Yiyuan Xinqu","station_name_local":"省儿童医院新区","network":"Unknown","network_local":null,"operator":null,"city":"Hefei","country":"China","lines":["3"],"wikidata":"Q124016630"},"geometry":{"type":"Point","coordinates":[117.1702878,31.6891968]}},{"type":"Feature","properties":{"station_id":"n8001252368","station_name":"Hefei Integrated Free Trade Zone","station_name_local":"综保区","network":"Unknown","network_local":null,"operator":null,"city":"Hefei","country":"China","lines":["4"],"wikidata":null},"geometry":{"type":"Point","coordinates":[117.3483073,31.9528009]}},{"type":"Feature","properties":{"station_id":"n8001252369","station_name":"First Affiliated Hospital of Anhui Medical University North District","station_name_local":"安医一附院北区","network":"Unknown","network_local":null,"operator":null,"city":"Hefei","country":"China","lines":["4"],"wikidata":null},"geometry":{"type":"Point","coordinates":[117.3432327,31.9389091]}},{"type":"Feature","properties":{"station_id":"n8001252370","station_name":"Taochonghudong","station_name_local":"陶冲湖东","network":"Unknown","network_local":null,"operator":null,"city":"Hefei","country":"China","lines":["4"],"wikidata":null},"geometry":{"type":"Point","coordinates":[117.3395942,31.9284246]}},{"type":"Feature","properties":{"station_id":"n8478652624","station_name":"Wanghuchengxi","station_name_local":"望湖城西","network":"Unknown","network_local":null,"operator":null,"city":"Hefei","country":"China","lines":["5"],"wikidata":null},"geometry":{"type":"Point","coordinates":[117.2830962,31.8110768]}},{"type":"Feature","properties":{"station_id":"n8478652627","station_name":"Shengda","station_name_local":"盛大","network":"Unknown","network_local":null,"operator":null,"city":"Hefei","country":"China","lines":["5"],"wikidata":"Q107059775"},"geometry":{"type":"Point","coordinates":[117.296416,31.7945902]}},{"type":"Feature","properties":{"station_id":"n8478652628","station_name":"Baoheyuan","station_name_local":"包河苑","network":"Unknown","network_local":null,"operator":null,"city":"Hefei","country":"China","lines":["5"],"wikidata":"Q107059773"},"geometry":{"type":"Point","coordinates":[117.3117033,31.7957084]}},{"type":"Feature","properties":{"station_id":"n8478652629","station_name":"Yixing","station_name_local":"义兴","network":"Unknown","network_local":null,"operator":null,"city":"Hefei","country":"China","lines":["5"],"wikidata":"Q107059774"},"geometry":{"type":"Point","coordinates":[117.3191491,31.7965325]}},{"type":"Feature","properties":{"station_id":"n8478652630","station_name":"Dalianlu","station_name_local":"大连路","network":"Unknown","network_local":null,"operator":null,"city":"Hefei","country":"China","lines":["5"],"wikidata":"Q107059772"},"geometry":{"type":"Point","coordinates":[117.326611,31.7875513]}},{"type":"Feature","properties":{"station_id":"n8478652631","station_name":"Huayuandadao","station_name_local":"花园大道","network":"Unknown","network_local":null,"operator":null,"city":"Hefei","country":"China","lines":["5"],"wikidata":"Q107059713"},"geometry":{"type":"Point","coordinates":[117.3285945,31.7753052]}},{"type":"Feature","properties":{"station_id":"n8478652632","station_name":"Huanghelu","station_name_local":"黄河路","network":"Unknown","network_local":null,"operator":null,"city":"Hefei","country":"China","lines":["5"],"wikidata":"Q107059771"},"geometry":{"type":"Point","coordinates":[117.3286052,31.7677027]}},{"type":"Feature","properties":{"station_id":"n8478652633","station_name":"Yangzijianglu","station_name_local":"扬子江路","network":"Unknown","network_local":null,"operator":null,"city":"Hefei","country":"China","lines":["5"],"wikidata":null},"geometry":{"type":"Point","coordinates":[117.3331381,31.754764]}},{"type":"Feature","properties":{"station_id":"n8478652634","station_name":"Yicheng","station_name_local":"义城","network":"Unknown","network_local":null,"operator":null,"city":"Hefei","country":"China","lines":["5"],"wikidata":null},"geometry":{"type":"Point","coordinates":[117.3330925,31.7427199]}},{"type":"Feature","properties":{"station_id":"n8478652635","station_name":"Shengzhengwuzhongxindong","station_name_local":"省政务中心东","network":"Unknown","network_local":null,"operator":null,"city":"Hefei","country":"China","lines":["5"],"wikidata":null},"geometry":{"type":"Point","coordinates":[117.333051,31.7332704]}},{"type":"Feature","properties":{"station_id":"n8478652636","station_name":"Fangxinghu","station_name_local":"方兴湖","network":"Unknown","network_local":null,"operator":null,"city":"Hefei","country":"China","lines":["5"],"wikidata":"Q107059767"},"geometry":{"type":"Point","coordinates":[117.3330188,31.7201512]}},{"type":"Feature","properties":{"station_id":"n8478652637","station_name":"Dujiangjinianguan","station_name_local":"渡江纪念馆","network":"Unknown","network_local":null,"operator":null,"city":"Hefei","country":"China","lines":["5"],"wikidata":"Q107059766"},"geometry":{"type":"Point","coordinates":[117.3245712,31.715086]}},{"type":"Feature","properties":{"station_id":"n8478652638","station_name":"Huashanlu","station_name_local":"华山路","network":"Unknown","network_local":null,"operator":null,"city":"Hefei","country":"China","lines":["5"],"wikidata":"Q104628305"},"geometry":{"type":"Point","coordinates":[117.3055141,31.7151283]}},{"type":"Feature","properties":{"station_id":"n8478652639","station_name":"Shenwan","station_name_local":"沈湾","network":"Unknown","network_local":null,"operator":null,"city":"Hefei","country":"China","lines":["5"],"wikidata":"Q107059765"},"geometry":{"type":"Point","coordinates":[117.3139416,31.7151066]}},{"type":"Feature","properties":{"station_id":"n8478652640","station_name":"Yungulu","station_name_local":"云谷路","network":"合肥轨道交通集团有限公司","network_local":null,"operator":"合肥轨道交通集团有限公司","city":"Hefei","country":"China","lines":["1"],"wikidata":null},"geometry":{"type":"Point","coordinates":[117.2965428,31.715131]}},{"type":"Feature","properties":{"station_id":"n8478652641","station_name":"Qingshuichong","station_name_local":"清水冲","network":"Unknown","network_local":null,"operator":null,"city":"Hefei","country":"China","lines":["5"],"wikidata":null},"geometry":{"type":"Point","coordinates":[117.2806685,31.7151421]}},{"type":"Feature","properties":{"station_id":"n8478652642","station_name":"Yunchuan Park","station_name_local":"云川公园","network":"Unknown","network_local":null,"operator":null,"city":"Hefei","country":"China","lines":["5"],"wikidata":"Q107059757"},"geometry":{"type":"Point","coordinates":[117.2699735,31.7151579]}},{"type":"Feature","properties":{"station_id":"n8478652643","station_name":"Binhuzhuyuan","station_name_local":"滨湖竹园","network":"Unknown","network_local":null,"operator":null,"city":"Hefei","country":"China","lines":["5"],"wikidata":"Q107059755"},"geometry":{"type":"Point","coordinates":[117.2586089,31.7114136]}},{"type":"Feature","properties":{"station_id":"n8478652644","station_name":"Guiyanglu","station_name_local":"贵阳路","network":"Unknown","network_local":null,"operator":null,"city":"Hefei","country":"China","lines":["5"],"wikidata":null},"geometry":{"type":"Point","coordinates":[117.258566,31.7012466]}},{"type":"Feature","properties":{"station_id":"n8478659918","station_name":"Xiangchenglu","station_name_local":"相城路","network":"Unknown","network_local":null,"operator":null,"city":"Hefei","country":"China","lines":["3"],"wikidata":"Q60995548"},"geometry":{"type":"Point","coordinates":[117.4019577,31.9269652]}},{"type":"Feature","properties":{"station_id":"n8478659919","station_name":"Zhijiaochengdong","station_name_local":"职教城东","network":"Unknown","network_local":null,"operator":null,"city":"Hefei","country":"China","lines":["3"],"wikidata":"Q61568526"},"geometry":{"type":"Point","coordinates":[117.3915935,31.9269694]}},{"type":"Feature","properties":{"station_id":"n8478659920","station_name":"职教城","station_name_local":"职教城","network":"Unknown","network_local":null,"operator":null,"city":"Hefei","country":"China","lines":["3"],"wikidata":null},"geometry":{"type":"Point","coordinates":[117.3775569,31.9270103]}},{"type":"Feature","properties":{"station_id":"n8478659921","station_name":"幼儿师范","station_name_local":"幼儿师范","network":"Unknown","network_local":null,"operator":null,"city":"Hefei","country":"China","lines":["3"],"wikidata":null},"geometry":{"type":"Point","coordinates":[117.3667851,31.9232239]}},{"type":"Feature","properties":{"station_id":"n8570567818","station_name":"Yaoduhelu","station_name_local":"尧渡河路","network":"Unknown","network_local":null,"operator":null,"city":"Hefei","country":"China","lines":["4"],"wikidata":"Q110008799"},"geometry":{"type":"Point","coordinates":[117.318623,31.8271612]}},{"type":"Feature","properties":{"station_id":"n9328010168","station_name":"Beiyanhu","station_name_local":"北雁湖","network":"Unknown","network_local":null,"operator":null,"city":"Hefei","country":"China","lines":["4"],"wikidata":"Q110008778"},"geometry":{"type":"Point","coordinates":[117.1521809,31.8228455]}},{"type":"Feature","properties":{"station_id":"n9328010299","station_name":"QISRC","station_name_local":"量子科学中心","network":"Unknown","network_local":null,"operator":null,"city":"Hefei","country":"China","lines":["4","6"],"wikidata":null},"geometry":{"type":"Point","coordinates":[117.1097124,31.8319844]}},{"type":"Feature","properties":{"station_id":"n9328010300","station_name":"IAT-USTC","station_name_local":"科大先研院","network":"Unknown","network_local":null,"operator":null,"city":"Hefei","country":"China","lines":["4","6"],"wikidata":null},"geometry":{"type":"Point","coordinates":[117.1286128,31.8321462]}},{"type":"Feature","properties":{"station_id":"n9328010328","station_name":"复兴集","station_name_local":"复兴集","network":"Unknown","network_local":null,"operator":null,"city":"Hefei","country":"China","lines":["4"],"wikidata":null},"geometry":{"type":"Point","coordinates":[117.1394791,31.8177748]}},{"type":"Feature","properties":{"station_id":"n9328010329","station_name":"桃花潭","station_name_local":"桃花潭","network":"Unknown","network_local":null,"operator":null,"city":"Hefei","country":"China","lines":["4"],"wikidata":null,"merged_from":3},"geometry":{"type":"Point","coordinates":[117.13220716666667,31.784374200000002]}},{"type":"Feature","properties":{"station_id":"n9328010330","station_name":"长安集","station_name_local":"长安集","network":"Unknown","network_local":null,"operator":null,"city":"Hefei","country":"China","lines":["4"],"wikidata":null},"geometry":{"type":"Point","coordinates":[117.1396503,31.8047413]}},{"type":"Feature","properties":{"station_id":"n9328010343","station_name":"金小郢","station_name_local":"金小郢","network":"Unknown","network_local":null,"operator":null,"city":"Hefei","country":"China","lines":["4"],"wikidata":null},"geometry":{"type":"Point","coordinates":[117.1112101,31.784333]}},{"type":"Feature","properties":{"station_id":"n9328010344","station_name":"Tongluozhai Road","station_name_local":"铜锣寨路","network":"Unknown","network_local":null,"operator":null,"city":"Hefei","country":"China","lines":["4"],"wikidata":null},"geometry":{"type":"Point","coordinates":[117.0869302,31.7677959]}},{"type":"Feature","properties":{"station_id":"n9328010345","station_name":"Weizhuang","station_name_local":"魏庄","network":"Unknown","network_local":null,"operator":null,"city":"Hefei","country":"China","lines":["4"],"wikidata":null},"geometry":{"type":"Point","coordinates":[117.0892226,31.7614573]}},{"type":"Feature","properties":{"station_id":"n9328026702","station_name":"Shaomaigang","station_name_local":"烧脉岗","network":"Unknown","network_local":null,"operator":null,"city":"Hefei","country":"China","lines":["4"],"wikidata":null},"geometry":{"type":"Point","coordinates":[117.0964298,31.7571678]}},{"type":"Feature","properties":{"station_id":"n9938215058","station_name":"Sanshibudong","station_name_local":"三十埠东","network":"Unknown","network_local":null,"operator":null,"city":"Hefei","country":"China","lines":["2"],"wikidata":null},"geometry":{"type":"Point","coordinates":[117.4141246,31.8737887]}},{"type":"Feature","properties":{"station_id":"n9938215059","station_name":"Xianghe","station_name_local":"祥和","network":"Unknown","network_local":null,"operator":null,"city":"Hefei","country":"China","lines":["2"],"wikidata":null},"geometry":{"type":"Point","coordinates":[117.4239241,31.8758821]}},{"type":"Feature","properties":{"station_id":"n9938215060","station_name":"Guiwang","station_name_local":"桂王","network":"Unknown","network_local":null,"operator":null,"city":"Hefei","country":"China","lines":["2"],"wikidata":null},"geometry":{"type":"Point","coordinates":[117.4370484,31.8757631]}},{"type":"Feature","properties":{"station_id":"n9938215061","station_name":"Duihe","station_name_local":"对河","network":"Unknown","network_local":null,"operator":null,"city":"Hefei","country":"China","lines":["2"],"wikidata":null},"geometry":{"type":"Point","coordinates":[117.4496656,31.8744432]}},{"type":"Feature","properties":{"station_id":"n9938215062","station_name":"Dianbuhe","station_name_local":"店埠河","network":"Unknown","network_local":null,"operator":null,"city":"Hefei","country":"China","lines":["2"],"wikidata":null},"geometry":{"type":"Point","coordinates":[117.4661978,31.8770697]}},{"type":"Feature","properties":{"station_id":"n9938215063","station_name":"Paitou","station_name_local":"排头","network":"Unknown","network_local":null,"operator":null,"city":"Hefei","country":"China","lines":["2"],"wikidata":null},"geometry":{"type":"Point","coordinates":[117.4751401,31.872964]}},{"type":"Feature","properties":{"station_id":"n9938215064","station_name":"Feidong Railway Station","station_name_local":"肥东站","network":"Unknown","network_local":null,"operator":null,"city":"Hefei","country":"China","lines":["2"],"wikidata":null},"geometry":{"type":"Point","coordinates":[117.4803524,31.8613637]}},{"type":"Feature","properties":{"station_id":"n9938215066","station_name":"Hemuhu","station_name_local":"和睦湖","network":"Unknown","network_local":null,"operator":null,"city":"Hefei","country":"China","lines":["2"],"wikidata":null},"geometry":{"type":"Point","coordinates":[117.4866259,31.8538961]}},{"type":"Feature","properties":{"station_id":"n9938215067","station_name":"Maqiao","station_name_local":"马桥","network":"Unknown","network_local":null,"operator":null,"city":"Hefei","country":"China","lines":["2"],"wikidata":null},"geometry":{"type":"Point","coordinates":[117.4865926,31.8466877]}},{"type":"Feature","properties":{"station_id":"n9938215068","station_name":"Nanshahe","station_name_local":"南沙河","network":"Unknown","network_local":null,"operator":null,"city":"Hefei","country":"China","lines":["2"],"wikidata":null},"geometry":{"type":"Point","coordinates":[117.486529,31.835705]}},{"type":"Feature","properties":{"station_id":"n9938215069","station_name":"Cuozhen","station_name_local":"撮镇","network":"Unknown","network_local":null,"operator":null,"city":"Hefei","country":"China","lines":["2"],"wikidata":null},"geometry":{"type":"Point","coordinates":[117.4864574,31.8243964]}},{"type":"Feature","properties":{"station_id":"n9938215079","station_name":"Longtang","station_name_local":"龙塘","network":"Unknown","network_local":null,"operator":null,"city":"Hefei","country":"China","lines":["6"],"wikidata":"Q137583510"},"geometry":{"type":"Point","coordinates":[117.4114432,31.8384086]}},{"type":"Feature","properties":{"station_id":"n9938215084","station_name":"Fulong","station_name_local":"伏龙","network":"Unknown","network_local":null,"operator":null,"city":"Hefei","country":"China","lines":["6"],"wikidata":"Q137583521"},"geometry":{"type":"Point","coordinates":[117.3928688,31.8396449]}},{"type":"Feature","properties":{"station_id":"n9938215085","station_name":"Daxingji","station_name_local":"大兴集","network":"Unknown","network_local":null,"operator":null,"city":"Hefei","country":"China","lines":["6"],"wikidata":"Q137583527"},"geometry":{"type":"Point","coordinates":[117.3798469,31.8376999]}},{"type":"Feature","properties":{"station_id":"n9938215086","station_name":"Ganghong","station_name_local":"钢红","network":"Unknown","network_local":null,"operator":null,"city":"Hefei","country":"China","lines":["6"],"wikidata":null},"geometry":{"type":"Point","coordinates":[117.3724327,31.8299052]}},{"type":"Feature","properties":{"station_id":"n9938215087","station_name":"市博物馆","station_name_local":"市博物馆","network":"Unknown","network_local":null,"operator":null,"city":"Hefei","country":"China","lines":["6"],"wikidata":null},"geometry":{"type":"Point","coordinates":[117.3607658,31.833375]}},{"type":"Feature","properties":{"station_id":"n9938215088","station_name":"市儿童医院","station_name_local":"市儿童医院","network":"Unknown","network_local":null,"operator":null,"city":"Hefei","country":"China","lines":["6"],"wikidata":null},"geometry":{"type":"Point","coordinates":[117.3498802,31.8376791]}},{"type":"Feature","properties":{"station_id":"n9938215094","station_name":"Weigang","station_name_local":"卫岗","network":"Unknown","network_local":null,"operator":null,"city":"Hefei","country":"China","lines":["6"],"wikidata":"Q137583882"},"geometry":{"type":"Point","coordinates":[117.2798519,31.8324843]}},{"type":"Feature","properties":{"station_id":"n9938215095","station_name":"Hefei No.3 People's Hospital","station_name_local":"市第三医院","network":"Unknown","network_local":null,"operator":null,"city":"Hefei","country":"China","lines":["6"],"wikidata":"Q111225519"},"geometry":{"type":"Point","coordinates":[117.2652005,31.8306564]}},{"type":"Feature","properties":{"station_id":"n9938215096","station_name":"Nanqili","station_name_local":"南七里","network":"Unknown","network_local":null,"operator":null,"city":"Hefei","country":"China","lines":["6"],"wikidata":"Q137583538"},"geometry":{"type":"Point","coordinates":[117.2524082,31.8320412]}},{"type":"Feature","properties":{"station_id":"n9938215097","station_name":"Lujun Bingzhong Daxue","station_name_local":"炮兵学院","network":"Unknown","network_local":null,"operator":null,"city":"Hefei","country":"China","lines":["6"],"wikidata":"Q137583543"},"geometry":{"type":"Point","coordinates":[117.2407171,31.8326929]}},{"type":"Feature","properties":{"station_id":"n9938215098","station_name":"Songyinqiao","station_name_local":"松荫桥","network":"Unknown","network_local":null,"operator":null,"city":"Hefei","country":"China","lines":["6"],"wikidata":null},"geometry":{"type":"Point","coordinates":[117.2166789,31.8354729]}},{"type":"Feature","properties":{"station_id":"n9938215099","station_name":"Mengcheng","station_name_local":"梦城","network":"Unknown","network_local":null,"operator":null,"city":"Hefei","country":"China","lines":["6"],"wikidata":null},"geometry":{"type":"Point","coordinates":[117.1973587,31.8346877]}},{"type":"Feature","properties":{"station_id":"n9938215100","station_name":"Kaifusi","station_name_local":"开福寺","network":"Unknown","network_local":null,"operator":null,"city":"Hefei","country":"China","lines":["6"],"wikidata":"Q137583901"},"geometry":{"type":"Point","coordinates":[117.1793492,31.8336857]}},{"type":"Feature","properties":{"station_id":"n9938306033","station_name":"Lingdatang","station_name_local":"凌大塘","network":"合肥市轨道交通集团有限公司","network_local":null,"operator":"合肥市轨道交通集团有限公司","city":"Hefei","country":"China","lines":["5"],"wikidata":"Q111225516"},"geometry":{"type":"Point","coordinates":[117.2712511,31.8161673]}},{"type":"Feature","properties":{"station_id":"n9938306034","station_name":"休宁路","station_name_local":"休宁路","network":"合肥市轨道交通集团有限公司","network_local":null,"operator":"合肥市轨道交通集团有限公司","city":"Hefei","country":"China","lines":["5"],"wikidata":"Q111225517"},"geometry":{"type":"Point","coordinates":[117.2634461,31.8204665]}},{"type":"Feature","properties":{"station_id":"n9938306035","station_name":"中国科大东区","station_name_local":"中国科大东区","network":"合肥市轨道交通集团有限公司","network_local":null,"operator":"合肥市轨道交通集团有限公司","city":"Hefei","country":"China","lines":["5"],"wikidata":"Q111225520"},"geometry":{"type":"Point","coordinates":[117.2675397,31.8438331]}},{"type":"Feature","properties":{"station_id":"n9938306036","station_name":"Daoxianglou","station_name_local":"稻香楼","network":"合肥市轨道交通集团有限公司","network_local":null,"operator":"合肥市轨道交通集团有限公司","city":"Hefei","country":"China","lines":["5"],"wikidata":"Q111225521"},"geometry":{"type":"Point","coordinates":[117.2684299,31.851382]}},{"type":"Feature","properties":{"station_id":"n9938306037","station_name":"Xinghua Park","station_name_local":"杏花公园","network":"合肥市轨道交通集团有限公司","network_local":null,"operator":"合肥市轨道交通集团有限公司","city":"Hefei","country":"China","lines":["5"],"wikidata":"Q111225522"},"geometry":{"type":"Point","coordinates":[117.2730653,31.8730505]}},{"type":"Feature","properties":{"station_id":"n9938306038","station_name":"Baishuiba","station_name_local":"白水坝","network":"合肥市轨道交通集团有限公司","network_local":null,"operator":"合肥市轨道交通集团有限公司","city":"Hefei","country":"China","lines":["5"],"wikidata":"Q111225523"},"geometry":{"type":"Point","coordinates":[117.2729431,31.881566]}},{"type":"Feature","properties":{"station_id":"n9938306039","station_name":"Beiwulijing","station_name_local":"北五里井","network":"合肥市轨道交通集团有限公司","network_local":null,"operator":"合肥市轨道交通集团有限公司","city":"Hefei","country":"China","lines":["5"],"wikidata":"Q111225525"},"geometry":{"type":"Point","coordinates":[117.2700751,31.899516]}},{"type":"Feature","properties":{"station_id":"n9938306042","station_name":"Linghu Park","station_name_local":"菱湖公园","network":"合肥市轨道交通集团有限公司","network_local":null,"operator":"合肥市轨道交通集团有限公司","city":"Hefei","country":"China","lines":["5"],"wikidata":"Q111225526"},"geometry":{"type":"Point","coordinates":[117.2661599,31.9189745]}},{"type":"Feature","properties":{"station_id":"n9938306043","station_name":"Hefei No. 6 High School Linghu Campus","station_name_local":"六中菱湖校区","network":"合肥市轨道交通集团有限公司","network_local":null,"operator":"合肥市轨道交通集团有限公司","city":"Hefei","country":"China","lines":["5","8"],"wikidata":"Q111225527","merged_from":2},"geometry":{"type":"Point","coordinates":[117.26520365,31.932051]}},{"type":"Feature","properties":{"station_id":"n9938306044","station_name":"Jiqiao Road","station_name_local":"汲桥路","network":"合肥市轨道交通集团有限公司","network_local":null,"operator":"合肥市轨道交通集团有限公司","city":"Hefei","country":"China","lines":["5"],"wikidata":"Q111225528"},"geometry":{"type":"Point","coordinates":[117.258289,31.9429963]}},{"type":"Feature","properties":{"station_id":"n11163093621","station_name":"杏林","station_name_local":"杏林","network":"Unknown","network_local":null,"operator":null,"city":"Hefei","country":"China","lines":["8"],"wikidata":null},"geometry":{"type":"Point","coordinates":[117.2785101,31.9054197]}},{"type":"Feature","properties":{"station_id":"n11163093623","station_name":"庐阳经开区","station_name_local":"庐阳经开区","network":"Unknown","network_local":null,"operator":null,"city":"Hefei","country":"China","lines":["8"],"wikidata":null},"geometry":{"type":"Point","coordinates":[117.274557,31.9251966]}},{"type":"Feature","properties":{"station_id":"n11163093637","station_name":"荷塘路","station_name_local":"荷塘路","network":"Unknown","network_local":null,"operator":null,"city":"Hefei","country":"China","lines":["8"],"wikidata":null},"geometry":{"type":"Point","coordinates":[117.2543029,31.9381071]}},{"type":"Feature","properties":{"station_id":"n11163093641","station_name":"双凤","station_name_local":"双凤","network":"Unknown","network_local":null,"operator":null,"city":"Hefei","country":"China","lines":["8"],"wikidata":null},"geometry":{"type":"Point","coordinates":[117.2515035,31.9585573]}},{"type":"Feature","properties":{"station_id":"n11163093653","station_name":"金梅路","station_name_local":"金梅路","network":"Unknown","network_local":null,"operator":null,"city":"Hefei","country":"China","lines":["8"],"wikidata":"Q131444109"},"geometry":{"type":"Point","coordinates":[117.2493729,31.9778419]}},{"type":"Feature","properties":{"station_id":"n11163093656","station_name":"梅冲湖","station_name_local":"梅冲湖","network":"Unknown","network_local":null,"operator":null,"city":"Hefei","country":"China","lines":["8"],"wikidata":"Q131444108"},"geometry":{"type":"Point","coordinates":[117.2484686,31.9967962]}},{"type":"Feature","properties":{"station_id":"n11163093684","station_name":"北城世纪城","station_name_local":"北城世纪城","network":"Unknown","network_local":null,"operator":null,"city":"Hefei","country":"China","lines":["8"],"wikidata":null},"geometry":{"type":"Point","coordinates":[117.2424736,32.0130302]}},{"type":"Feature","properties":{"station_id":"n11163093685","station_name":"双墩","station_name_local":"双墩","network":"Unknown","network_local":null,"operator":null,"city":"Hefei","country":"China","lines":["8"],"wikidata":null},"geometry":{"type":"Point","coordinates":[117.2431083,32.031539]}},{"type":"Feature","properties":{"station_id":"n11163093686","station_name":"省立医院北区","station_name_local":"省立医院北区","network":"Unknown","network_local":null,"operator":null,"city":"Hefei","country":"China","lines":["8"],"wikidata":null},"geometry":{"type":"Point","coordinates":[117.2406001,32.0465591]}},{"type":"Feature","properties":{"station_id":"n11163093700","station_name":"北城高铁站","station_name_local":"北城高铁站","network":"Unknown","network_local":null,"operator":null,"city":"Hefei","country":"China","lines":["8"],"wikidata":null},"geometry":{"type":"Point","coordinates":[117.2508258,32.0647806]}},{"type":"Feature","properties":{"station_id":"n11164390521","station_name":"Feicuigongyuan","station_name_local":"翡翠公园","network":"Unknown","network_local":null,"operator":null,"city":"Hefei","country":"China","lines":["7"],"wikidata":null},"geometry":{"type":"Point","coordinates":[117.1908483,31.7844265]}},{"type":"Feature","properties":{"station_id":"n11164390522","station_name":"Huiyuan","station_name_local":"徽园","network":"Unknown","network_local":null,"operator":null,"city":"Hefei","country":"China","lines":["7"],"wikidata":"Q140399518"},"geometry":{"type":"Point","coordinates":[117.2157493,31.7828758]}},{"type":"Feature","properties":{"station_id":"n11164390523","station_name":"莲花路","station_name_local":"莲花路","network":"Unknown","network_local":null,"operator":null,"city":"Hefei","country":"China","lines":["7"],"wikidata":null},"geometry":{"type":"Point","coordinates":[117.2258393,31.7783633]}},{"type":"Feature","properties":{"station_id":"n11164390524","station_name":"Tiandu Lu","station_name_local":"天都路","network":"Unknown","network_local":null,"operator":null,"city":"Hefei","country":"China","lines":["7"],"wikidata":"Q140407603"},"geometry":{"type":"Point","coordinates":[117.2336335,31.7783]}},{"type":"Feature","properties":{"station_id":"n11164390525","station_name":"石门路","station_name_local":"石门路","network":"Unknown","network_local":null,"operator":null,"city":"Hefei","country":"China","lines":["7"],"wikidata":null},"geometry":{"type":"Point","coordinates":[117.2446921,31.7728164]}},{"type":"Feature","properties":{"station_id":"n11164390526","station_name":"耕耘路","station_name_local":"耕耘路","network":"Unknown","network_local":null,"operator":null,"city":"Hefei","country":"China","lines":["7"],"wikidata":null},"geometry":{"type":"Point","coordinates":[117.2446615,31.7618224]}},{"type":"Feature","properties":{"station_id":"n11164390527","station_name":"Hefei Daxue","station_name_local":"清潭路","network":"Unknown","network_local":null,"operator":null,"city":"Hefei","country":"China","lines":["7"],"wikidata":"Q140407605"},"geometry":{"type":"Point","coordinates":[117.2542327,31.7553479]}},{"type":"Feature","properties":{"station_id":"n11164390528","station_name":"Nanyanhunan","station_name_local":"习友路","network":"Unknown","network_local":null,"operator":null,"city":"Hefei","country":"China","lines":["7"],"wikidata":"Q140407658"},"geometry":{"type":"Point","coordinates":[117.2647773,31.7580461]}},{"type":"Feature","properties":{"station_id":"n11164390529","station_name":"Yaosu Dashichang","station_name_local":"要素大市场","network":"Unknown","network_local":null,"operator":null,"city":"Hefei","country":"China","lines":["7"],"wikidata":"Q140407606"},"geometry":{"type":"Point","coordinates":[117.2805106,31.7520769]}},{"type":"Feature","properties":{"station_id":"n11164390530","station_name":"Binhu Yiyuan","station_name_local":"广西路","network":"Unknown","network_local":null,"operator":null,"city":"Hefei","country":"China","lines":["7"],"wikidata":"Q140407607"},"geometry":{"type":"Point","coordinates":[117.2858933,31.7428159]}},{"type":"Feature","properties":{"station_id":"n11164390531","station_name":"Songshan Lu","station_name_local":"嵩山路","network":"Unknown","network_local":null,"operator":null,"city":"Hefei","country":"China","lines":["7"],"wikidata":"Q140407608"},"geometry":{"type":"Point","coordinates":[117.3095102,31.7428612]}},{"type":"Feature","properties":{"station_id":"n11164390532","station_name":"Sheng Wenhuahefeiyiguan","station_name_local":"徽富路","network":"Unknown","network_local":null,"operator":null,"city":"Hefei","country":"China","lines":["7"],"wikidata":"Q140399429"},"geometry":{"type":"Point","coordinates":[117.3187228,31.7427059]}},{"type":"Feature","properties":{"station_id":"n11164390535","station_name":"天津路","station_name_local":"天津路","network":"Unknown","network_local":null,"operator":null,"city":"Hefei","country":"China","lines":["7"],"wikidata":null},"geometry":{"type":"Point","coordinates":[117.3433235,31.7427719]}},{"type":"Feature","properties":{"station_id":"n13418355207","station_name":"Zhugang","station_name_local":"朱岗","network":"合肥轨道交通集团有限公司","network_local":null,"operator":"合肥轨道交通集团有限公司","city":"Hefei","country":"China","lines":["6"],"wikidata":"Q17023737"},"geometry":{"type":"Point","coordinates":[117.2962536,31.8341046]}},{"type":"Feature","properties":{"station_id":"n912715093","station_name":"幼儿师范站","station_name_local":"幼儿师范站","network":"Unknown","network_local":null,"operator":null,"city":"Hefei","country":"China","lines":["3"],"wikidata":null},"geometry":{"type":"Point","coordinates":[117.36679,31.9232481]}},{"type":"Feature","properties":{"station_id":"n912715094","station_name":"职教城站","station_name_local":"职教城站","network":"Unknown","network_local":null,"operator":null,"city":"Hefei","country":"China","lines":["3"],"wikidata":null},"geometry":{"type":"Point","coordinates":[117.3775217,31.9270111]}}]}