{"type":"FeatureCollection","metro_system":{"continent":"asia","country":"China","city":"Guiyang","osm_networks":["Guiyang Metro","Unknown"],"operator":"贵阳市城市轨道交通集团有限公司","official_website":null,"official_map":"https://en.wikipedia.org/wiki/Line_2_(Guiyang_Metro)","wikidata":"Q19856263","line_count":5,"station_count":93,"audit":{"strategies_tried":[],"passed":true,"checks":[{"id":"system_exists","ok":true,"detail":"matched OSM system systems/asia/china/asia-china-guiyang.geojson","level":"error"},{"id":"has_lines","ok":true,"detail":"5 lines","level":"error"},{"id":"has_stations","ok":true,"detail":"93 stations","level":"error"},{"id":"station_ratio","ok":true,"detail":"OSM 93 vs Wikipedia 82（比值 1.13）","level":"error"},{"id":"stations_have_lines","ok":true,"detail":"93/93 站皆有所屬路線","level":"error"},{"id":"line_geometry_stations","ok":true,"detail":"131 個折點/端點皆為車站","level":"error"},{"id":"stations_named","ok":true,"detail":"93/93 站有名稱","level":"warn"},{"id":"station_order","ok":true,"detail":"所有線路站序合理","level":"warn"}],"reasons":[],"warnings":[],"audited_at":"2026-07-10T09:30:23.762Z"}},"features":[{"type":"Feature","properties":{"route_id":"rm7740660","route_name":"Guiyang Metro Line 1","route_name_local":"贵阳轨道交通1号线","route_ref":"1","route_color":"#259b24","network":"Guiyang Metro","network_local":"贵阳轨道交通","operator":"贵阳市城市轨道交通集团有限公司","city":"Guiyang","country":"China","wikidata":"Q19856263","wikipedia":null,"osm_route_ids":[8114611,10149268]},"geometry":{"type":"MultiLineString","coordinates":[[[106.7059109,26.5011534],[106.7055519,26.5106707],[106.7072148,26.521349],[106.7071733,26.5303045],[106.70848,26.5406819],[106.7009274,26.5525155],[106.6997822,26.561032],[106.7041043,26.5731596],[106.7060605,26.5809267],[106.7065389,26.5871705],[106.7023315,26.5967083],[106.6993003,26.6007358],[106.7006799,26.6189961],[106.6985679,26.6400284],[106.6723915,26.622752],[106.6582322,26.6232488],[106.6504764,26.63133],[106.652006,26.642755],[106.644525,26.6492813],[106.6279407,26.6487341],[106.6139559,26.6492602],[106.60462,26.6497443],[106.5866307,26.6520468],[106.5764945,26.6587779],[106.5655249,26.6570843]]]}},{"type":"Feature","properties":{"route_id":"r12791162","route_name":"Guiyang Metro Line 2","route_name_local":"2 白云北路 - 中兴路","route_ref":"2","route_color":"#005bac","network":"Unknown","network_local":null,"operator":null,"city":"Guiyang","country":"China","wikidata":"Q19856264","wikipedia":"en:Line 2 (Guiyang Metro)","osm_route_ids":[12791162]},"geometry":{"type":"MultiLineString","coordinates":[[[106.7737871,26.5223772],[106.7767746,26.533913],[106.7852788,26.5383824],[106.7949367,26.5473887],[106.776521,26.5501748],[106.7664901,26.5499398],[106.7355681,26.5528278],[106.7280863,26.5586848],[106.7281287,26.5653284],[106.7252626,26.5739695],[106.7209113,26.5805438],[106.7193777,26.5858925],[106.7065389,26.5871705],[106.7015134,26.5856932],[106.6942772,26.5854316],[106.6764306,26.5843421],[106.6638026,26.5875041],[106.6566007,26.596218],[106.6499395,26.5903594],[106.6330484,26.5933495],[106.6202948,26.600467],[106.6162485,26.606332],[106.6176951,26.6155144],[106.6130998,26.6270021],[106.6135105,26.6384645],[106.6139559,26.6492602],[106.6141021,26.6550945],[106.6140931,26.6650665],[106.618676,26.6730572],[106.6214587,26.681689],[106.6279144,26.6869244],[106.6216358,26.6962244]]]}},{"type":"Feature","properties":{"route_id":"r12791163","route_name":"Guiyang Metro Line 2","route_name_local":"2 中兴路 - 白云北路","route_ref":"2","route_color":"#005bac","network":"Unknown","network_local":null,"operator":null,"city":"Guiyang","country":"China","wikidata":"Q19856264","wikipedia":"en:Line 2 (Guiyang Metro)","osm_route_ids":[12791163]},"geometry":{"type":"MultiLineString","coordinates":[[[106.6216358,26.6962244],[106.6279144,26.6869244],[106.6214587,26.681689],[106.618676,26.6730572],[106.6140931,26.6650665],[106.6141021,26.6550945],[106.6139559,26.6492602],[106.6135105,26.6384645],[106.6130998,26.6270021],[106.6176951,26.6155144],[106.6162485,26.606332],[106.6202948,26.600467],[106.6330484,26.5933495],[106.6499395,26.5903594],[106.6566007,26.596218],[106.6638026,26.5875041],[106.6764306,26.5843421],[106.6942772,26.5854316],[106.7015134,26.5856932],[106.7065389,26.5871705],[106.7193777,26.5858925],[106.7209113,26.5805438],[106.7252626,26.5739695],[106.7281287,26.5653284],[106.7280863,26.5586848],[106.7355681,26.5528278],[106.7664901,26.5499398],[106.776521,26.5501748],[106.7949367,26.5473887],[106.7852788,26.5383824],[106.7767746,26.533913],[106.7737871,26.5223772]]]}},{"type":"Feature","properties":{"route_id":"rm16843978","route_name":"Guiyang Metro Line 3","route_name_local":"贵阳轨道交通3号线","route_ref":"3","route_color":"#ee2737","network":"Guiyang Metro","network_local":"贵阳轨道交通","operator":"贵阳市城市轨道交通集团有限公司","city":"Guiyang","country":"China","wikidata":"Q123825602","wikipedia":null,"osm_route_ids":[16843975,16843976]},"geometry":{"type":"MultiLineString","coordinates":[[[106.8222097,26.6585514],[106.8152025,26.6409165],[106.7912443,26.6391211],[106.7733929,26.6398014],[106.7654101,26.6353571],[106.7435224,26.6264583],[106.7296138,26.6189812],[106.7221251,26.6084066],[106.7112942,26.5996502],[106.7023315,26.5967083],[106.6934362,26.5905931],[106.6942772,26.5854316],[106.6859461,26.5732167],[106.6813971,26.5693484],[106.6708479,26.5623013],[106.6787685,26.5565961],[106.6827516,26.5461692],[106.6786371,26.5340958],[106.6737447,26.5231899],[106.6730983,26.5063053],[106.6691769,26.4812845],[106.671379,26.4636794],[106.6722588,26.4530345],[106.6731412,26.4421678],[106.6738104,26.4250893],[106.6739203,26.4121738],[106.6724546,26.4056717],[106.6733371,26.3957435],[106.6767636,26.3830482]]]}},{"type":"Feature","properties":{"route_id":"rm18482307","route_name":"Guiyang Metro Line S1","route_name_local":"贵阳轨道交通S1线","route_ref":"S1","route_color":"#972284","network":"Guiyang Metro","network_local":"贵阳轨道交通","operator":"贵阳市城市轨道交通集团有限公司","city":"Guiyang","country":"China","wikidata":"Q131339622","wikipedia":null,"osm_route_ids":[18482300,18482303]},"geometry":{"type":"MultiLineString","coordinates":[[[106.4645169,26.4747717],[106.4819898,26.4689747],[106.4948746,26.4638253],[106.5033647,26.4604487],[106.524305,26.4582602],[106.5422902,26.4592897],[106.5780619,26.4527954],[106.6246963,26.482263],[106.6524759,26.4907434],[106.6730983,26.5063053],[106.694777,26.5149102],[106.6982797,26.5251518],[106.70848,26.5406819]]]}},{"type":"Feature","properties":{"station_id":"n4632174216","station_name":"Xiaomeng Industrial Park","station_name_local":"小孟工业园","network":"Unknown","network_local":null,"operator":null,"city":"Guiyang","country":"China","lines":["1"],"wikidata":null},"geometry":{"type":"Point","coordinates":[106.7059109,26.5011534]}},{"type":"Feature","properties":{"station_id":"n4632174219","station_name":"Zhujiang Road","station_name_local":"珠江路","network":"Unknown","network_local":null,"operator":null,"city":"Guiyang","country":"China","lines":["1"],"wikidata":"Q60675555"},"geometry":{"type":"Point","coordinates":[106.7071733,26.5303045]}},{"type":"Feature","properties":{"station_id":"n4632174220","station_name":"Wangchengpo","station_name_local":"望城坡","network":"Unknown","network_local":null,"operator":null,"city":"Guiyang","country":"China","lines":["S1"],"wikidata":"Q60682705"},"geometry":{"type":"Point","coordinates":[106.70848,26.5406819]}},{"type":"Feature","properties":{"station_id":"n4632174221","station_name":"Shachong Road","station_name_local":"沙冲路","network":"Unknown","network_local":null,"operator":null,"city":"Guiyang","country":"China","lines":["1"],"wikidata":"Q60682716"},"geometry":{"type":"Point","coordinates":[106.7009274,26.5525155]}},{"type":"Feature","properties":{"station_id":"n4632174226","station_name":"West Zhongshan Road","station_name_local":"中山西路","network":"Unknown","network_local":null,"operator":null,"city":"Guiyang","country":"China","lines":["1"],"wikidata":"Q60682757"},"geometry":{"type":"Point","coordinates":[106.7060605,26.5809267]}},{"type":"Feature","properties":{"station_id":"n4632174228","station_name":"Bageyan","station_name_local":"八鸽岩","network":"Unknown","network_local":null,"operator":null,"city":"Guiyang","country":"China","lines":["1"],"wikidata":"Q60682795"},"geometry":{"type":"Point","coordinates":[106.6993003,26.6007358]}},{"type":"Feature","properties":{"station_id":"n4632174230","station_name":"Yaguan","station_name_local":"雅关","network":"Unknown","network_local":null,"operator":null,"city":"Guiyang","country":"China","lines":["1"],"wikidata":"Q60682844"},"geometry":{"type":"Point","coordinates":[106.6985679,26.6400284]}},{"type":"Feature","properties":{"station_id":"n4656392929","station_name":"Xingzhu Road","station_name_local":"兴筑路","network":"Unknown","network_local":null,"operator":null,"city":"Guiyang","country":"China","lines":["2"],"wikidata":"Q109730813"},"geometry":{"type":"Point","coordinates":[106.6130998,26.6270021]}},{"type":"Feature","properties":{"station_id":"n4656392931","station_name":"金阳南路","station_name_local":"金阳南路","network":"Unknown","network_local":null,"operator":null,"city":"Guiyang","country":"China","lines":["2"],"wikidata":null},"geometry":{"type":"Point","coordinates":[106.6162485,26.606332]}},{"type":"Feature","properties":{"station_id":"n4656392932","station_name":"茶园","station_name_local":"茶园","network":"Unknown","network_local":null,"operator":null,"city":"Guiyang","country":"China","lines":["2"],"wikidata":null},"geometry":{"type":"Point","coordinates":[106.6202948,26.600467]}},{"type":"Feature","properties":{"station_id":"n4656392937","station_name":"黔春路","station_name_local":"黔春路","network":"Unknown","network_local":null,"operator":null,"city":"Guiyang","country":"China","lines":["2"],"wikidata":null},"geometry":{"type":"Point","coordinates":[106.6764306,26.5843421]}},{"type":"Feature","properties":{"station_id":"n4656392948","station_name":"Longdongbao International Airport","station_name_local":"龙洞堡机场","network":"Unknown","network_local":null,"operator":null,"city":"Guiyang","country":"China","lines":["2"],"wikidata":null},"geometry":{"type":"Point","coordinates":[106.7949367,26.5473887]}},{"type":"Feature","properties":{"station_id":"n4656392949","station_name":"Xiaobi","station_name_local":"小碧","network":"Unknown","network_local":null,"operator":null,"city":"Guiyang","country":"China","lines":["2"],"wikidata":null},"geometry":{"type":"Point","coordinates":[106.7852788,26.5383824]}},{"type":"Feature","properties":{"station_id":"n7294445482","station_name":"Laowantang","station_name_local":"老湾塘","network":"Unknown","network_local":null,"operator":null,"city":"Guiyang","country":"China","lines":["1"],"wikidata":"Q60683219"},"geometry":{"type":"Point","coordinates":[106.5866307,26.6520468]}},{"type":"Feature","properties":{"station_id":"n8674499765","station_name":"Zhongxing Road","station_name_local":"中兴路","network":"Unknown","network_local":null,"operator":null,"city":"Guiyang","country":"China","lines":["2"],"wikidata":null},"geometry":{"type":"Point","coordinates":[106.7737871,26.5223772]}},{"type":"Feature","properties":{"station_id":"n8674514071","station_name":"Yunpan","station_name_local":"云盘","network":"Unknown","network_local":null,"operator":null,"city":"Guiyang","country":"China","lines":["2"],"wikidata":null},"geometry":{"type":"Point","coordinates":[106.7767746,26.533913]}},{"type":"Feature","properties":{"station_id":"n8674529712","station_name":"Fuyuanbeilu","station_name_local":"富源北路","network":"Unknown","network_local":null,"operator":null,"city":"Guiyang","country":"China","lines":["2"],"wikidata":null},"geometry":{"type":"Point","coordinates":[106.7355681,26.5528278]}},{"type":"Feature","properties":{"station_id":"n8674529713","station_name":"Jianlongdong","station_name_local":"见龙洞","network":"Unknown","network_local":null,"operator":null,"city":"Guiyang","country":"China","lines":["2"],"wikidata":null},"geometry":{"type":"Point","coordinates":[106.776521,26.5501748]}},{"type":"Feature","properties":{"station_id":"n8674529714","station_name":"森林公园","station_name_local":"森林公园","network":"Unknown","network_local":null,"operator":null,"city":"Guiyang","country":"China","lines":["2"],"wikidata":null},"geometry":{"type":"Point","coordinates":[106.7664901,26.5499398]}},{"type":"Feature","properties":{"station_id":"n8676796685","station_name":"宝山南路","station_name_local":"宝山南路","network":"Unknown","network_local":null,"operator":null,"city":"Guiyang","country":"China","lines":["2"],"wikidata":null},"geometry":{"type":"Point","coordinates":[106.7252626,26.5739695]}},{"type":"Feature","properties":{"station_id":"n8676796692","station_name":"Youzhajie","station_name_local":"油榨街","network":"Unknown","network_local":null,"operator":null,"city":"Guiyang","country":"China","lines":["2"],"wikidata":null},"geometry":{"type":"Point","coordinates":[106.7281287,26.5653284]}},{"type":"Feature","properties":{"station_id":"n8676796701","station_name":"Guigang","station_name_local":"贵钢","network":"Unknown","network_local":null,"operator":null,"city":"Guiyang","country":"China","lines":["2"],"wikidata":null},"geometry":{"type":"Point","coordinates":[106.7280863,26.5586848]}},{"type":"Feature","properties":{"station_id":"n8676808954","station_name":"喷水池","station_name_local":"喷水池","network":"Unknown","network_local":null,"operator":null,"city":"Guiyang","country":"China","lines":["1"],"wikidata":"Q60682777"},"geometry":{"type":"Point","coordinates":[106.7065389,26.5871705]}},{"type":"Feature","properties":{"station_id":"n8676838634","station_name":"阳明祠","station_name_local":"阳明祠","network":"Unknown","network_local":null,"operator":null,"city":"Guiyang","country":"China","lines":["2"],"wikidata":null},"geometry":{"type":"Point","coordinates":[106.7193777,26.5858925]}},{"type":"Feature","properties":{"station_id":"n8676838637","station_name":"省人民医院","station_name_local":"省人民医院","network":"Unknown","network_local":null,"operator":null,"city":"Guiyang","country":"China","lines":["2"],"wikidata":null},"geometry":{"type":"Point","coordinates":[106.7209113,26.5805438]}},{"type":"Feature","properties":{"station_id":"n8676877365","station_name":"Zilin'an","station_name_local":"紫林庵","network":"Unknown","network_local":null,"operator":null,"city":"Guiyang","country":"China","lines":["2"],"wikidata":null},"geometry":{"type":"Point","coordinates":[106.7015134,26.5856932]}},{"type":"Feature","properties":{"station_id":"n8676920072","station_name":"West Yan'an Road","station_name_local":"延安西路","network":"Unknown","network_local":null,"operator":null,"city":"Guiyang","country":"China","lines":["2"],"wikidata":null},"geometry":{"type":"Point","coordinates":[106.6942772,26.5854316]}},{"type":"Feature","properties":{"station_id":"n8711051408","station_name":"改茶路","station_name_local":"改茶路","network":"Unknown","network_local":null,"operator":null,"city":"Guiyang","country":"China","lines":["2"],"wikidata":null},"geometry":{"type":"Point","coordinates":[106.6638026,26.5875041]}},{"type":"Feature","properties":{"station_id":"n8711051409","station_name":"百花大道","station_name_local":"百花大道","network":"Unknown","network_local":null,"operator":null,"city":"Guiyang","country":"China","lines":["2"],"wikidata":null},"geometry":{"type":"Point","coordinates":[106.6330484,26.5933495]}},{"type":"Feature","properties":{"station_id":"n8711051410","station_name":"Mawangmiao","station_name_local":"马王庙","network":"Unknown","network_local":null,"operator":null,"city":"Guiyang","country":"China","lines":["2"],"wikidata":null},"geometry":{"type":"Point","coordinates":[106.6499395,26.5903594]}},{"type":"Feature","properties":{"station_id":"n8711051413","station_name":"北京西路","station_name_local":"北京西路","network":"Unknown","network_local":null,"operator":null,"city":"Guiyang","country":"China","lines":["2"],"wikidata":null},"geometry":{"type":"Point","coordinates":[106.6566007,26.596218]}},{"type":"Feature","properties":{"station_id":"n8711075952","station_name":"West Lincheng Road","station_name_local":"林城西路","network":"Unknown","network_local":null,"operator":null,"city":"Guiyang","country":"China","lines":["2"],"wikidata":"Q60683334"},"geometry":{"type":"Point","coordinates":[106.6139559,26.6492602]}},{"type":"Feature","properties":{"station_id":"n8711075954","station_name":"观山西路","station_name_local":"观山西路","network":"Unknown","network_local":null,"operator":null,"city":"Guiyang","country":"China","lines":["2"],"wikidata":null},"geometry":{"type":"Point","coordinates":[106.6135105,26.6384645]}},{"type":"Feature","properties":{"station_id":"n8711075956","station_name":"金阳医院","station_name_local":"金阳医院","network":"Unknown","network_local":null,"operator":null,"city":"Guiyang","country":"China","lines":["2"],"wikidata":null},"geometry":{"type":"Point","coordinates":[106.6176951,26.6155144]}},{"type":"Feature","properties":{"station_id":"n8711080923","station_name":"诚信路","station_name_local":"诚信路","network":"Unknown","network_local":null,"operator":null,"city":"Guiyang","country":"China","lines":["2"],"wikidata":null},"geometry":{"type":"Point","coordinates":[106.6141021,26.6550945]}},{"type":"Feature","properties":{"station_id":"n8711080924","station_name":"云峰大道","station_name_local":"云峰大道","network":"Unknown","network_local":null,"operator":null,"city":"Guiyang","country":"China","lines":["2"],"wikidata":null},"geometry":{"type":"Point","coordinates":[106.6214587,26.681689]}},{"type":"Feature","properties":{"station_id":"n8711080926","station_name":"泉湖公园","station_name_local":"泉湖公园","network":"Unknown","network_local":null,"operator":null,"city":"Guiyang","country":"China","lines":["2"],"wikidata":null},"geometry":{"type":"Point","coordinates":[106.618676,26.6730572]}},{"type":"Feature","properties":{"station_id":"n8711080928","station_name":"白云北路","station_name_local":"白云北路","network":"Unknown","network_local":null,"operator":null,"city":"Guiyang","country":"China","lines":["2"],"wikidata":"Q107508817"},"geometry":{"type":"Point","coordinates":[106.6216358,26.6962244]}},{"type":"Feature","properties":{"station_id":"n8711080931","station_name":"枫林路","station_name_local":"枫林路","network":"Unknown","network_local":null,"operator":null,"city":"Guiyang","country":"China","lines":["2"],"wikidata":null},"geometry":{"type":"Point","coordinates":[106.6140931,26.6650665]}},{"type":"Feature","properties":{"station_id":"n8711080932","station_name":"白云中路","station_name_local":"白云中路","network":"Unknown","network_local":null,"operator":null,"city":"Guiyang","country":"China","lines":["2"],"wikidata":null},"geometry":{"type":"Point","coordinates":[106.6279144,26.6869244]}},{"type":"Feature","properties":{"station_id":"n9162480940","station_name":"International Eco-Conference Center","station_name_local":"国际生态会议中心","network":"Unknown","network_local":null,"operator":null,"city":"Guiyang","country":"China","lines":["1"],"wikidata":"Q60683312"},"geometry":{"type":"Point","coordinates":[106.644525,26.6492813]}},{"type":"Feature","properties":{"station_id":"n11432158703","station_name":"Luowan","station_name_local":"洛湾","network":"Unknown","network_local":null,"operator":null,"city":"Guiyang","country":"China","lines":["3"],"wikidata":null},"geometry":{"type":"Point","coordinates":[106.8222097,26.6585514]}},{"type":"Feature","properties":{"station_id":"n11432158706","station_name":"Dongfeng (Guiqian International General Hospital)","station_name_local":"东风（贵黔医院）","network":"Unknown","network_local":null,"operator":null,"city":"Guiyang","country":"China","lines":["3"],"wikidata":null},"geometry":{"type":"Point","coordinates":[106.8152025,26.6409165]}},{"type":"Feature","properties":{"station_id":"n11432158709","station_name":"Guizhou Education University","station_name_local":"师范学院","network":"Unknown","network_local":null,"operator":null,"city":"Guiyang","country":"China","lines":["3"],"wikidata":null},"geometry":{"type":"Point","coordinates":[106.7912443,26.6391211]}},{"type":"Feature","properties":{"station_id":"n11432158711","station_name":"Gaoxin Road","station_name_local":"高新路","network":"Unknown","network_local":null,"operator":null,"city":"Guiyang","country":"China","lines":["3"],"wikidata":null},"geometry":{"type":"Point","coordinates":[106.7733929,26.6398014]}},{"type":"Feature","properties":{"station_id":"n11433144995","station_name":"Guizhou Medical University","station_name_local":"贵医","network":"Unknown","network_local":null,"operator":null,"city":"Guiyang","country":"China","lines":["3"],"wikidata":null},"geometry":{"type":"Point","coordinates":[106.7112942,26.5996502]}},{"type":"Feature","properties":{"station_id":"n11433144996","station_name":"Beijing Road","station_name_local":"北京路","network":"Unknown","network_local":null,"operator":null,"city":"Guiyang","country":"China","lines":["3"],"wikidata":"Q60682805"},"geometry":{"type":"Point","coordinates":[106.7023315,26.5967083]}},{"type":"Feature","properties":{"station_id":"n11434694145","station_name":"Qingshuijiang Road","station_name_local":"清水江路","network":"Unknown","network_local":null,"operator":null,"city":"Guiyang","country":"China","lines":["1"],"wikidata":"Q60682689"},"geometry":{"type":"Point","coordinates":[106.7055519,26.5106707]}},{"type":"Feature","properties":{"station_id":"n11434694157","station_name":"Changjiang Road","station_name_local":"长江路","network":"Unknown","network_local":null,"operator":null,"city":"Guiyang","country":"China","lines":["1"],"wikidata":"Q60675518"},"geometry":{"type":"Point","coordinates":[106.7072148,26.521349]}},{"type":"Feature","properties":{"station_id":"n11434697392","station_name":"Guiyang Railway Station","station_name_local":"贵阳火车站","network":"Unknown","network_local":null,"operator":null,"city":"Guiyang","country":"China","lines":["1"],"wikidata":"Q60682730"},"geometry":{"type":"Point","coordinates":[106.6997822,26.561032]}},{"type":"Feature","properties":{"station_id":"n11434697399","station_name":"Hebin Park","station_name_local":"河滨公园","network":"Unknown","network_local":null,"operator":null,"city":"Guiyang","country":"China","lines":["1"],"wikidata":"Q60682752"},"geometry":{"type":"Point","coordinates":[106.7041043,26.5731596]}},{"type":"Feature","properties":{"station_id":"n11434697411","station_name":"Nanya Road","station_name_local":"南垭路","network":"Unknown","network_local":null,"operator":null,"city":"Guiyang","country":"China","lines":["1"],"wikidata":"Q60682825"},"geometry":{"type":"Point","coordinates":[106.7006799,26.6189961]}},{"type":"Feature","properties":{"station_id":"n11434697422","station_name":"Guiyangbei Railway Station","station_name_local":"贵阳北站","network":"Unknown","network_local":null,"operator":null,"city":"Guiyang","country":"China","lines":["1"],"wikidata":"Q60682868"},"geometry":{"type":"Point","coordinates":[106.6723915,26.622752]}},{"type":"Feature","properties":{"station_id":"n11434697426","station_name":"Bailuhu","station_name_local":"白鹭湖","network":"Unknown","network_local":null,"operator":null,"city":"Guiyang","country":"China","lines":["1"],"wikidata":"Q60683292"},"geometry":{"type":"Point","coordinates":[106.6582322,26.6232488]}},{"type":"Feature","properties":{"station_id":"n11434697441","station_name":"Xinzhai","station_name_local":"新寨","network":"Unknown","network_local":null,"operator":null,"city":"Guiyang","country":"China","lines":["1"],"wikidata":"Q60683298"},"geometry":{"type":"Point","coordinates":[106.6504764,26.63133]}},{"type":"Feature","properties":{"station_id":"n11434697446","station_name":"Yangguan","station_name_local":"阳关","network":"Unknown","network_local":null,"operator":null,"city":"Guiyang","country":"China","lines":["1"],"wikidata":"Q60683304"},"geometry":{"type":"Point","coordinates":[106.652006,26.642755]}},{"type":"Feature","properties":{"station_id":"n11434697462","station_name":"Guanshanhu Park","station_name_local":"观山湖公园","network":"Unknown","network_local":null,"operator":null,"city":"Guiyang","country":"China","lines":["1"],"wikidata":"Q60683323"},"geometry":{"type":"Point","coordinates":[106.6279407,26.6487341]}},{"type":"Feature","properties":{"station_id":"n11434697469","station_name":"Yueshanhu Park","station_name_local":"阅山湖公园","network":"Unknown","network_local":null,"operator":null,"city":"Guiyang","country":"China","lines":["1"],"wikidata":"Q60683215"},"geometry":{"type":"Point","coordinates":[106.60462,26.6497443]}},{"type":"Feature","properties":{"station_id":"n11434697480","station_name":"Xiamaixi","station_name_local":"下麦西","network":"Unknown","network_local":null,"operator":null,"city":"Guiyang","country":"China","lines":["1"],"wikidata":"Q60683227"},"geometry":{"type":"Point","coordinates":[106.5764945,26.6587779]}},{"type":"Feature","properties":{"station_id":"n11434697482","station_name":"Douguan","station_name_local":"窦官","network":"Unknown","network_local":null,"operator":null,"city":"Guiyang","country":"China","lines":["1"],"wikidata":"Q86728686"},"geometry":{"type":"Point","coordinates":[106.5655249,26.6570843]}},{"type":"Feature","properties":{"station_id":"n11434799799","station_name":"Guizhou University","station_name_local":"贵州大学","network":"Unknown","network_local":null,"operator":null,"city":"Guiyang","country":"China","lines":["3"],"wikidata":null},"geometry":{"type":"Point","coordinates":[106.6722588,26.4530345]}},{"type":"Feature","properties":{"station_id":"n11434799801","station_name":"Confucius Academy","station_name_local":"孔学堂","network":"Unknown","network_local":null,"operator":null,"city":"Guiyang","country":"China","lines":["3"],"wikidata":"Q123903625"},"geometry":{"type":"Point","coordinates":[106.671379,26.4636794]}},{"type":"Feature","properties":{"station_id":"n11434799802","station_name":"Shilihetan","station_name_local":"十里河滩","network":"Unknown","network_local":null,"operator":null,"city":"Guiyang","country":"China","lines":["3"],"wikidata":"Q123939404"},"geometry":{"type":"Point","coordinates":[106.6691769,26.4812845]}},{"type":"Feature","properties":{"station_id":"n11434807652","station_name":"Tongmuling (Party School of the CPC Guizhou Provincial Committee)","station_name_local":"桐木岭（省委党校）","network":"Unknown","network_local":null,"operator":null,"city":"Guiyang","country":"China","lines":["3"],"wikidata":null},"geometry":{"type":"Point","coordinates":[106.6767636,26.3830482]}},{"type":"Feature","properties":{"station_id":"n11434807655","station_name":"Langfengguan","station_name_local":"浪风关","network":"Unknown","network_local":null,"operator":null,"city":"Guiyang","country":"China","lines":["3"],"wikidata":null},"geometry":{"type":"Point","coordinates":[106.6733371,26.3957435]}},{"type":"Feature","properties":{"station_id":"n11434807658","station_name":"Huaxinan Railway Station","station_name_local":"花溪南站","network":"Unknown","network_local":null,"operator":null,"city":"Guiyang","country":"China","lines":["3"],"wikidata":null},"geometry":{"type":"Point","coordinates":[106.6724546,26.4056717]}},{"type":"Feature","properties":{"station_id":"n11434807659","station_name":"Mingzhu Avenue","station_name_local":"明珠大道","network":"Unknown","network_local":null,"operator":null,"city":"Guiyang","country":"China","lines":["3"],"wikidata":null},"geometry":{"type":"Point","coordinates":[106.6739203,26.4121738]}},{"type":"Feature","properties":{"station_id":"n11434807662","station_name":"Xueshi Road","station_name_local":"学士路","network":"Unknown","network_local":null,"operator":null,"city":"Guiyang","country":"China","lines":["3"],"wikidata":null},"geometry":{"type":"Point","coordinates":[106.6738104,26.4250893]}},{"type":"Feature","properties":{"station_id":"n11434807665","station_name":"Huaxi Park","station_name_local":"花溪公园","network":"Unknown","network_local":null,"operator":null,"city":"Guiyang","country":"China","lines":["3"],"wikidata":null},"geometry":{"type":"Point","coordinates":[106.6731412,26.4421678]}},{"type":"Feature","properties":{"station_id":"n11434854458","station_name":"Zhongcaosi","station_name_local":"中曹司","network":"Unknown","network_local":null,"operator":null,"city":"Guiyang","country":"China","lines":["3"],"wikidata":null},"geometry":{"type":"Point","coordinates":[106.6730983,26.5063053]}},{"type":"Feature","properties":{"station_id":"n11434854459","station_name":"Ganyintang","station_name_local":"甘荫塘","network":"Unknown","network_local":null,"operator":null,"city":"Guiyang","country":"China","lines":["3"],"wikidata":null},"geometry":{"type":"Point","coordinates":[106.6737447,26.5231899]}},{"type":"Feature","properties":{"station_id":"n11434854460","station_name":"Sifanghe (Guizhou Branch Hospital of Guangdong Provincial Hospital of Traditional Chinese Medicine)","station_name_local":"四方河（省中医院）","network":"Unknown","network_local":null,"operator":null,"city":"Guiyang","country":"China","lines":["3"],"wikidata":null},"geometry":{"type":"Point","coordinates":[106.6786371,26.5340958]}},{"type":"Feature","properties":{"station_id":"n11434854462","station_name":"Zaojiaojing","station_name_local":"皂角井","network":"Unknown","network_local":null,"operator":null,"city":"Guiyang","country":"China","lines":["3"],"wikidata":null},"geometry":{"type":"Point","coordinates":[106.6827516,26.5461692]}},{"type":"Feature","properties":{"station_id":"n11434854463","station_name":"Taiciqiao","station_name_local":"太慈桥","network":"Unknown","network_local":null,"operator":null,"city":"Guiyang","country":"China","lines":["3"],"wikidata":null},"geometry":{"type":"Point","coordinates":[106.6787685,26.5565961]}},{"type":"Feature","properties":{"station_id":"n11434854464","station_name":"Wulichong","station_name_local":"五里冲","network":"Unknown","network_local":null,"operator":null,"city":"Guiyang","country":"China","lines":["3"],"wikidata":null},"geometry":{"type":"Point","coordinates":[106.6708479,26.5623013]}},{"type":"Feature","properties":{"station_id":"n11434854465","station_name":"Huaguoyuan","station_name_local":"花果园","network":"Unknown","network_local":null,"operator":null,"city":"Guiyang","country":"China","lines":["3"],"wikidata":null},"geometry":{"type":"Point","coordinates":[106.6813971,26.5693484]}},{"type":"Feature","properties":{"station_id":"n11434854466","station_name":"Songhua Road","station_name_local":"松花路","network":"Unknown","network_local":null,"operator":null,"city":"Guiyang","country":"China","lines":["3"],"wikidata":null},"geometry":{"type":"Point","coordinates":[106.6859461,26.5732167]}},{"type":"Feature","properties":{"station_id":"n11434930605","station_name":"Qianlingshan Park","station_name_local":"黔灵山公园","network":"Unknown","network_local":null,"operator":null,"city":"Guiyang","country":"China","lines":["3"],"wikidata":null},"geometry":{"type":"Point","coordinates":[106.6934362,26.5905931]}},{"type":"Feature","properties":{"station_id":"n11434930608","station_name":"Dayingpo","station_name_local":"大营坡","network":"Unknown","network_local":null,"operator":null,"city":"Guiyang","country":"China","lines":["3"],"wikidata":null},"geometry":{"type":"Point","coordinates":[106.7221251,26.6084066]}},{"type":"Feature","properties":{"station_id":"n11434930610","station_name":"Chadian","station_name_local":"茶店","network":"Unknown","network_local":null,"operator":null,"city":"Guiyang","country":"China","lines":["3"],"wikidata":null},"geometry":{"type":"Point","coordinates":[106.7296138,26.6189812]}},{"type":"Feature","properties":{"station_id":"n11434930613","station_name":"Shunhai","station_name_local":"顺海","network":"Unknown","network_local":null,"operator":null,"city":"Guiyang","country":"China","lines":["3"],"wikidata":null},"geometry":{"type":"Point","coordinates":[106.7435224,26.6264583]}},{"type":"Feature","properties":{"station_id":"n11434930614","station_name":"Xintian","station_name_local":"新添","network":"Unknown","network_local":null,"operator":null,"city":"Guiyang","country":"China","lines":["3"],"wikidata":null},"geometry":{"type":"Point","coordinates":[106.7654101,26.6353571]}},{"type":"Feature","properties":{"station_id":"n12463069950","station_name":"Shibanshao","station_name_local":"石板哨","network":"Unknown","network_local":null,"operator":null,"city":"Guiyang","country":"China","lines":["S1"],"wikidata":null},"geometry":{"type":"Point","coordinates":[106.6246963,26.482263]}},{"type":"Feature","properties":{"station_id":"n12463069953","station_name":"Jinzhu","station_name_local":"金竹","network":"Unknown","network_local":null,"operator":null,"city":"Guiyang","country":"China","lines":["S1"],"wikidata":null},"geometry":{"type":"Point","coordinates":[106.6524759,26.4907434]}},{"type":"Feature","properties":{"station_id":"n12466322279","station_name":"Zaojiaoba","station_name_local":"皂角坝","network":"Unknown","network_local":null,"operator":null,"city":"Guiyang","country":"China","lines":["S1"],"wikidata":null},"geometry":{"type":"Point","coordinates":[106.4645169,26.4747717]}},{"type":"Feature","properties":{"station_id":"n12466322280","station_name":"Gui'an","station_name_local":"贵安站","network":"Unknown","network_local":null,"operator":null,"city":"Guiyang","country":"China","lines":["S1"],"wikidata":null},"geometry":{"type":"Point","coordinates":[106.4819898,26.4689747]}},{"type":"Feature","properties":{"station_id":"n12466322281","station_name":"Dakecheng","station_name_local":"大科城","network":"Unknown","network_local":null,"operator":null,"city":"Guiyang","country":"China","lines":["S1"],"wikidata":null},"geometry":{"type":"Point","coordinates":[106.4948746,26.4638253]}},{"type":"Feature","properties":{"station_id":"n12466322282","station_name":"Shugu Avenue","station_name_local":"数谷大道","network":"Unknown","network_local":null,"operator":null,"city":"Guiyang","country":"China","lines":["S1"],"wikidata":null},"geometry":{"type":"Point","coordinates":[106.5033647,26.4604487]}},{"type":"Feature","properties":{"station_id":"n12466322283","station_name":"Xingyuehu","station_name_local":"星月湖","network":"Unknown","network_local":null,"operator":null,"city":"Guiyang","country":"China","lines":["S1"],"wikidata":null},"geometry":{"type":"Point","coordinates":[106.524305,26.4582602]}},{"type":"Feature","properties":{"station_id":"n12466322284","station_name":"Dalongjing","station_name_local":"大龙井","network":"Unknown","network_local":null,"operator":null,"city":"Guiyang","country":"China","lines":["S1"],"wikidata":null},"geometry":{"type":"Point","coordinates":[106.5422902,26.4592897]}},{"type":"Feature","properties":{"station_id":"n12466322285","station_name":"Tianhetan","station_name_local":"天河潭","network":"Unknown","network_local":null,"operator":null,"city":"Guiyang","country":"China","lines":["S1"],"wikidata":null},"geometry":{"type":"Point","coordinates":[106.5780619,26.4527954]}},{"type":"Feature","properties":{"station_id":"n12466322286","station_name":"Xiaohe","station_name_local":"小河","network":"Unknown","network_local":null,"operator":null,"city":"Guiyang","country":"China","lines":["S1"],"wikidata":null},"geometry":{"type":"Point","coordinates":[106.6982797,26.5251518]}},{"type":"Feature","properties":{"station_id":"n12466322287","station_name":"Jinjiang Road","station_name_local":"锦江路","network":"Unknown","network_local":null,"operator":null,"city":"Guiyang","country":"China","lines":["S1"],"wikidata":null},"geometry":{"type":"Point","coordinates":[106.694777,26.5149102]}}]}