{"type":"FeatureCollection","metro_system":{"continent":"asia","country":"China","city":"Luoyang","osm_networks":["Luoyang Subway","Unknown","洛阳市轨道交通集团有限责任公司","洛阳轨道交通"],"operator":"洛阳市轨道交通","official_website":null,"official_map":"https://zh.wikipedia.org/wiki/洛阳轨道交通1号线","wikidata":"Q15936968","line_count":2,"station_count":33},"features":[{"type":"Feature","properties":{"route_id":"rm12942003","route_name":"Luoyang Subway Line 1","route_name_local":"洛阳轨道交通1️⃣号线","route_ref":"1","route_color":"#c4608c","network":"Luoyang Subway","network_local":"洛阳轨道交通","operator":"洛阳市轨道交通","city":"Luoyang","country":"China","wikidata":"Q15936968","wikipedia":"zh:洛阳轨道交通1号线","osm_route_ids":[12542585,12942002]},"geometry":{"type":"MultiLineString","coordinates":[[[112.3178844,34.703028],[112.3285225,34.6825136],[112.348498,34.67817],[112.3612085,34.6704093],[112.3699323,34.6634651],[112.379063,34.660854],[112.3919166,34.65733],[112.4048588,34.6606401],[112.4205101,34.6672604],[112.4301988,34.6708338],[112.4376923,34.6736769],[112.451811,34.6789922],[112.4623549,34.6830681],[112.4758347,34.6852404],[112.4872333,34.6866548],[112.4987221,34.6889466],[112.5116085,34.6910476],[112.5265329,34.6934827],[112.5469906,34.6971974]],[[112.5469422,34.6973305],[112.5265152,34.6935869],[112.5115745,34.6911829],[112.4986935,34.6890956],[112.4872233,34.6867114],[112.4758206,34.6853273],[112.4622962,34.6831853],[112.4517492,34.6791005],[112.4376113,34.6737863],[112.4301205,34.6709962],[112.4204385,34.6673938],[112.404806,34.6607286],[112.3919697,34.6574483],[112.3791201,34.6609701],[112.3699787,34.663579],[112.3613031,34.6703952],[112.3485574,34.6782691],[112.3285528,34.6826285],[112.3179429,34.7030227]]]}},{"type":"Feature","properties":{"route_id":"rm13592842","route_name":"Luoyang Subway Line 2","route_name_local":"洛阳轨道交通2号线","route_ref":"2","route_color":"#6fba2c","network":"Luoyang Subway","network_local":"洛阳轨道交通","operator":"洛阳轨道交通有限公司","city":"Luoyang","country":"China","wikidata":"Q48899497","wikipedia":"zh:洛阳轨道交通","osm_route_ids":[13592840,13592841]},"geometry":{"type":"MultiLineString","coordinates":[[[112.4064179,34.7080111],[112.4155515,34.7080735],[112.4224691,34.6964142],[112.4276476,34.6863282],[112.4277814,34.6786399],[112.4299505,34.6712103],[112.4346072,34.661897],[112.4393899,34.6437467],[112.4345034,34.6371095],[112.4314441,34.6232646],[112.4396241,34.6183608],[112.4466533,34.6121363],[112.4476385,34.6055569],[112.4506124,34.5952547],[112.4685337,34.6009666]]]}},{"type":"Feature","properties":{"station_id":"n8985401524","station_name":"Hongshan","station_name_local":"红山","network":"洛阳市轨道交通集团有限责任公司","network_local":null,"operator":"洛阳市轨道交通集团有限责任公司","city":"Luoyang","country":"China","lines":["1"],"wikidata":"Q106364814"},"geometry":{"type":"Point","coordinates":[112.3179442,34.7026931]}},{"type":"Feature","properties":{"station_id":"n8985401525","station_name":"Gushui","station_name_local":"谷水","network":"洛阳市轨道交通集团有限责任公司","network_local":null,"operator":"洛阳市轨道交通集团有限责任公司","city":"Luoyang","country":"China","lines":["1"],"wikidata":"Q106374780"},"geometry":{"type":"Point","coordinates":[112.3285427,34.6825753]}},{"type":"Feature","properties":{"station_id":"n8985401526","station_name":"Qinling Road","station_name_local":"秦岭路","network":"洛阳市轨道交通集团有限责任公司","network_local":null,"operator":"洛阳市轨道交通集团有限责任公司","city":"Luoyang","country":"China","lines":["1"],"wikidata":"Q106374781"},"geometry":{"type":"Point","coordinates":[112.3485528,34.678259]}},{"type":"Feature","properties":{"station_id":"n8985401527","station_name":"武汉路","station_name_local":"武汉路","network":"洛阳市轨道交通集团有限责任公司","network_local":null,"operator":"洛阳市轨道交通集团有限责任公司","city":"Luoyang","country":"China","lines":["1"],"wikidata":"Q106374782"},"geometry":{"type":"Point","coordinates":[112.3612635,34.6705015]}},{"type":"Feature","properties":{"station_id":"n8985401528","station_name":"长安路","station_name_local":"长安路","network":"洛阳市轨道交通集团有限责任公司","network_local":null,"operator":"洛阳市轨道交通集团有限责任公司","city":"Luoyang","country":"China","lines":["1"],"wikidata":"Q106374783"},"geometry":{"type":"Point","coordinates":[112.3699449,34.6635278]}},{"type":"Feature","properties":{"station_id":"n8985401529","station_name":"Shanghai Market","station_name_local":"上海市场","network":"洛阳市轨道交通集团有限责任公司","network_local":null,"operator":"洛阳市轨道交通集团有限责任公司","city":"Luoyang","country":"China","lines":["1"],"wikidata":"Q107978563"},"geometry":{"type":"Point","coordinates":[112.3790917,34.6609089]}},{"type":"Feature","properties":{"station_id":"n8985401530","station_name":"牡丹广场","station_name_local":"牡丹广场","network":"洛阳市轨道交通集团有限责任公司","network_local":null,"operator":"洛阳市轨道交通集团有限责任公司","city":"Luoyang","country":"China","lines":["1"],"wikidata":"Q107978565"},"geometry":{"type":"Point","coordinates":[112.3908808,34.6575696]}},{"type":"Feature","properties":{"station_id":"n8985401531","station_name":"Qilihe","station_name_local":"七里河","network":"洛阳轨道交通","network_local":"洛阳轨道交通","operator":"洛阳市轨道交通集团有限责任公司","city":"Luoyang","country":"China","lines":["1"],"wikidata":"Q107978567"},"geometry":{"type":"Point","coordinates":[112.4048241,34.6607092]}},{"type":"Feature","properties":{"station_id":"n8985401532","station_name":"Wangcheng Park","station_name_local":"王城公园","network":"洛阳市轨道交通集团有限责任公司","network_local":null,"operator":"洛阳市轨道交通集团有限责任公司","city":"Luoyang","country":"China","lines":["1"],"wikidata":"Q107978569"},"geometry":{"type":"Point","coordinates":[112.4204745,34.6673425]}},{"type":"Feature","properties":{"station_id":"n8985401533","station_name":"Jiefang Road","station_name_local":"解放路","network":"洛阳市轨道交通集团有限责任公司","network_local":null,"operator":"洛阳市轨道交通集团有限责任公司","city":"Luoyang","country":"China","lines":["1"],"wikidata":"Q107978571"},"geometry":{"type":"Point","coordinates":[112.4301347,34.6709556]}},{"type":"Feature","properties":{"station_id":"n8985401534","station_name":"周王城广场","station_name_local":"周王城广场","network":"洛阳市轨道交通集团有限责任公司","network_local":null,"operator":"洛阳市轨道交通集团有限责任公司","city":"Luoyang","country":"China","lines":["1"],"wikidata":"Q107978572"},"geometry":{"type":"Point","coordinates":[112.4376077,34.6737604]}},{"type":"Feature","properties":{"station_id":"n8985401535","station_name":"应天门","station_name_local":"应天门","network":"洛阳市轨道交通集团有限责任公司","network_local":null,"operator":"洛阳市轨道交通集团有限责任公司","city":"Luoyang","country":"China","lines":["1"],"wikidata":"Q107978575"},"geometry":{"type":"Point","coordinates":[112.4516731,34.6790262]}},{"type":"Feature","properties":{"station_id":"n8988090520","station_name":"丽景门","station_name_local":"丽景门","network":"洛阳市轨道交通集团有限责任公司","network_local":null,"operator":"洛阳市轨道交通集团有限责任公司","city":"Luoyang","country":"China","lines":["1"],"wikidata":"Q107986372"},"geometry":{"type":"Point","coordinates":[112.4623171,34.6831375]}},{"type":"Feature","properties":{"station_id":"n8988340168","station_name":"洛邑古城","station_name_local":"洛邑古城","network":"洛阳市轨道交通集团有限责任公司","network_local":null,"operator":"洛阳市轨道交通集团有限责任公司","city":"Luoyang","country":"China","lines":["1"],"wikidata":"Q107986377"},"geometry":{"type":"Point","coordinates":[112.4758021,34.6852648]}},{"type":"Feature","properties":{"station_id":"n8988340194","station_name":"夹马营","station_name_local":"夹马营","network":"洛阳市轨道交通集团有限责任公司","network_local":null,"operator":"洛阳市轨道交通集团有限责任公司","city":"Luoyang","country":"China","lines":["1"],"wikidata":"Q107996364"},"geometry":{"type":"Point","coordinates":[112.4872261,34.6866874]}},{"type":"Feature","properties":{"station_id":"n8988340199","station_name":"启明南路·河南省洛阳正骨医院","station_name_local":"启明南路·河南省洛阳正骨医院","network":"洛阳市轨道交通集团有限责任公司","network_local":null,"operator":"洛阳市轨道交通集团有限责任公司","city":"Luoyang","country":"China","lines":["1"],"wikidata":"Q107996366"},"geometry":{"type":"Point","coordinates":[112.49841,34.6889712]}},{"type":"Feature","properties":{"station_id":"n8988351338","station_name":"Tawan","station_name_local":"塔湾","network":"洛阳市轨道交通集团有限责任公司","network_local":null,"operator":"洛阳市轨道交通集团有限责任公司","city":"Luoyang","country":"China","lines":["1"],"wikidata":"Q107996367"},"geometry":{"type":"Point","coordinates":[112.5115772,34.6911051]}},{"type":"Feature","properties":{"station_id":"n8988351367","station_name":"Shijiawan","station_name_local":"史家湾","network":"洛阳市轨道交通集团有限责任公司","network_local":null,"operator":"洛阳市轨道交通集团有限责任公司","city":"Luoyang","country":"China","lines":["1"],"wikidata":"Q107996399"},"geometry":{"type":"Point","coordinates":[112.526525,34.6935354]}},{"type":"Feature","properties":{"station_id":"n8988351435","station_name":"Yangwan","station_name_local":"杨湾","network":"洛阳市轨道交通集团有限责任公司","network_local":null,"operator":"洛阳市轨道交通集团有限责任公司","city":"Luoyang","country":"China","lines":["1"],"wikidata":"Q107989155"},"geometry":{"type":"Point","coordinates":[112.546951,34.6972573]}},{"type":"Feature","properties":{"station_id":"n9365041229","station_name":"Erqiao Road","station_name_local":"二乔路","network":"Unknown","network_local":null,"operator":null,"city":"Luoyang","country":"China","lines":["2"],"wikidata":null},"geometry":{"type":"Point","coordinates":[112.4064072,34.7080666]}},{"type":"Feature","properties":{"station_id":"n9365041233","station_name":"Mangling","station_name_local":"邙岭","network":"Unknown","network_local":null,"operator":null,"city":"Luoyang","country":"China","lines":["2"],"wikidata":null},"geometry":{"type":"Point","coordinates":[112.4155616,34.7081332]}},{"type":"Feature","properties":{"station_id":"n9365041245","station_name":"Guohua Road","station_name_local":"国花路","network":"Unknown","network_local":null,"operator":null,"city":"Luoyang","country":"China","lines":["2"],"wikidata":null},"geometry":{"type":"Point","coordinates":[112.4225735,34.6964229]}},{"type":"Feature","properties":{"station_id":"n9365041258","station_name":"Luoyang Railway Station","station_name_local":"洛阳火车站","network":"Unknown","network_local":null,"operator":null,"city":"Luoyang","country":"China","lines":["2"],"wikidata":null},"geometry":{"type":"Point","coordinates":[112.427732,34.6863262]}},{"type":"Feature","properties":{"station_id":"n9365041260","station_name":"Shachang Road","station_name_local":"纱厂路","network":"Unknown","network_local":null,"operator":null,"city":"Luoyang","country":"China","lines":["2"],"wikidata":null},"geometry":{"type":"Point","coordinates":[112.4278247,34.6786314]}},{"type":"Feature","properties":{"station_id":"n9365058554","station_name":"Mudan Bridge","station_name_local":"牡丹桥","network":"Unknown","network_local":null,"operator":null,"city":"Luoyang","country":"China","lines":["2"],"wikidata":null},"geometry":{"type":"Point","coordinates":[112.434672,34.6619117]}},{"type":"Feature","properties":{"station_id":"n9365058565","station_name":"Wenbo Park","station_name_local":"文博园","network":"Unknown","network_local":null,"operator":null,"city":"Luoyang","country":"China","lines":["2"],"wikidata":null},"geometry":{"type":"Point","coordinates":[112.4394737,34.6437157]}},{"type":"Feature","properties":{"station_id":"n9365058570","station_name":"Sui-Tang Botanical Garden","station_name_local":"隋唐园","network":"Unknown","network_local":null,"operator":null,"city":"Luoyang","country":"China","lines":["2"],"wikidata":null},"geometry":{"type":"Point","coordinates":[112.4345803,34.6370792]}},{"type":"Feature","properties":{"station_id":"n9365058578","station_name":"Sports Center","station_name_local":"体育中心","network":"Unknown","network_local":null,"operator":null,"city":"Luoyang","country":"China","lines":["2"],"wikidata":null},"geometry":{"type":"Point","coordinates":[112.4314976,34.6232646]}},{"type":"Feature","properties":{"station_id":"n9365111795","station_name":"Citizens' Home","station_name_local":"市民之家","network":"Unknown","network_local":null,"operator":null,"city":"Luoyang","country":"China","lines":["2"],"wikidata":null},"geometry":{"type":"Point","coordinates":[112.4396208,34.6183933]}},{"type":"Feature","properties":{"station_id":"n9365111804","station_name":"Kaiyuan Lake","station_name_local":"开元湖","network":"Unknown","network_local":null,"operator":null,"city":"Luoyang","country":"China","lines":["2"],"wikidata":null},"geometry":{"type":"Point","coordinates":[112.446711,34.6121353]}},{"type":"Feature","properties":{"station_id":"n9365183726","station_name":"Longmen High-Speed Railway Station","station_name_local":"龙门高铁站","network":"Unknown","network_local":null,"operator":null,"city":"Luoyang","country":"China","lines":["2"],"wikidata":null},"geometry":{"type":"Point","coordinates":[112.4506034,34.5953362]}},{"type":"Feature","properties":{"station_id":"n9365183734","station_name":"Balitang","station_name_local":"八里堂","network":"Unknown","network_local":null,"operator":null,"city":"Luoyang","country":"China","lines":["2"],"wikidata":null},"geometry":{"type":"Point","coordinates":[112.4685208,34.6010525]}},{"type":"Feature","properties":{"station_id":"n9365514551","station_name":"Xingluo Lake","station_name_local":"兴洛湖","network":"Unknown","network_local":null,"operator":null,"city":"Luoyang","country":"China","lines":["2"],"wikidata":null},"geometry":{"type":"Point","coordinates":[112.4477067,34.6055718]}}]}