{"type":"FeatureCollection","metro_system":{"continent":"asia","country":"China","city":"Ningbo","osm_networks":["Ningbo Rail Transit","Unknown","宁波市轨道交通","宁波轨道交通"],"operator":"宁波市轨道交通集团有限公司","official_website":null,"official_map":"https://zh.wikipedia.org/wiki/宁波轨道交通1号线","wikidata":"Q10946020","line_count":8,"segment_count":8,"station_count":172,"audit":{"strategies_tried":[],"passed":true,"checks":[{"id":"system_exists","ok":true,"detail":"matched OSM system systems/asia/china/asia-china-ningbo.geojson","level":"error"},{"id":"has_lines","ok":true,"detail":"8 lines","level":"error"},{"id":"has_stations","ok":true,"detail":"172 stations","level":"error"},{"id":"station_ratio","ok":true,"detail":"OSM 172 vs Wikipedia 156（比值 1.10）","level":"error"},{"id":"stations_have_lines","ok":true,"detail":"172/172 站皆有所屬路線","level":"error"},{"id":"line_geometry_stations","ok":true,"detail":"200 個折點/端點皆為車站","level":"error"},{"id":"stations_named","ok":true,"detail":"172/172 站有名稱","level":"warn"},{"id":"station_order","ok":true,"detail":"所有線路站序合理","level":"warn"}],"reasons":[],"warnings":[],"audited_at":"2026-07-10T10:07:31.376Z"}},"features":[{"type":"Feature","properties":{"seg_id":"ningbo-0","routes":[{"route_id":"rm8324096","route_name":"Ningbo Rail Transit Line 1","route_name_local":"宁波轨道交通1号线","route_ref":"1","route_color":"#138fc9","network":"宁波市轨道交通","network_local":"宁波市轨道交通","operator":"宁波市轨道交通集团有限公司","wikidata":"Q10946020","wikipedia":"zh:宁波轨道交通1号线","osm_route_ids":[4622007,7883975],"order_suspect":0}],"route_count":1,"route_refs":["1"],"route_colors":["#138fc9"],"route_color":"#138fc9","city":"Ningbo","country":"China"},"geometry":{"type":"MultiLineString","coordinates":[[[121.4489838,29.9133185],[121.4596778,29.9038092],[121.4724181,29.8972426],[121.483051,29.8926639],[121.4926354,29.8900579],[121.5047501,29.8842407],[121.5153137,29.8814602],[121.5279883,29.8790577],[121.5355119,29.877432],[121.54498426666667,29.87551696666667],[121.5519431,29.8738829],[121.5611838,29.8719385],[121.5699205,29.8699138],[121.5776377,29.866982],[121.5891493,29.8635276],[121.5981782,29.8615707],[121.6105014,29.8626895],[121.6201436,29.8614893],[121.6321025,29.8591874],[121.6466599,29.855573],[121.6573805,29.8490439],[121.6859158,29.8409655],[121.7293488,29.8419035],[121.777993,29.8772448],[121.7904717,29.8959402],[121.8043389,29.9068493],[121.82563495,29.8961445],[121.8395646,29.8932778],[121.852779,29.8930916]]]}},{"type":"Feature","properties":{"seg_id":"ningbo-1","routes":[{"route_id":"rm7883944","route_name":"Ningbo Rail Transit Line 2","route_name_local":"宁波轨道交通2号线","route_ref":"2","route_color":"#d60b17","network":"宁波市轨道交通","network_local":"宁波市轨道交通","operator":"宁波市轨道交通集团有限公司","wikidata":"Q10946021","wikipedia":"zh:宁波轨道交通2号线","osm_route_ids":[5558604,7883943],"order_suspect":0}],"route_count":1,"route_refs":["2"],"route_colors":["#d60b17"],"route_color":"#d60b17","city":"Ningbo","country":"China"},"geometry":{"type":"MultiLineString","coordinates":[[[121.4566067,29.8201702],[121.479034,29.8118436],[121.4919488,29.8207706],[121.4995864,29.8277142],[121.5101624,29.8341421],[121.5085477,29.8439837],[121.5080792,29.8529629],[121.5135835,29.8606365],[121.5221921,29.861068],[121.5333399,29.8651087],[121.5446413,29.8697634],[121.54498426666667,29.87551696666667],[121.55473086666666,29.885225233333333],[121.5575737,29.89194],[121.5626492,29.9009679],[121.5712711,29.9060855],[121.5777516,29.9066747],[121.5882596,29.9070088],[121.6085494,29.9116491],[121.6159852,29.914392],[121.6308648,29.914150766666666],[121.6568737,29.924275],[121.6733461,29.9408943],[121.6896477,29.9524677],[121.7010444,29.9539167],[121.7122225,29.9524259],[121.7195088,29.9415386]]]}},{"type":"Feature","properties":{"seg_id":"ningbo-2","routes":[{"route_id":"rm10383244","route_name":"Ningbo Rail Transit Line 3","route_name_local":"宁波轨道交通3号线","route_ref":"3","route_color":"#eaae1a","network":"宁波市轨道交通","network_local":"宁波市轨道交通","operator":"宁波市轨道交通集团有限公司","wikidata":"Q10946022","wikipedia":"en:Line 3 (Ningbo Rail Transit)","osm_route_ids":[10383240,10383242],"order_suspect":0}],"route_count":1,"route_refs":["3"],"route_colors":["#eaae1a"],"route_color":"#eaae1a","city":"Ningbo","country":"China"},"geometry":{"type":"MultiLineString","coordinates":[[[121.4449523,29.6540693],[121.4451876,29.6745054],[121.4429777,29.7111719],[121.4442096,29.7245756],[121.4480151,29.7478944],[121.4841939,29.7675496],[121.5011001,29.7668475],[121.5150507,29.7664413],[121.5234998,29.7731569],[121.5248792,29.7920779],[121.5267346,29.7993442],[121.5376218,29.8035156],[121.54538,29.8105082],[121.5460396,29.8218247],[121.546762,29.8306379],[121.5519764,29.8363944],[121.5612254,29.8381952],[121.571302,29.847786],[121.5742225,29.8549646],[121.5776377,29.866982],[121.5814881,29.8750052],[121.5845856,29.8812453],[121.5841354,29.8921581],[121.5777516,29.9066747]]]}},{"type":"Feature","properties":{"seg_id":"ningbo-3","routes":[{"route_id":"rm12144421","route_name":"宁波轨道交通4号线","route_name_local":"宁波轨道交通4号线","route_ref":"4","route_color":"#80b82b","network":"宁波市轨道交通","network_local":"宁波市轨道交通","operator":"宁波市轨道交通集团有限公司","wikidata":"Q10946023","wikipedia":"en:Line 4 (Ningbo Rail Transit)","osm_route_ids":[12106703,12144418],"order_suspect":0}],"route_count":1,"route_refs":["4"],"route_colors":["#80b82b"],"route_color":"#80b82b","city":"Ningbo","country":"China"},"geometry":{"type":"MultiLineString","coordinates":[[[121.4330743,29.9872544],[121.4464447,29.9778652],[121.4555526,29.9637372],[121.4576738,29.9504932],[121.4661228,29.9435261],[121.4824306,29.9386475],[121.4967911,29.9303651],[121.5142671,29.9243416],[121.5290581,29.9244596],[121.5347819,29.9127846],[121.5286638,29.8987215],[121.5280389,29.8907427],[121.5279883,29.8790577],[121.5273469,29.8745542],[121.5333399,29.8651087],[121.5444701,29.8613364],[121.5515055,29.8573901],[121.5625696,29.8550744],[121.5742225,29.8549646],[121.5837296,29.85383],[121.5874015,29.8424422],[121.5795346,29.8285564],[121.5756968,29.8195163],[121.5885012,29.8071528],[121.6080331,29.7952232],[121.6240472,29.7847279],[121.6308221,29.7652058]]]}},{"type":"Feature","properties":{"seg_id":"ningbo-4","routes":[{"route_id":"rm13626146","route_name":"Ningbo Rail Transit Line 5","route_name_local":"宁波轨道交通5号线","route_ref":"5","route_color":"#091f8f","network":"宁波市轨道交通","network_local":"宁波市轨道交通","operator":"宁波市轨道交通集团有限公司","wikidata":"Q10946024","wikipedia":null,"osm_route_ids":[13615483,13626145],"order_suspect":0}],"route_count":1,"route_refs":["5"],"route_colors":["#091f8f"],"route_color":"#091f8f","city":"Ningbo","country":"China"},"geometry":{"type":"MultiLineString","coordinates":[[[121.4684466,29.8491947],[121.4751663,29.8406987],[121.4863926,29.8303227],[121.4995864,29.8277142],[121.5058145,29.8216246],[121.5246762,29.8217529],[121.5351418,29.8217903],[121.5460396,29.8218247],[121.5632551,29.8225148],[121.5756968,29.8195163],[121.5886921,29.8143524],[121.5977889,29.8197664],[121.6008324,29.8278615],[121.6046894,29.8422489],[121.6080193,29.8547413],[121.6105014,29.8626895],[121.613298,29.8707666],[121.615597,29.8771288],[121.6182639,29.8911463],[121.6179243,29.8991218],[121.6159852,29.914392],[121.6105652,29.9236076],[121.6017274,29.9267542],[121.5907774,29.9265095],[121.579859,29.9519222],[121.5801976,29.9696617],[121.5813602,29.9870093]]]}},{"type":"Feature","properties":{"seg_id":"ningbo-5","routes":[{"route_id":"rm19321000","route_name":"Ningbo Rail Transit Line 8","route_name_local":"宁波轨道交通8号线","route_ref":"8","route_color":"#e61477","network":"宁波市轨道交通","network_local":"宁波市轨道交通","operator":"宁波市轨道交通集团有限公司","wikidata":"Q84078735","wikipedia":"zh:宁波轨道交通8号线","osm_route_ids":[19314267,19314268],"order_suspect":0}],"route_count":1,"route_refs":["8"],"route_colors":["#e61477"],"route_color":"#e61477","city":"Ningbo","country":"China"},"geometry":{"type":"MultiLineString","coordinates":[[[121.4948272,29.9484534],[121.5027501,29.9416387],[121.5128203,29.9333061],[121.5142671,29.9243416],[121.5156077,29.916498],[121.5147527,29.9032991],[121.5149656,29.890676],[121.5153137,29.8814602],[121.5115351,29.8721869],[121.5135835,29.8606365],[121.5196953,29.8516253],[121.5192728,29.8436596],[121.5245974,29.8311797],[121.5246762,29.8217529],[121.5366286,29.8101051],[121.54538,29.8105082],[121.5554571,29.8072742],[121.5723654,29.7961694]]]}},{"type":"Feature","properties":{"seg_id":"ningbo-6","routes":[{"route_id":"rm19533621","route_name":"Ningbo Rail Transit Line 7","route_name_local":"宁波轨道交通7号线","route_ref":"7","route_color":"#855622","network":"宁波市轨道交通","network_local":"宁波市轨道交通","operator":"宁波市轨道交通集团有限公司","wikidata":"Q17023836","wikipedia":"zh:宁波轨道交通7号线","osm_route_ids":[19533619,19533620],"order_suspect":0}],"route_count":1,"route_refs":["7"],"route_colors":["#855622"],"route_color":"#855622","city":"Ningbo","country":"China"},"geometry":{"type":"MultiLineString","coordinates":[[[121.654485,29.9663415],[121.6189561,29.9640816],[121.6084078,29.9671471],[121.5942057,29.9692388],[121.5801976,29.9696617],[121.5615166,29.9701616],[121.5459902,29.9570863],[121.5405409,29.9327643],[121.5394798,29.9187084],[121.5469914,29.9017207],[121.5462994,29.8921269],[121.55473086666666,29.885225233333333],[121.5681438,29.8795297],[121.5814881,29.8750052],[121.5929751,29.8746591],[121.6014157,29.8739205],[121.613298,29.8707666],[121.6226006,29.8682603],[121.6321025,29.8591874],[121.6298228,29.8490171],[121.6262894,29.8335329],[121.6234292,29.8209068],[121.6223732,29.8021145],[121.6080331,29.7952232],[121.5975493,29.7838312]]]}},{"type":"Feature","properties":{"seg_id":"ningbo-7","routes":[{"route_id":"r20085684","route_name":"Ningbo Rail Transit Line 6","route_name_local":"6号线：红联 -> 古林","route_ref":"6","route_color":"#197c39","network":"宁波市轨道交通","network_local":"宁波市轨道交通","operator":"宁波市轨道交通集团有限公司","wikidata":"Q10946025","wikipedia":"zh:宁波轨道交通6号线","osm_route_ids":[20085684,20085685],"order_suspect":0}],"route_count":1,"route_refs":["6"],"route_colors":["#197c39"],"route_color":"#197c39","city":"Ningbo","country":"China"},"geometry":{"type":"MultiLineString","coordinates":[[[121.7195088,29.9415386],[121.7056371,29.9326445],[121.6962118,29.9264817],[121.6751571,29.9123013],[121.6509683,29.8964424],[121.6300169,29.8910982],[121.6182639,29.8911463],[121.59915,29.8892297],[121.5940826,29.8847746],[121.5845856,29.8812453],[121.5733847,29.8851636],[121.5575737,29.89194],[121.5462994,29.8921269],[121.535296,29.8897739],[121.5280389,29.8907427],[121.5149656,29.890676],[121.5047501,29.8842407],[121.4861754,29.881488],[121.4683279,29.8777948],[121.4442055,29.8759447],[121.4339273,29.8633906],[121.4335357,29.8512211],[121.4320993,29.8366593]]]}},{"type":"Feature","properties":{"station_id":"n2969814138","station_name":"Shengmo Rd","station_name_local":"盛莫路","network":"宁波市轨道交通","network_local":"宁波市轨道交通","operator":null,"city":"Ningbo","country":"China","lines":["1"],"wikidata":"Q15942560"},"geometry":{"type":"Point","coordinates":[121.6321025,29.8591874]}},{"type":"Feature","properties":{"station_id":"n3368810729","station_name":"Waitan Bridge","station_name_local":"外滩大桥","network":"宁波市轨道交通","network_local":"宁波市轨道交通","operator":null,"city":"Ningbo","country":"China","lines":["2"],"wikidata":"Q10932359","merged_from":3},"geometry":{"type":"Point","coordinates":[121.55473086666666,29.885225233333333]}},{"type":"Feature","properties":{"station_id":"n3368810736","station_name":"Ningbo University","station_name_local":"宁波大学","network":"宁波市轨道交通","network_local":"宁波市轨道交通","operator":null,"city":"Ningbo","country":"China","lines":["2"],"wikidata":"Q10945974","merged_from":3},"geometry":{"type":"Point","coordinates":[121.6308648,29.914150766666666]}},{"type":"Feature","properties":{"station_id":"n3740891779","station_name":"Guanshanhe","station_name_local":"官山河","network":"Unknown","network_local":null,"operator":null,"city":"Ningbo","country":"China","lines":["4"],"wikidata":"Q28415711"},"geometry":{"type":"Point","coordinates":[121.4555526,29.9637372]}},{"type":"Feature","properties":{"station_id":"n5307177504","station_name":"Xujiacao Changle","station_name_local":"徐家漕长乐","network":"宁波市轨道交通","network_local":"宁波市轨道交通","operator":null,"city":"Ningbo","country":"China","lines":["1"],"wikidata":"Q11070520"},"geometry":{"type":"Point","coordinates":[121.4926354,29.8900579]}},{"type":"Feature","properties":{"station_id":"n5307177950","station_name":"Lugang","station_name_local":"芦港","network":"宁波市轨道交通","network_local":"宁波市轨道交通","operator":null,"city":"Ningbo","country":"China","lines":["1"],"wikidata":"Q15937992"},"geometry":{"type":"Point","coordinates":[121.483051,29.8926639]}},{"type":"Feature","properties":{"station_id":"n5307177957","station_name":"Liangzhu","station_name_local":"梁祝","network":"宁波市轨道交通","network_local":"宁波市轨道交通","operator":null,"city":"Ningbo","country":"China","lines":["1"],"wikidata":"Q11114293"},"geometry":{"type":"Point","coordinates":[121.4724181,29.8972426]}},{"type":"Feature","properties":{"station_id":"n5307177976","station_name":"Gaoqiao","station_name_local":"高桥","network":"宁波市轨道交通","network_local":"宁波市轨道交通","operator":null,"city":"Ningbo","country":"China","lines":["1"],"wikidata":"Q8517082"},"geometry":{"type":"Point","coordinates":[121.4596778,29.9038092]}},{"type":"Feature","properties":{"station_id":"n5307177977","station_name":"Gaoqiao West","station_name_local":"高桥西","network":"宁波市轨道交通","network_local":"宁波市轨道交通","operator":null,"city":"Ningbo","country":"China","lines":["1"],"wikidata":"Q15020989"},"geometry":{"type":"Point","coordinates":[121.4489838,29.9133185]}},{"type":"Feature","properties":{"station_id":"n5325681121","station_name":"Dongmenkou (Tianyi Square)","station_name_local":"东门口(天一广场)","network":"宁波市轨道交通","network_local":"宁波市轨道交通","operator":null,"city":"Ningbo","country":"China","lines":["1"],"wikidata":"Q10871049"},"geometry":{"type":"Point","coordinates":[121.5519431,29.8738829]}},{"type":"Feature","properties":{"station_id":"n5325681122","station_name":"Wangchun Bridge","station_name_local":"望春桥","network":"宁波市轨道交通","network_local":"宁波市轨道交通","operator":null,"city":"Ningbo","country":"China","lines":["1"],"wikidata":"Q11092425"},"geometry":{"type":"Point","coordinates":[121.5047501,29.8842407]}},{"type":"Feature","properties":{"station_id":"n5325681123","station_name":"Zemin","station_name_local":"泽民","network":"宁波市轨道交通","network_local":"宁波市轨道交通","operator":null,"city":"Ningbo","country":"China","lines":["1"],"wikidata":"Q11145388"},"geometry":{"type":"Point","coordinates":[121.5153137,29.8814602]}},{"type":"Feature","properties":{"station_id":"n5325681125","station_name":"Daqing Bridge","station_name_local":"大卿桥","network":"宁波市轨道交通","network_local":"宁波市轨道交通","operator":null,"city":"Ningbo","country":"China","lines":["1"],"wikidata":"Q10933843"},"geometry":{"type":"Point","coordinates":[121.5279883,29.8790577]}},{"type":"Feature","properties":{"station_id":"n5325681127","station_name":"Ximenkou","station_name_local":"西门口","network":"宁波轨道交通","network_local":"宁波轨道交通","operator":null,"city":"Ningbo","country":"China","lines":["1"],"wikidata":"Q15938896"},"geometry":{"type":"Point","coordinates":[121.5355119,29.877432]}},{"type":"Feature","properties":{"station_id":"n5325681130","station_name":"Gulou","station_name_local":"鼓楼","network":"Unknown","network_local":null,"operator":null,"city":"Ningbo","country":"China","lines":["1","2"],"wikidata":null,"merged_from":3},"geometry":{"type":"Point","coordinates":[121.54498426666667,29.87551696666667]}},{"type":"Feature","properties":{"station_id":"n6615208097","station_name":"Sakura Park","station_name_local":"樱花公园","network":"宁波轨道交通","network_local":"宁波轨道交通","operator":null,"city":"Ningbo","country":"China","lines":["1"],"wikidata":"Q11121746"},"geometry":{"type":"Point","coordinates":[121.5776377,29.866982]}},{"type":"Feature","properties":{"station_id":"n7040297617","station_name":"Datong Bridge","station_name_local":"大通桥","network":"宁波市轨道交通","network_local":"宁波市轨道交通","operator":null,"city":"Ningbo","country":"China","lines":["3"],"wikidata":"Q10938188"},"geometry":{"type":"Point","coordinates":[121.5777516,29.9066747]}},{"type":"Feature","properties":{"station_id":"n7781000608","station_name":"Luotuo Bridge","station_name_local":"骆驼桥","network":"Unknown","network_local":null,"operator":null,"city":"Ningbo","country":"China","lines":["5"],"wikidata":"Q86727896"},"geometry":{"type":"Point","coordinates":[121.5813602,29.9870093]}},{"type":"Feature","properties":{"station_id":"n7781000619","station_name":"Yongmao Rd","station_name_local":"永茂路","network":"Unknown","network_local":null,"operator":null,"city":"Ningbo","country":"China","lines":["5"],"wikidata":"Q111187210"},"geometry":{"type":"Point","coordinates":[121.579859,29.9519222]}},{"type":"Feature","properties":{"station_id":"n7781000621","station_name":"Meiyan","station_name_local":"梅堰","network":"Unknown","network_local":null,"operator":null,"city":"Ningbo","country":"China","lines":["5"],"wikidata":"Q111187188"},"geometry":{"type":"Point","coordinates":[121.5907774,29.9265095]}},{"type":"Feature","properties":{"station_id":"n7781000622","station_name":"Xinghai South Rd","station_name_local":"兴海南路","network":"Unknown","network_local":null,"operator":null,"city":"Ningbo","country":"China","lines":["5"],"wikidata":"Q111166238"},"geometry":{"type":"Point","coordinates":[121.6017274,29.9267542]}},{"type":"Feature","properties":{"station_id":"n8601597127","station_name":"Yasaiyan","station_name_local":"压赛堰","network":"宁波市轨道交通","network_local":"宁波市轨道交通","operator":null,"city":"Ningbo","country":"China","lines":["2"],"wikidata":"Q10910897"},"geometry":{"type":"Point","coordinates":[121.5712711,29.9060855]}},{"type":"Feature","properties":{"station_id":"n9378853098","station_name":"Dayangjiang","station_name_local":"大洋江","network":"Unknown","network_local":null,"operator":null,"city":"Ningbo","country":"China","lines":["5"],"wikidata":"Q47007004"},"geometry":{"type":"Point","coordinates":[121.5977889,29.8197664]}},{"type":"Feature","properties":{"station_id":"n9378853099","station_name":"Xiaying Rd","station_name_local":"下应路","network":"Unknown","network_local":null,"operator":null,"city":"Ningbo","country":"China","lines":["5"],"wikidata":"Q47007003"},"geometry":{"type":"Point","coordinates":[121.5886921,29.8143524]}},{"type":"Feature","properties":{"station_id":"n9378853100","station_name":"South Higher Education Park","station_name_local":"南高教园区","network":"Unknown","network_local":null,"operator":null,"city":"Ningbo","country":"China","lines":["4"],"wikidata":"Q28415808"},"geometry":{"type":"Point","coordinates":[121.5756968,29.8195163]}},{"type":"Feature","properties":{"station_id":"n9378853101","station_name":"Qianhu South Rd","station_name_local":"钱湖南路","network":"Unknown","network_local":null,"operator":null,"city":"Ningbo","country":"China","lines":["5"],"wikidata":"Q47000823"},"geometry":{"type":"Point","coordinates":[121.5632551,29.8225148]}},{"type":"Feature","properties":{"station_id":"n9378853102","station_name":"Yinzhou Government","station_name_local":"鄞州区政府","network":"Unknown","network_local":null,"operator":null,"city":"Ningbo","country":"China","lines":["3"],"wikidata":"Q19853843"},"geometry":{"type":"Point","coordinates":[121.5460396,29.8218247]}},{"type":"Feature","properties":{"station_id":"n9378853104","station_name":"Zhonggongmiao","station_name_local":"钟公庙","network":"Unknown","network_local":null,"operator":null,"city":"Ningbo","country":"China","lines":["5"],"wikidata":"Q46995593"},"geometry":{"type":"Point","coordinates":[121.5351418,29.8217903]}},{"type":"Feature","properties":{"station_id":"n9378853105","station_name":"Miaoyan","station_name_local":"庙堰","network":"Unknown","network_local":null,"operator":null,"city":"Ningbo","country":"China","lines":["8"],"wikidata":"Q46993388"},"geometry":{"type":"Point","coordinates":[121.5246762,29.8217529]}},{"type":"Feature","properties":{"station_id":"n9378853108","station_name":"Yadu","station_name_local":"雅渡","network":"Unknown","network_local":null,"operator":null,"city":"Ningbo","country":"China","lines":["5"],"wikidata":"Q46992191"},"geometry":{"type":"Point","coordinates":[121.5058145,29.8216246]}},{"type":"Feature","properties":{"station_id":"n9378853110","station_name":"Shiqi","station_name_local":"石碶","network":"宁波市轨道交通","network_local":"宁波市轨道交通","operator":null,"city":"Ningbo","country":"China","lines":["2"],"wikidata":"Q15932023"},"geometry":{"type":"Point","coordinates":[121.4995864,29.8277142]}},{"type":"Feature","properties":{"station_id":"n9378853111","station_name":"Tongde Rd","station_name_local":"同德路","network":"Unknown","network_local":null,"operator":null,"city":"Ningbo","country":"China","lines":["5"],"wikidata":"Q47002811"},"geometry":{"type":"Point","coordinates":[121.4863926,29.8303227]}},{"type":"Feature","properties":{"station_id":"n9378853113","station_name":"Zhangjiatan","station_name_local":"张家潭","network":"Unknown","network_local":null,"operator":null,"city":"Ningbo","country":"China","lines":["5"],"wikidata":"Q46996647"},"geometry":{"type":"Point","coordinates":[121.4751663,29.8406987]}},{"type":"Feature","properties":{"station_id":"n9378853115","station_name":"Buzheng","station_name_local":"布政","network":"Unknown","network_local":null,"operator":null,"city":"Ningbo","country":"China","lines":["5"],"wikidata":"Q46703081"},"geometry":{"type":"Point","coordinates":[121.4684466,29.8491947]}},{"type":"Feature","properties":{"station_id":"n9385417052","station_name":"Sigang","station_name_local":"泗港","network":"Unknown","network_local":null,"operator":null,"city":"Ningbo","country":"China","lines":["5"],"wikidata":null},"geometry":{"type":"Point","coordinates":[121.6008324,29.8278615]}},{"type":"Feature","properties":{"station_id":"n9385417056","station_name":"Caoga","station_name_local":"曹隘","network":"Unknown","network_local":null,"operator":null,"city":"Ningbo","country":"China","lines":["5"],"wikidata":null},"geometry":{"type":"Point","coordinates":[121.6046894,29.8422489]}},{"type":"Feature","properties":{"station_id":"n9385417061","station_name":"Liuga","station_name_local":"柳隘","network":"Unknown","network_local":null,"operator":null,"city":"Ningbo","country":"China","lines":["5"],"wikidata":null},"geometry":{"type":"Point","coordinates":[121.6080193,29.8547413]}},{"type":"Feature","properties":{"station_id":"n9385417065","station_name":"Haiyan North Rd","station_name_local":"海晏北路","network":"Unknown","network_local":null,"operator":null,"city":"Ningbo","country":"China","lines":["5"],"wikidata":null},"geometry":{"type":"Point","coordinates":[121.6105014,29.8626895]}},{"type":"Feature","properties":{"station_id":"n9385517433","station_name":"Min'an East Rd","station_name_local":"民安东路","network":"Unknown","network_local":null,"operator":null,"city":"Ningbo","country":"China","lines":["7"],"wikidata":null},"geometry":{"type":"Point","coordinates":[121.613298,29.8707666]}},{"type":"Feature","properties":{"station_id":"n9385517436","station_name":"International Convention and Exhibition Center","station_name_local":"会展中心","network":"Unknown","network_local":null,"operator":null,"city":"Ningbo","country":"China","lines":["5"],"wikidata":null},"geometry":{"type":"Point","coordinates":[121.615597,29.8771288]}},{"type":"Feature","properties":{"station_id":"n9385517449","station_name":"Yuanshi Rd","station_name_local":"院士路","network":"Unknown","network_local":null,"operator":null,"city":"Ningbo","country":"China","lines":["6"],"wikidata":null},"geometry":{"type":"Point","coordinates":[121.6182639,29.8911463]}},{"type":"Feature","properties":{"station_id":"n9385517452","station_name":"Angmenggang","station_name_local":"盎孟港","network":"Unknown","network_local":null,"operator":null,"city":"Ningbo","country":"China","lines":["5"],"wikidata":null},"geometry":{"type":"Point","coordinates":[121.6179243,29.8991218]}},{"type":"Feature","properties":{"station_id":"n9385517461","station_name":"Sanguantang","station_name_local":"三官堂","network":"Unknown","network_local":null,"operator":null,"city":"Ningbo","country":"China","lines":["2"],"wikidata":null},"geometry":{"type":"Point","coordinates":[121.6159852,29.914392]}},{"type":"Feature","properties":{"station_id":"n9385517466","station_name":"Xingzhuang Rd","station_name_local":"兴庄路","network":"Unknown","network_local":null,"operator":null,"city":"Ningbo","country":"China","lines":["5"],"wikidata":null},"geometry":{"type":"Point","coordinates":[121.6105652,29.9236076]}},{"type":"Feature","properties":{"station_id":"n9863349180","station_name":"Dongqian Lake","station_name_local":"东钱湖","network":"Unknown","network_local":null,"operator":null,"city":"Ningbo","country":"China","lines":["4"],"wikidata":"Q21245973"},"geometry":{"type":"Point","coordinates":[121.6240472,29.7847279]}},{"type":"Feature","properties":{"station_id":"n9863349182","station_name":"Xiaoyangjiang","station_name_local":"小洋江","network":"Unknown","network_local":null,"operator":null,"city":"Ningbo","country":"China","lines":["4"],"wikidata":"Q28415811"},"geometry":{"type":"Point","coordinates":[121.6080331,29.7952232]}},{"type":"Feature","properties":{"station_id":"n9863349187","station_name":"Jinda South Rd","station_name_local":"金达南路","network":"Unknown","network_local":null,"operator":null,"city":"Ningbo","country":"China","lines":["4"],"wikidata":"Q28415796"},"geometry":{"type":"Point","coordinates":[121.5885012,29.8071528]}},{"type":"Feature","properties":{"station_id":"n9863349206","station_name":"Songjiang East Rd","station_name_local":"嵩江东路","network":"Unknown","network_local":null,"operator":null,"city":"Ningbo","country":"China","lines":["4"],"wikidata":"Q28415793"},"geometry":{"type":"Point","coordinates":[121.5795346,29.8285564]}},{"type":"Feature","properties":{"station_id":"n9863349215","station_name":"Panhuo Rd","station_name_local":"潘火路","network":"Unknown","network_local":null,"operator":null,"city":"Ningbo","country":"China","lines":["4"],"wikidata":"Q28415790"},"geometry":{"type":"Point","coordinates":[121.5874015,29.8424422]}},{"type":"Feature","properties":{"station_id":"n9863349328","station_name":"Ailiu","station_name_local":"矮柳","network":"Unknown","network_local":null,"operator":null,"city":"Ningbo","country":"China","lines":["4"],"wikidata":"Q28415788"},"geometry":{"type":"Point","coordinates":[121.5837296,29.85383]}},{"type":"Feature","properties":{"station_id":"n9863349331","station_name":"Children's Park","station_name_local":"儿童公园","network":"Unknown","network_local":null,"operator":null,"city":"Ningbo","country":"China","lines":["4"],"wikidata":"Q19851861"},"geometry":{"type":"Point","coordinates":[121.5742225,29.8549646]}},{"type":"Feature","properties":{"station_id":"n9863350279","station_name":"Baihe","station_name_local":"白鹤","network":"Unknown","network_local":null,"operator":null,"city":"Ningbo","country":"China","lines":["4"],"wikidata":"Q22100224"},"geometry":{"type":"Point","coordinates":[121.5625696,29.8550744]}},{"type":"Feature","properties":{"station_id":"n9863350286","station_name":"Xingning Bridge East","station_name_local":"兴宁桥东","network":"Unknown","network_local":null,"operator":null,"city":"Ningbo","country":"China","lines":["4"],"wikidata":"Q22101554"},"geometry":{"type":"Point","coordinates":[121.5515055,29.8573901]}},{"type":"Feature","properties":{"station_id":"n9863350294","station_name":"Xingning Bridge West","station_name_local":"兴宁桥西","network":"Unknown","network_local":null,"operator":null,"city":"Ningbo","country":"China","lines":["4"],"wikidata":"Q22101556"},"geometry":{"type":"Point","coordinates":[121.5444701,29.8613364]}},{"type":"Feature","properties":{"station_id":"n9863350300","station_name":"Ningbo Railway Station","station_name_local":"宁波火车站","network":"Unknown","network_local":null,"operator":null,"city":"Ningbo","country":"China","lines":["2","4"],"wikidata":"Q21079308","merged_from":2},"geometry":{"type":"Point","coordinates":[121.5333399,29.8651087]}},{"type":"Feature","properties":{"station_id":"n9863350305","station_name":"Liuxi","station_name_local":"柳西","network":"Unknown","network_local":null,"operator":null,"city":"Ningbo","country":"China","lines":["4"],"wikidata":"Q11504529"},"geometry":{"type":"Point","coordinates":[121.5273469,29.8745542]}},{"type":"Feature","properties":{"station_id":"n9863371226","station_name":"Cuibaili","station_name_local":"翠柏里","network":"Unknown","network_local":null,"operator":null,"city":"Ningbo","country":"China","lines":["4"],"wikidata":"Q15924659"},"geometry":{"type":"Point","coordinates":[121.5280389,29.8907427]}},{"type":"Feature","properties":{"station_id":"n9863371227","station_name":"Shuangdong Rd","station_name_local":"双东路","network":"Unknown","network_local":null,"operator":null,"city":"Ningbo","country":"China","lines":["4"],"wikidata":"Q28415774"},"geometry":{"type":"Point","coordinates":[121.5286638,29.8987215]}},{"type":"Feature","properties":{"station_id":"n9863371236","station_name":"Lijiang Rd","station_name_local":"丽江路","network":"Unknown","network_local":null,"operator":null,"city":"Ningbo","country":"China","lines":["4"],"wikidata":"Q28415753"},"geometry":{"type":"Point","coordinates":[121.5347819,29.9127846]}},{"type":"Feature","properties":{"station_id":"n9863373266","station_name":"Zhuangqiao Railway Station","station_name_local":"庄桥火车站","network":"Unknown","network_local":null,"operator":null,"city":"Ningbo","country":"China","lines":["4"],"wikidata":"Q28415752"},"geometry":{"type":"Point","coordinates":[121.5290581,29.9244596]}},{"type":"Feature","properties":{"station_id":"n9863373278","station_name":"Hongda Rd","station_name_local":"洪大路","network":"Unknown","network_local":null,"operator":null,"city":"Ningbo","country":"China","lines":["4"],"wikidata":"Q28415749"},"geometry":{"type":"Point","coordinates":[121.5142671,29.9243416]}},{"type":"Feature","properties":{"station_id":"n9863373285","station_name":"Hongtang Middle Rd","station_name_local":"洪塘中路","network":"Unknown","network_local":null,"operator":null,"city":"Ningbo","country":"China","lines":["4"],"wikidata":"Q22101013"},"geometry":{"type":"Point","coordinates":[121.4967911,29.9303651]}},{"type":"Feature","properties":{"station_id":"n9863373288","station_name":"Olympic Sports Center","station_name_local":"奥体中心","network":"Unknown","network_local":null,"operator":null,"city":"Ningbo","country":"China","lines":["4"],"wikidata":"Q28415747"},"geometry":{"type":"Point","coordinates":[121.4824306,29.9386475]}},{"type":"Feature","properties":{"station_id":"n9863373295","station_name":"Jinshan Rd","station_name_local":"金山路","network":"Unknown","network_local":null,"operator":null,"city":"Ningbo","country":"China","lines":["4"],"wikidata":"Q28415745"},"geometry":{"type":"Point","coordinates":[121.4661228,29.9435261]}},{"type":"Feature","properties":{"station_id":"n9863373311","station_name":"Changxing Rd","station_name_local":"长兴路","network":"Unknown","network_local":null,"operator":null,"city":"Ningbo","country":"China","lines":["4"],"wikidata":"Q22099145"},"geometry":{"type":"Point","coordinates":[121.4576738,29.9504932]}},{"type":"Feature","properties":{"station_id":"n9863406034","station_name":"Cicheng","station_name_local":"慈城","network":"Unknown","network_local":null,"operator":null,"city":"Ningbo","country":"China","lines":["4"],"wikidata":"Q21245972"},"geometry":{"type":"Point","coordinates":[121.4464447,29.9778652]}},{"type":"Feature","properties":{"station_id":"n9921878276","station_name":"Minghui Rd","station_name_local":"明辉路","network":"Unknown","network_local":null,"operator":null,"city":"Ningbo","country":"China","lines":["3"],"wikidata":"Q47000814"},"geometry":{"type":"Point","coordinates":[121.5011001,29.7668475]}},{"type":"Feature","properties":{"station_id":"n9921878289","station_name":"Chaoyang","station_name_local":"朝阳","network":"Unknown","network_local":null,"operator":null,"city":"Ningbo","country":"China","lines":["3"],"wikidata":"Q47000808"},"geometry":{"type":"Point","coordinates":[121.4841939,29.7675496]}},{"type":"Feature","properties":{"station_id":"n9921878294","station_name":"Fangqiao","station_name_local":"方桥","network":"Unknown","network_local":null,"operator":null,"city":"Ningbo","country":"China","lines":["3"],"wikidata":"Q46703209"},"geometry":{"type":"Point","coordinates":[121.4480151,29.7478944]}},{"type":"Feature","properties":{"station_id":"n9921878299","station_name":"Jinlin","station_name_local":"琎琳","network":"Unknown","network_local":null,"operator":null,"city":"Ningbo","country":"China","lines":["3"],"wikidata":"Q47000793"},"geometry":{"type":"Point","coordinates":[121.4442096,29.7245756]}},{"type":"Feature","properties":{"station_id":"n9921878304","station_name":"Nandu","station_name_local":"南渡","network":"Unknown","network_local":null,"operator":null,"city":"Ningbo","country":"China","lines":["3"],"wikidata":"Q47000802"},"geometry":{"type":"Point","coordinates":[121.4429777,29.7111719]}},{"type":"Feature","properties":{"station_id":"n9921885313","station_name":"Zhongxing Bridge South","station_name_local":"中兴大桥南","network":"Unknown","network_local":null,"operator":null,"city":"Ningbo","country":"China","lines":["3"],"wikidata":"Q19851671"},"geometry":{"type":"Point","coordinates":[121.5841354,29.8921581]}},{"type":"Feature","properties":{"station_id":"n9921885314","station_name":"Minglou","station_name_local":"明楼","network":"Unknown","network_local":null,"operator":null,"city":"Ningbo","country":"China","lines":["3"],"wikidata":"Q19852721"},"geometry":{"type":"Point","coordinates":[121.5845856,29.8812453]}},{"type":"Feature","properties":{"station_id":"n9921885315","station_name":"Sports Center","station_name_local":"体育馆","network":"Unknown","network_local":null,"operator":null,"city":"Ningbo","country":"China","lines":["3"],"wikidata":"Q19851834"},"geometry":{"type":"Point","coordinates":[121.5814881,29.8750052]}},{"type":"Feature","properties":{"station_id":"n9921885316","station_name":"Qiubi","station_name_local":"仇毕","network":"Unknown","network_local":null,"operator":null,"city":"Ningbo","country":"China","lines":["3"],"wikidata":"Q19851820"},"geometry":{"type":"Point","coordinates":[121.571302,29.847786]}},{"type":"Feature","properties":{"station_id":"n9921887717","station_name":"Qianhu North Rd","station_name_local":"钱湖北路","network":"Unknown","network_local":null,"operator":null,"city":"Ningbo","country":"China","lines":["3"],"wikidata":"Q19852255"},"geometry":{"type":"Point","coordinates":[121.5612254,29.8381952]}},{"type":"Feature","properties":{"station_id":"n9921887718","station_name":"Jinyu Rd","station_name_local":"锦寓路","network":"Unknown","network_local":null,"operator":null,"city":"Ningbo","country":"China","lines":["3"],"wikidata":"Q19853912"},"geometry":{"type":"Point","coordinates":[121.5519764,29.8363944]}},{"type":"Feature","properties":{"station_id":"n9921887719","station_name":"Siming Middle Rd","station_name_local":"四明中路","network":"Unknown","network_local":null,"operator":null,"city":"Ningbo","country":"China","lines":["3"],"wikidata":"Q19852175"},"geometry":{"type":"Point","coordinates":[121.546762,29.8306379]}},{"type":"Feature","properties":{"station_id":"n9921887720","station_name":"Southern Business District","station_name_local":"南部商务区","network":"Unknown","network_local":null,"operator":null,"city":"Ningbo","country":"China","lines":["3"],"wikidata":"Q19852022"},"geometry":{"type":"Point","coordinates":[121.54538,29.8105082]}},{"type":"Feature","properties":{"station_id":"n9921887721","station_name":"Yinzhou Coach Terminal","station_name_local":"鄞州客运总站","network":"Unknown","network_local":null,"operator":null,"city":"Ningbo","country":"China","lines":["3"],"wikidata":"Q19853844"},"geometry":{"type":"Point","coordinates":[121.5376218,29.8035156]}},{"type":"Feature","properties":{"station_id":"n9921887722","station_name":"Gouzhang Rd","station_name_local":"句章路","network":"Unknown","network_local":null,"operator":null,"city":"Ningbo","country":"China","lines":["3"],"wikidata":"Q19852052"},"geometry":{"type":"Point","coordinates":[121.5267346,29.7993442]}},{"type":"Feature","properties":{"station_id":"n9921887723","station_name":"Gaotang Bridge","station_name_local":"高塘桥","network":"Unknown","network_local":null,"operator":null,"city":"Ningbo","country":"China","lines":["3"],"wikidata":"Q19854076"},"geometry":{"type":"Point","coordinates":[121.5248792,29.7920779]}},{"type":"Feature","properties":{"station_id":"n9921915223","station_name":"Jiangshan","station_name_local":"姜山","network":"Unknown","network_local":null,"operator":null,"city":"Ningbo","country":"China","lines":["3"],"wikidata":"Q46995595"},"geometry":{"type":"Point","coordinates":[121.5234998,29.7731569]}},{"type":"Feature","properties":{"station_id":"n9921915236","station_name":"Shishan","station_name_local":"狮山","network":"Unknown","network_local":null,"operator":null,"city":"Ningbo","country":"China","lines":["3"],"wikidata":"Q47000819"},"geometry":{"type":"Point","coordinates":[121.5150507,29.7664413]}},{"type":"Feature","properties":{"station_id":"n10897242610","station_name":"Dacheng East Rd","station_name_local":"大成东路","network":"Unknown","network_local":null,"operator":null,"city":"Ningbo","country":"China","lines":["3"],"wikidata":"Q47000821"},"geometry":{"type":"Point","coordinates":[121.4451876,29.6745054]}},{"type":"Feature","properties":{"station_id":"n10897242611","station_name":"Jinhai Rd","station_name_local":"金海路","network":"Unknown","network_local":null,"operator":null,"city":"Ningbo","country":"China","lines":["3"],"wikidata":"Q46703161"},"geometry":{"type":"Point","coordinates":[121.4449523,29.6540693]}},{"type":"Feature","properties":{"station_id":"n11647559321","station_name":"International Conference Center","station_name_local":"国际会议中心","network":"Unknown","network_local":null,"operator":null,"city":"Ningbo","country":"China","lines":["4"],"wikidata":"Q105940691"},"geometry":{"type":"Point","coordinates":[121.6308221,29.7652058]}},{"type":"Feature","properties":{"station_id":"n12488938152","station_name":"Cicheng West","station_name_local":"慈城西","network":"Unknown","network_local":null,"operator":null,"city":"Ningbo","country":"China","lines":["4"],"wikidata":"Q111601727"},"geometry":{"type":"Point","coordinates":[121.4330743,29.9872544]}},{"type":"Feature","properties":{"station_id":"n12520995759","station_name":"Zhenhai Ave (Cihai)","station_name_local":"镇海大道(慈海)","network":"Unknown","network_local":null,"operator":null,"city":"Ningbo","country":"China","lines":["5"],"wikidata":"Q111187210"},"geometry":{"type":"Point","coordinates":[121.5801976,29.9696617]}},{"type":"Feature","properties":{"station_id":"n12587372090","station_name":"Wulipai","station_name_local":"五里牌","network":"宁波市轨道交通","network_local":"宁波市轨道交通","operator":null,"city":"Ningbo","country":"China","lines":["2"],"wikidata":"Q22101256"},"geometry":{"type":"Point","coordinates":[121.6733461,29.9408943]}},{"type":"Feature","properties":{"station_id":"n12587372091","station_name":"Qingshuipu","station_name_local":"清水浦","network":"宁波市轨道交通","network_local":"宁波市轨道交通","operator":null,"city":"Ningbo","country":"China","lines":["2"],"wikidata":"Q15927601"},"geometry":{"type":"Point","coordinates":[121.6568737,29.924275]}},{"type":"Feature","properties":{"station_id":"n12595124598","station_name":"Honglian","station_name_local":"红联","network":"Unknown","network_local":null,"operator":null,"city":"Ningbo","country":"China","lines":["6"],"wikidata":"Q28031455"},"geometry":{"type":"Point","coordinates":[121.7195088,29.9415386]}},{"type":"Feature","properties":{"station_id":"n12595158958","station_name":"Yinzhou Ave","station_name_local":"鄞州大道","network":"宁波市轨道交通","network_local":"宁波市轨道交通","operator":null,"city":"Ningbo","country":"China","lines":["2"],"wikidata":"Q15929109"},"geometry":{"type":"Point","coordinates":[121.4919488,29.8207706]}},{"type":"Feature","properties":{"station_id":"n12595158959","station_name":"Lishe","station_name_local":"栎社","network":"宁波轨道交通","network_local":"宁波轨道交通","operator":null,"city":"Ningbo","country":"China","lines":["2"],"wikidata":"Q11110397"},"geometry":{"type":"Point","coordinates":[121.479034,29.8118436]}},{"type":"Feature","properties":{"station_id":"n12595158960","station_name":"Fengyuan","station_name_local":"枫园","network":"宁波市轨道交通","network_local":"宁波市轨道交通","operator":null,"city":"Ningbo","country":"China","lines":["2"],"wikidata":"Q28415810"},"geometry":{"type":"Point","coordinates":[121.6896477,29.9524677]}},{"type":"Feature","properties":{"station_id":"n12595158961","station_name":"Congyuan Rd","station_name_local":"聪园路","network":"宁波市轨道交通","network_local":"宁波市轨道交通","operator":null,"city":"Ningbo","country":"China","lines":["2"],"wikidata":"Q22101491"},"geometry":{"type":"Point","coordinates":[121.7010444,29.9539167]}},{"type":"Feature","properties":{"station_id":"n12595158962","station_name":"Zhaobaoshan","station_name_local":"招宝山","network":"Unknown","network_local":null,"operator":null,"city":"Ningbo","country":"China","lines":["2"],"wikidata":"Q22101499"},"geometry":{"type":"Point","coordinates":[121.7122225,29.9524259]}},{"type":"Feature","properties":{"station_id":"n12595222574","station_name":"Zhengda Rd","station_name_local":"正大路","network":"宁波市轨道交通","network_local":"宁波市轨道交通","operator":null,"city":"Ningbo","country":"China","lines":["2"],"wikidata":"Q11123363"},"geometry":{"type":"Point","coordinates":[121.5575737,29.89194]}},{"type":"Feature","properties":{"station_id":"n12595222575","station_name":"Nijiayan","station_name_local":"倪家堰","network":"宁波市轨道交通","network_local":"宁波市轨道交通","operator":null,"city":"Ningbo","country":"China","lines":["2"],"wikidata":"Q10888336"},"geometry":{"type":"Point","coordinates":[121.5626492,29.9009679]}},{"type":"Feature","properties":{"station_id":"n12595581714","station_name":"Lishe International Airport","station_name_local":"栎社国际机场","network":"宁波轨道交通","network_local":"宁波轨道交通","operator":null,"city":"Ningbo","country":"China","lines":["2"],"wikidata":"Q11110395"},"geometry":{"type":"Point","coordinates":[121.4566067,29.8201702]}},{"type":"Feature","properties":{"station_id":"n12595618952","station_name":"Ouchi","station_name_local":"藕池","network":"宁波市轨道交通","network_local":"宁波市轨道交通","operator":null,"city":"Ningbo","country":"China","lines":["2"],"wikidata":"Q15939125"},"geometry":{"type":"Point","coordinates":[121.5085477,29.8439837]}},{"type":"Feature","properties":{"station_id":"n12595643426","station_name":"Qingfangcheng","station_name_local":"轻纺城","network":"宁波市轨道交通","network_local":"宁波市轨道交通","operator":null,"city":"Ningbo","country":"China","lines":["2"],"wikidata":"Q15931321"},"geometry":{"type":"Point","coordinates":[121.5101624,29.8341421]}},{"type":"Feature","properties":{"station_id":"n12595798340","station_name":"Liyuan South Rd","station_name_local":"丽园南路","network":"宁波市轨道交通","network_local":"宁波市轨道交通","operator":null,"city":"Ningbo","country":"China","lines":["2"],"wikidata":"Q10877487"},"geometry":{"type":"Point","coordinates":[121.5135835,29.8606365]}},{"type":"Feature","properties":{"station_id":"n12596133511","station_name":"Yunxia Rd","station_name_local":"云霞路","network":"宁波市轨道交通","network_local":"宁波市轨道交通","operator":null,"city":"Ningbo","country":"China","lines":["2"],"wikidata":"Q21203718"},"geometry":{"type":"Point","coordinates":[121.5221921,29.861068]}},{"type":"Feature","properties":{"station_id":"n12597662355","station_name":"永茂路","station_name_local":"永茂路","network":"Unknown","network_local":null,"operator":null,"city":"Ningbo","country":"China","lines":["5"],"wikidata":null},"geometry":{"type":"Point","coordinates":[121.5810126,29.9502764]}},{"type":"Feature","properties":{"station_id":"n12597662357","station_name":"梅堰","station_name_local":"梅堰","network":"Unknown","network_local":null,"operator":null,"city":"Ningbo","country":"China","lines":["5"],"wikidata":null},"geometry":{"type":"Point","coordinates":[121.5920842,29.926683]}},{"type":"Feature","properties":{"station_id":"n12597662358","station_name":"孔浦","station_name_local":"孔浦","network":"Unknown","network_local":null,"operator":null,"city":"Ningbo","country":"China","lines":["2"],"wikidata":null},"geometry":{"type":"Point","coordinates":[121.5882596,29.9070088]}},{"type":"Feature","properties":{"station_id":"n12597897572","station_name":"Lulin","station_name_local":"路林","network":"宁波市轨道交通","network_local":"宁波市轨道交通","operator":null,"city":"Ningbo","country":"China","lines":["2"],"wikidata":"Q15931527"},"geometry":{"type":"Point","coordinates":[121.6085494,29.9116491]}},{"type":"Feature","properties":{"station_id":"n12597897573","station_name":"Coach Terminal","station_name_local":"客运中心","network":"宁波市轨道交通","network_local":"宁波市轨道交通","operator":null,"city":"Ningbo","country":"China","lines":["2"],"wikidata":"Q10949804"},"geometry":{"type":"Point","coordinates":[121.5080792,29.8529629]}},{"type":"Feature","properties":{"station_id":"n12597897575","station_name":"Chenghuangmiao","station_name_local":"城隍庙","network":"宁波市轨道交通","network_local":"宁波市轨道交通","operator":null,"city":"Ningbo","country":"China","lines":["2"],"wikidata":"Q10930128"},"geometry":{"type":"Point","coordinates":[121.5446413,29.8697634]}},{"type":"Feature","properties":{"station_id":"n12960380312","station_name":"Hansong Rd","station_name_local":"寒松路","network":"Unknown","network_local":null,"operator":null,"city":"Ningbo","country":"China","lines":["8"],"wikidata":"Q123929810"},"geometry":{"type":"Point","coordinates":[121.5723654,29.7961694]}},{"type":"Feature","properties":{"station_id":"n12960392725","station_name":"Xuefu Rd","station_name_local":"学府路","network":"Unknown","network_local":null,"operator":null,"city":"Ningbo","country":"China","lines":["8"],"wikidata":"Q125410617"},"geometry":{"type":"Point","coordinates":[121.5554571,29.8072742]}},{"type":"Feature","properties":{"station_id":"n12960438774","station_name":"Yinzhou Park South","station_name_local":"鄞州公园南","network":"Unknown","network_local":null,"operator":null,"city":"Ningbo","country":"China","lines":["8"],"wikidata":"Q125410614"},"geometry":{"type":"Point","coordinates":[121.5366286,29.8101051]}},{"type":"Feature","properties":{"station_id":"n12960462862","station_name":"Jinshan West Rd","station_name_local":"堇山西路","network":"Unknown","network_local":null,"operator":null,"city":"Ningbo","country":"China","lines":["8"],"wikidata":"Q125410609"},"geometry":{"type":"Point","coordinates":[121.5245974,29.8311797]}},{"type":"Feature","properties":{"station_id":"n12960652934","station_name":"Duantang","station_name_local":"段塘","network":"Unknown","network_local":null,"operator":null,"city":"Ningbo","country":"China","lines":["8"],"wikidata":"Q125410604"},"geometry":{"type":"Point","coordinates":[121.5192728,29.8436596]}},{"type":"Feature","properties":{"station_id":"n12960747000","station_name":"Lianfeng","station_name_local":"联丰","network":"Unknown","network_local":null,"operator":null,"city":"Ningbo","country":"China","lines":["8"],"wikidata":"Q125410597"},"geometry":{"type":"Point","coordinates":[121.5115351,29.8721869]}},{"type":"Feature","properties":{"station_id":"n12960755908","station_name":"Nanyuan","station_name_local":"南苑","network":"Unknown","network_local":null,"operator":null,"city":"Ningbo","country":"China","lines":["8"],"wikidata":"Q125410601"},"geometry":{"type":"Point","coordinates":[121.5196953,29.8516253]}},{"type":"Feature","properties":{"station_id":"n12960770401","station_name":"Ningbo Traditional Chinese Medicine Hospital","station_name_local":"市中医院","network":"Unknown","network_local":null,"operator":null,"city":"Ningbo","country":"China","lines":["8"],"wikidata":"Q123929987"},"geometry":{"type":"Point","coordinates":[121.5149656,29.890676]}},{"type":"Feature","properties":{"station_id":"n12960770402","station_name":"Qinglinwan","station_name_local":"青林湾","network":"Unknown","network_local":null,"operator":null,"city":"Ningbo","country":"China","lines":["8"],"wikidata":"Q125410596"},"geometry":{"type":"Point","coordinates":[121.5147527,29.9032991]}},{"type":"Feature","properties":{"station_id":"n12960771936","station_name":"Xiejia","station_name_local":"榭嘉","network":"Unknown","network_local":null,"operator":null,"city":"Ningbo","country":"China","lines":["8"],"wikidata":"Q125410590"},"geometry":{"type":"Point","coordinates":[121.5156077,29.916498]}},{"type":"Feature","properties":{"station_id":"n12960771939","station_name":"Hongsheng Rd","station_name_local":"洪盛路","network":"Unknown","network_local":null,"operator":null,"city":"Ningbo","country":"China","lines":["8"],"wikidata":"Q125410595"},"geometry":{"type":"Point","coordinates":[121.5128203,29.9333061]}},{"type":"Feature","properties":{"station_id":"n12960771940","station_name":"Hongtang","station_name_local":"洪塘","network":"Unknown","network_local":null,"operator":null,"city":"Ningbo","country":"China","lines":["8"],"wikidata":"Q125410594"},"geometry":{"type":"Point","coordinates":[121.5027501,29.9416387]}},{"type":"Feature","properties":{"station_id":"n12960771942","station_name":"Kaiyuan Rd","station_name_local":"开元路","network":"Unknown","network_local":null,"operator":null,"city":"Ningbo","country":"China","lines":["8"],"wikidata":"Q125410593"},"geometry":{"type":"Point","coordinates":[121.4948272,29.9484534]}},{"type":"Feature","properties":{"station_id":"n13104019848","station_name":"Yunlong","station_name_local":"云龙","network":"宁波市轨道交通","network_local":"宁波市轨道交通","operator":null,"city":"Ningbo","country":"China","lines":["7"],"wikidata":null},"geometry":{"type":"Point","coordinates":[121.5975493,29.7838312]}},{"type":"Feature","properties":{"station_id":"n13104019849","station_name":"Anshi Rd","station_name_local":"安石路","network":"宁波市轨道交通","network_local":"宁波市轨道交通","operator":null,"city":"Ningbo","country":"China","lines":["7"],"wikidata":"Q125825948"},"geometry":{"type":"Point","coordinates":[121.6223732,29.8021145]}},{"type":"Feature","properties":{"station_id":"n13104019850","station_name":"Huilong","station_name_local":"回龙","network":"宁波市轨道交通","network_local":"宁波市轨道交通","operator":null,"city":"Ningbo","country":"China","lines":["7"],"wikidata":null},"geometry":{"type":"Point","coordinates":[121.6234292,29.8209068]}},{"type":"Feature","properties":{"station_id":"n13104019851","station_name":"Shangde Rd","station_name_local":"尚德路","network":"宁波市轨道交通","network_local":"宁波市轨道交通","operator":null,"city":"Ningbo","country":"China","lines":["7"],"wikidata":null},"geometry":{"type":"Point","coordinates":[121.6262894,29.8335329]}},{"type":"Feature","properties":{"station_id":"n13104019852","station_name":"Qiuga","station_name_local":"邱隘","network":"宁波市轨道交通","network_local":"宁波市轨道交通","operator":null,"city":"Ningbo","country":"China","lines":["7"],"wikidata":null},"geometry":{"type":"Point","coordinates":[121.6298228,29.8490171]}},{"type":"Feature","properties":{"station_id":"n13104019853","station_name":"Beimingcheng Rd","station_name_local":"北明程路","network":"宁波市轨道交通","network_local":"宁波市轨道交通","operator":null,"city":"Ningbo","country":"China","lines":["7"],"wikidata":null},"geometry":{"type":"Point","coordinates":[121.6226006,29.8682603]}},{"type":"Feature","properties":{"station_id":"n13104019854","station_name":"Xintian Rd","station_name_local":"新天路","network":"宁波市轨道交通","network_local":"宁波市轨道交通","operator":null,"city":"Ningbo","country":"China","lines":["7"],"wikidata":null},"geometry":{"type":"Point","coordinates":[121.6014157,29.8739205]}},{"type":"Feature","properties":{"station_id":"n13104019855","station_name":"Fumin Park","station_name_local":"福民公园","network":"宁波市轨道交通","network_local":"宁波市轨道交通","operator":null,"city":"Ningbo","country":"China","lines":["7"],"wikidata":null},"geometry":{"type":"Point","coordinates":[121.5929751,29.8746591]}},{"type":"Feature","properties":{"station_id":"n13104019856","station_name":"Shuguang","station_name_local":"曙光","network":"宁波市轨道交通","network_local":"宁波市轨道交通","operator":null,"city":"Ningbo","country":"China","lines":["7"],"wikidata":null},"geometry":{"type":"Point","coordinates":[121.5681438,29.8795297]}},{"type":"Feature","properties":{"station_id":"n13104019857","station_name":"Ningbo Grand Theater","station_name_local":"宁波大剧院","network":"宁波市轨道交通","network_local":"宁波市轨道交通","operator":null,"city":"Ningbo","country":"China","lines":["6"],"wikidata":null},"geometry":{"type":"Point","coordinates":[121.5462994,29.8921269]}},{"type":"Feature","properties":{"station_id":"n13104019858","station_name":"Wantou","station_name_local":"湾头","network":"宁波市轨道交通","network_local":"宁波市轨道交通","operator":null,"city":"Ningbo","country":"China","lines":["7"],"wikidata":null},"geometry":{"type":"Point","coordinates":[121.5469914,29.9017207]}},{"type":"Feature","properties":{"station_id":"n13104019859","station_name":"Yunfei Rd (Kangqiao South)","station_name_local":"云飞路(康桥南)","network":"宁波市轨道交通","network_local":"宁波市轨道交通","operator":null,"city":"Ningbo","country":"China","lines":["7"],"wikidata":"Q125826070"},"geometry":{"type":"Point","coordinates":[121.5394798,29.9187084]}},{"type":"Feature","properties":{"station_id":"n13104019860","station_name":"Ningci East Rd","station_name_local":"宁慈东路","network":"宁波市轨道交通","network_local":"宁波市轨道交通","operator":null,"city":"Ningbo","country":"China","lines":["7"],"wikidata":"Q125825940"},"geometry":{"type":"Point","coordinates":[121.5405409,29.9327643]}},{"type":"Feature","properties":{"station_id":"n13104019861","station_name":"Yingjia Rd","station_name_local":"应嘉路","network":"宁波市轨道交通","network_local":"宁波市轨道交通","operator":null,"city":"Ningbo","country":"China","lines":["7"],"wikidata":"Q125823823"},"geometry":{"type":"Point","coordinates":[121.5459902,29.9570863]}},{"type":"Feature","properties":{"station_id":"n13104019862","station_name":"Luoxing","station_name_local":"骆兴","network":"宁波市轨道交通","network_local":"宁波市轨道交通","operator":null,"city":"Ningbo","country":"China","lines":["7"],"wikidata":"Q125823783"},"geometry":{"type":"Point","coordinates":[121.5615166,29.9701616]}},{"type":"Feature","properties":{"station_id":"n13104019863","station_name":"Zhenhai Citizen Square","station_name_local":"镇海市民广场","network":"宁波市轨道交通","network_local":"宁波市轨道交通","operator":null,"city":"Ningbo","country":"China","lines":["7"],"wikidata":"Q125826104"},"geometry":{"type":"Point","coordinates":[121.5942057,29.9692388]}},{"type":"Feature","properties":{"station_id":"n13104019864","station_name":"Guisi","station_name_local":"贵驷","network":"Unknown","network_local":null,"operator":null,"city":"Ningbo","country":"China","lines":["7"],"wikidata":"Q125826257"},"geometry":{"type":"Point","coordinates":[121.6084078,29.9671471]}},{"type":"Feature","properties":{"station_id":"n13104019865","station_name":"Minghai North Rd","station_name_local":"明海北路","network":"宁波市轨道交通","network_local":"宁波市轨道交通","operator":null,"city":"Ningbo","country":"China","lines":["7"],"wikidata":"Q125825886"},"geometry":{"type":"Point","coordinates":[121.6189561,29.9640816]}},{"type":"Feature","properties":{"station_id":"n13104019866","station_name":"Yufan","station_name_local":"俞范","network":"宁波市轨道交通","network_local":"宁波市轨道交通","operator":null,"city":"Ningbo","country":"China","lines":["7"],"wikidata":"Q125825849"},"geometry":{"type":"Point","coordinates":[121.654485,29.9663415]}},{"type":"Feature","properties":{"station_id":"n13114394507","station_name":"Xiapu","station_name_local":"霞浦","network":"宁波市轨道交通","network_local":"宁波市轨道交通","operator":null,"city":"Ningbo","country":"China","lines":["1"],"wikidata":"Q15925591"},"geometry":{"type":"Point","coordinates":[121.852779,29.8930916]}},{"type":"Feature","properties":{"station_id":"n13114394508","station_name":"Changjiang Rd","station_name_local":"长江路","network":"宁波市轨道交通","network_local":"宁波市轨道交通","operator":null,"city":"Ningbo","country":"China","lines":["1"],"wikidata":"Q15936174","merged_from":2},"geometry":{"type":"Point","coordinates":[121.8395646,29.8932778]}},{"type":"Feature","properties":{"station_id":"n13114394509","station_name":"Zhonghe Rd","station_name_local":"中河路","network":"Ningbo Rail Transit","network_local":"Ningbo Rail Transit","operator":null,"city":"Ningbo","country":"China","lines":["1"],"wikidata":null,"merged_from":2},"geometry":{"type":"Point","coordinates":[121.82563495,29.8961445]}},{"type":"Feature","properties":{"station_id":"n13114394510","station_name":"Wuga","station_name_local":"邬隘","network":"宁波市轨道交通","network_local":"宁波市轨道交通","operator":null,"city":"Ningbo","country":"China","lines":["1"],"wikidata":null},"geometry":{"type":"Point","coordinates":[121.777993,29.8772448]}},{"type":"Feature","properties":{"station_id":"n13115959966","station_name":"Jiangxia Bridge East","station_name_local":"江厦桥东","network":"宁波市轨道交通","network_local":"宁波市轨道交通","operator":null,"city":"Ningbo","country":"China","lines":["1"],"wikidata":"Q11133945"},"geometry":{"type":"Point","coordinates":[121.5611838,29.8719385]}},{"type":"Feature","properties":{"station_id":"n13115959967","station_name":"Zhoumeng North Rd","station_name_local":"舟孟北路","network":"宁波市轨道交通","network_local":"宁波市轨道交通","operator":null,"city":"Ningbo","country":"China","lines":["1"],"wikidata":"Q15929615"},"geometry":{"type":"Point","coordinates":[121.5699205,29.8699138]}},{"type":"Feature","properties":{"station_id":"n13116060979","station_name":"Fuming Rd","station_name_local":"福明路","network":"宁波市轨道交通","network_local":"宁波市轨道交通","operator":null,"city":"Ningbo","country":"China","lines":["1"],"wikidata":"Q15934693"},"geometry":{"type":"Point","coordinates":[121.5891493,29.8635276]}},{"type":"Feature","properties":{"station_id":"n13116060980","station_name":"Shiji Ave","station_name_local":"世纪大道","network":"宁波市轨道交通","network_local":"宁波市轨道交通","operator":null,"city":"Ningbo","country":"China","lines":["1"],"wikidata":"Q10869186"},"geometry":{"type":"Point","coordinates":[121.5981782,29.8615707]}},{"type":"Feature","properties":{"station_id":"n13121126749","station_name":"Songhuajiang Rd","station_name_local":"松花江路","network":"宁波市轨道交通","network_local":"宁波市轨道交通","operator":null,"city":"Ningbo","country":"China","lines":["1"],"wikidata":"Q11104879"},"geometry":{"type":"Point","coordinates":[121.8043389,29.9068493]}},{"type":"Feature","properties":{"station_id":"n13121126750","station_name":"Daqi","station_name_local":"大碶","network":"宁波市轨道交通","network_local":"宁波市轨道交通","operator":null,"city":"Ningbo","country":"China","lines":["1"],"wikidata":"Q10937123"},"geometry":{"type":"Point","coordinates":[121.7904717,29.8959402]}},{"type":"Feature","properties":{"station_id":"n13121126751","station_name":"Baozhuang","station_name_local":"宝幢","network":"宁波市轨道交通","network_local":"宁波市轨道交通","operator":null,"city":"Ningbo","country":"China","lines":["1"],"wikidata":"Q10949395"},"geometry":{"type":"Point","coordinates":[121.7293488,29.8419035]}},{"type":"Feature","properties":{"station_id":"n13121126752","station_name":"Wuxiang","station_name_local":"五乡","network":"宁波市轨道交通","network_local":"宁波市轨道交通","operator":null,"city":"Ningbo","country":"China","lines":["1"],"wikidata":"Q10881474"},"geometry":{"type":"Point","coordinates":[121.6859158,29.8409655]}},{"type":"Feature","properties":{"station_id":"n13121126753","station_name":"Donghuan South Rd","station_name_local":"东环南路","network":"宁波市轨道交通","network_local":"宁波市轨道交通","operator":null,"city":"Ningbo","country":"China","lines":["1"],"wikidata":"Q10870775"},"geometry":{"type":"Point","coordinates":[121.6466599,29.855573]}},{"type":"Feature","properties":{"station_id":"n13121126754","station_name":"Qiuga East","station_name_local":"邱隘东","network":"宁波轨道交通","network_local":"宁波轨道交通","operator":null,"city":"Ningbo","country":"China","lines":["1"],"wikidata":null},"geometry":{"type":"Point","coordinates":[121.6573805,29.8490439]}},{"type":"Feature","properties":{"station_id":"n13121126755","station_name":"Fuqing North Rd","station_name_local":"福庆北路","network":"宁波市轨道交通","network_local":"宁波市轨道交通","operator":null,"city":"Ningbo","country":"China","lines":["1"],"wikidata":"Q15940752"},"geometry":{"type":"Point","coordinates":[121.6201436,29.8614893]}},{"type":"Feature","properties":{"station_id":"n13456668261","station_name":"Gulin","station_name_local":"古林","network":"宁波市轨道交通","network_local":"宁波市轨道交通","operator":null,"city":"Ningbo","country":"China","lines":["6"],"wikidata":"Q123929990"},"geometry":{"type":"Point","coordinates":[121.4320993,29.8366593]}},{"type":"Feature","properties":{"station_id":"n13456668262","station_name":"Yunlin West Rd","station_name_local":"云林西路","network":"宁波市轨道交通","network_local":"宁波市轨道交通","operator":null,"city":"Ningbo","country":"China","lines":["6"],"wikidata":null},"geometry":{"type":"Point","coordinates":[121.4335357,29.8512211]}},{"type":"Feature","properties":{"station_id":"n13456668263","station_name":"Jishigang","station_name_local":"集士港","network":"宁波市轨道交通","network_local":"宁波市轨道交通","operator":null,"city":"Ningbo","country":"China","lines":["6"],"wikidata":null},"geometry":{"type":"Point","coordinates":[121.4339273,29.8633906]}},{"type":"Feature","properties":{"station_id":"n13456668264","station_name":"Huishi Rd","station_name_local":"汇士路","network":"宁波市轨道交通","network_local":"宁波市轨道交通","operator":null,"city":"Ningbo","country":"China","lines":["6"],"wikidata":null},"geometry":{"type":"Point","coordinates":[121.4442055,29.8759447]}},{"type":"Feature","properties":{"station_id":"n13456668265","station_name":"MaiMianqiao","station_name_local":"卖面桥","network":"宁波市轨道交通","network_local":"宁波市轨道交通","operator":null,"city":"Ningbo","country":"China","lines":["6"],"wikidata":null},"geometry":{"type":"Point","coordinates":[121.4683279,29.8777948]}},{"type":"Feature","properties":{"station_id":"n13456668266","station_name":"Songjiacao","station_name_local":"宋家漕","network":"宁波市轨道交通","network_local":"宁波市轨道交通","operator":null,"city":"Ningbo","country":"China","lines":["6"],"wikidata":null},"geometry":{"type":"Point","coordinates":[121.4861754,29.881488]}},{"type":"Feature","properties":{"station_id":"n13456668267","station_name":"Xinzhi Rd","station_name_local":"新芝路","network":"Unknown","network_local":null,"operator":null,"city":"Ningbo","country":"China","lines":["6"],"wikidata":null},"geometry":{"type":"Point","coordinates":[121.535296,29.8897739]}},{"type":"Feature","properties":{"station_id":"n13456668269","station_name":"Qingfeng Bridge East","station_name_local":"庆丰桥东","network":"Unknown","network_local":null,"operator":null,"city":"Ningbo","country":"China","lines":["6"],"wikidata":null},"geometry":{"type":"Point","coordinates":[121.5733847,29.8851636]}},{"type":"Feature","properties":{"station_id":"n13456668270","station_name":"Mingzhu Rd","station_name_local":"明珠路","network":"Unknown","network_local":null,"operator":null,"city":"Ningbo","country":"China","lines":["6"],"wikidata":null},"geometry":{"type":"Point","coordinates":[121.5940826,29.8847746]}},{"type":"Feature","properties":{"station_id":"n13456668271","station_name":"Canghai North Rd","station_name_local":"沧海北路","network":"Unknown","network_local":null,"operator":null,"city":"Ningbo","country":"China","lines":["6"],"wikidata":null},"geometry":{"type":"Point","coordinates":[121.59915,29.8892297]}},{"type":"Feature","properties":{"station_id":"n13456668272","station_name":"Juxian Rd","station_name_local":"聚贤路","network":"Unknown","network_local":null,"operator":null,"city":"Ningbo","country":"China","lines":["6"],"wikidata":null},"geometry":{"type":"Point","coordinates":[121.6300169,29.8910982]}},{"type":"Feature","properties":{"station_id":"n13456668273","station_name":"Meixu","station_name_local":"梅墟","network":"Unknown","network_local":null,"operator":null,"city":"Ningbo","country":"China","lines":["6"],"wikidata":null},"geometry":{"type":"Point","coordinates":[121.6509683,29.8964424]}},{"type":"Feature","properties":{"station_id":"n13456668274","station_name":"Xieshu","station_name_local":"谢墅","network":"Unknown","network_local":null,"operator":null,"city":"Ningbo","country":"China","lines":["6"],"wikidata":"Q123929999"},"geometry":{"type":"Point","coordinates":[121.6751571,29.9123013]}},{"type":"Feature","properties":{"station_id":"n13456668275","station_name":"Xiaogang West","station_name_local":"小港西","network":"Unknown","network_local":null,"operator":null,"city":"Ningbo","country":"China","lines":["6"],"wikidata":"Q123930000"},"geometry":{"type":"Point","coordinates":[121.6962118,29.9264817]}},{"type":"Feature","properties":{"station_id":"n13456668276","station_name":"Yaoqian","station_name_local":"衙前","network":"Unknown","network_local":null,"operator":null,"city":"Ningbo","country":"China","lines":["6"],"wikidata":null},"geometry":{"type":"Point","coordinates":[121.7056371,29.9326445]}}]}