{"type":"FeatureCollection","metro_system":{"continent":"asia","country":"China","city":"Changchun","osm_networks":["Changchun Rail Transit","Unknown","长春轨道交通"],"operator":"长春市轨道交通集团","official_website":null,"official_map":"https://en.wikipedia.org/wiki/Line_1_(Changchun_Subway)","wikidata":"Q15913092","line_count":3,"station_count":104},"features":[{"type":"Feature","properties":{"route_id":"rm7949339","route_name":"Line 1","route_name_local":"长春轨道交通1号线","route_ref":"1","route_color":"#e50011","network":"Changchun Rail Transit","network_local":"长春轨道交通","operator":"长春市轨道交通集团","city":"Changchun","country":"China","wikidata":"Q15913092","wikipedia":"en:Line 1 (Changchun Subway)","osm_route_ids":[7875901,9650341]},"geometry":{"type":"MultiLineString","coordinates":[[[125.3174935,43.9453074],[125.3175539,43.9345182],[125.3175648,43.9227033],[125.3165943,43.9116541],[125.316726,43.9068156],[125.317682,43.8978592],[125.3179704,43.8864735],[125.3181592,43.8758339],[125.3185403,43.8616582],[125.3188407,43.8485746],[125.3190419,43.8377627],[125.3192381,43.8303151],[125.3195895,43.8170287],[125.3200124,43.7975539],[125.3209332,43.7872104]]]}},{"type":"Feature","properties":{"route_id":"rm9642906","route_name":"Changchun Subway Line 2","route_name_local":"长春轨道交通2号线","route_ref":"2","route_color":"#3b6a96","network":"Changchun Rail Transit","network_local":"长春轨道交通","operator":"长春市轨道交通集团","city":"Changchun","country":"China","wikidata":"Q15913266","wikipedia":"en:Line 2 (Changchun Rail Transit)","osm_route_ids":[9642904,9689345]},"geometry":{"type":"MultiLineString","coordinates":[[[125.1658818,43.8309415],[125.1613194,43.8447029],[125.1632564,43.8534805],[125.1777865,43.8647338],[125.1950687,43.8740501],[125.2170152,43.8815235],[125.2336212,43.8815865],[125.2483863,43.8817565],[125.2596863,43.881892],[125.2696503,43.8802596],[125.2802644,43.8763267],[125.2901445,43.875375],[125.3012714,43.8754869],[125.3185777,43.8756987],[125.3276501,43.8758018],[125.338364,43.8780116],[125.3581185,43.8795747],[125.3701589,43.8796928],[125.388097,43.8799209],[125.4033617,43.8797689],[125.419515,43.879233],[125.4378196,43.882556],[125.4667827,43.8889971],[125.4832221,43.8892316],[125.5056295,43.889036],[125.5273714,43.8892757],[125.547201,43.8892302]]]}},{"type":"Feature","properties":{"route_id":"rm17399102","route_name":"Changchun Rail Transit Line 6","route_name_local":"长春轨道交通6号线","route_ref":"6","route_color":"#e88f99","network":"Changchun Rail Transit","network_local":"长春轨道交通","operator":"长春市轨道交通集团","city":"Changchun","country":"China","wikidata":"Q17041527","wikipedia":null,"osm_route_ids":[17399100,17399101]},"geometry":{"type":"MultiLineString","coordinates":[[[125.1782137,43.8643628],[125.1952284,43.8738919],[125.2088801,43.8686259],[125.2162611,43.8574847],[125.2240717,43.8471908],[125.234661,43.8360129],[125.2439415,43.8301272],[125.2552014,43.8229675],[125.2691784,43.8109043],[125.2699079,43.8020417],[125.2897798,43.7976259],[125.2990555,43.7975964],[125.3064745,43.7976037],[125.3185498,43.7975938],[125.3488105,43.7980296],[125.3609019,43.7849642],[125.3718668,43.7753975],[125.3885648,43.7700646],[125.4022334,43.7685615],[125.4158644,43.7671127],[125.4243001,43.7669907],[125.440534,43.767281]]]}},{"type":"Feature","properties":{"station_id":"n6514090354","station_name":"Jilin Avenue","station_name_local":"吉林大路","network":"Unknown","network_local":null,"operator":null,"city":"Changchun","country":"China","lines":["2"],"wikidata":null},"geometry":{"type":"Point","coordinates":[125.3581164,43.8796494]}},{"type":"Feature","properties":{"station_id":"n6520150612","station_name":"North Ring Road","station_name_local":"北环城路","network":"Unknown","network_local":null,"operator":null,"city":"Changchun","country":"China","lines":["1"],"wikidata":null},"geometry":{"type":"Point","coordinates":[125.3175793,43.9453546]}},{"type":"Feature","properties":{"station_id":"n6520150614","station_name":"Qingfeng Road","station_name_local":"庆丰路","network":"Unknown","network_local":null,"operator":null,"city":"Changchun","country":"China","lines":["1"],"wikidata":null},"geometry":{"type":"Point","coordinates":[125.3176654,43.9345382]}},{"type":"Feature","properties":{"station_id":"n6520150615","station_name":"Yikuang Street","station_name_local":"一匡街","network":"Unknown","network_local":null,"operator":null,"city":"Changchun","country":"China","lines":["1"],"wikidata":null},"geometry":{"type":"Point","coordinates":[125.3176137,43.9227503]}},{"type":"Feature","properties":{"station_id":"n6520150616","station_name":"Changchun Railway Station (North)","station_name_local":"长春站北","network":"Unknown","network_local":null,"operator":null,"city":"Changchun","country":"China","lines":["1"],"wikidata":null},"geometry":{"type":"Point","coordinates":[125.316626,43.9116038]}},{"type":"Feature","properties":{"station_id":"n6520150649","station_name":"Shengli Park","station_name_local":"胜利公园","network":"Unknown","network_local":null,"operator":null,"city":"Changchun","country":"China","lines":["1"],"wikidata":null},"geometry":{"type":"Point","coordinates":[125.3178059,43.8978122]}},{"type":"Feature","properties":{"station_id":"n6520150650","station_name":"RENMIN Square","station_name_local":"人民广场","network":"Unknown","network_local":null,"operator":null,"city":"Changchun","country":"China","lines":["1"],"wikidata":null},"geometry":{"type":"Point","coordinates":[125.3180285,43.8865794]}},{"type":"Feature","properties":{"station_id":"n6520150651","station_name":"Jiefang Avenue","station_name_local":"解放大路","network":"Unknown","network_local":null,"operator":null,"city":"Changchun","country":"China","lines":["1"],"wikidata":null},"geometry":{"type":"Point","coordinates":[125.3182627,43.8758652]}},{"type":"Feature","properties":{"station_id":"n6520150652","station_name":"Jiefang Avenue","station_name_local":"解放大路","network":"Unknown","network_local":null,"operator":null,"city":"Changchun","country":"China","lines":["2"],"wikidata":null},"geometry":{"type":"Point","coordinates":[125.3185758,43.8757666]}},{"type":"Feature","properties":{"station_id":"n6520150653","station_name":"Northeast Normal University","station_name_local":"东北师大","network":"Unknown","network_local":null,"operator":null,"city":"Changchun","country":"China","lines":["1"],"wikidata":null},"geometry":{"type":"Point","coordinates":[125.3185925,43.861682]}},{"type":"Feature","properties":{"station_id":"n6520150654","station_name":"Gongnong Square","station_name_local":"工农广场","network":"Unknown","network_local":null,"operator":null,"city":"Changchun","country":"China","lines":["1"],"wikidata":null},"geometry":{"type":"Point","coordinates":[125.3188767,43.8485811]}},{"type":"Feature","properties":{"station_id":"n6520150655","station_name":"Fanrong Road","station_name_local":"繁荣路","network":"Unknown","network_local":null,"operator":null,"city":"Changchun","country":"China","lines":["1"],"wikidata":null},"geometry":{"type":"Point","coordinates":[125.3190798,43.8377457]}},{"type":"Feature","properties":{"station_id":"n6520150656","station_name":"Weixing Square","station_name_local":"卫星广场","network":"Unknown","network_local":null,"operator":null,"city":"Changchun","country":"China","lines":["1"],"wikidata":null},"geometry":{"type":"Point","coordinates":[125.3192003,43.8302946]}},{"type":"Feature","properties":{"station_id":"n6520150657","station_name":"Municipal Government","station_name_local":"市政府","network":"Unknown","network_local":null,"operator":null,"city":"Changchun","country":"China","lines":["1"],"wikidata":"Q28757381"},"geometry":{"type":"Point","coordinates":[125.3196735,43.8170993]}},{"type":"Feature","properties":{"station_id":"n6520150658","station_name":"Huaqing Road","station_name_local":"华庆路","network":"Unknown","network_local":null,"operator":null,"city":"Changchun","country":"China","lines":["1"],"wikidata":"Q31450350"},"geometry":{"type":"Point","coordinates":[125.3199584,43.7976958]}},{"type":"Feature","properties":{"station_id":"n6520150659","station_name":"Hongzuizi","station_name_local":"红嘴子","network":"Unknown","network_local":null,"operator":null,"city":"Changchun","country":"China","lines":["1"],"wikidata":null},"geometry":{"type":"Point","coordinates":[125.3210241,43.7873109]}},{"type":"Feature","properties":{"station_id":"n6520538354","station_name":"Shuangfeng","station_name_local":"双丰","network":"Unknown","network_local":null,"operator":null,"city":"Changchun","country":"China","lines":["2"],"wikidata":null},"geometry":{"type":"Point","coordinates":[125.1777328,43.8647797]}},{"type":"Feature","properties":{"station_id":"n6520538355","station_name":"Changchun West Railway Station","station_name_local":"长春西站","network":"Unknown","network_local":null,"operator":null,"city":"Changchun","country":"China","lines":["2"],"wikidata":null},"geometry":{"type":"Point","coordinates":[125.1950178,43.8741034]}},{"type":"Feature","properties":{"station_id":"n6520538356","station_name":"Xinglongpu","station_name_local":"兴隆堡","network":"Unknown","network_local":null,"operator":null,"city":"Changchun","country":"China","lines":["2"],"wikidata":null},"geometry":{"type":"Point","coordinates":[125.2169649,43.8816153]}},{"type":"Feature","properties":{"station_id":"n6520538357","station_name":"West Ring Road","station_name_local":"西环城路","network":"Unknown","network_local":null,"operator":null,"city":"Changchun","country":"China","lines":["2"],"wikidata":null},"geometry":{"type":"Point","coordinates":[125.2336196,43.8816508]}},{"type":"Feature","properties":{"station_id":"n6520538358","station_name":"Heping Street","station_name_local":"和平大街","network":"Unknown","network_local":null,"operator":null,"city":"Changchun","country":"China","lines":["2"],"wikidata":null},"geometry":{"type":"Point","coordinates":[125.2483808,43.8818194]}},{"type":"Feature","properties":{"station_id":"n6520538359","station_name":"Wanfu Street","station_name_local":"万福街","network":"Unknown","network_local":null,"operator":null,"city":"Changchun","country":"China","lines":["2"],"wikidata":null},"geometry":{"type":"Point","coordinates":[125.2596844,43.8819579]}},{"type":"Feature","properties":{"station_id":"n6520538365","station_name":"Jingyang Square","station_name_local":"景阳广场","network":"Unknown","network_local":null,"operator":null,"city":"Changchun","country":"China","lines":["2"],"wikidata":null},"geometry":{"type":"Point","coordinates":[125.2696886,43.880319]}},{"type":"Feature","properties":{"station_id":"n6520538366","station_name":"Jiefang Overpass","station_name_local":"解放桥","network":"Unknown","network_local":null,"operator":null,"city":"Changchun","country":"China","lines":["2"],"wikidata":null},"geometry":{"type":"Point","coordinates":[125.280305,43.8763865]}},{"type":"Feature","properties":{"station_id":"n6520538367","station_name":"Jianshe Square","station_name_local":"建设广场","network":"长春轨道交通","network_local":"长春轨道交通","operator":"长春市轨道交通集团","city":"Changchun","country":"China","lines":["2"],"wikidata":"Q56256684"},"geometry":{"type":"Point","coordinates":[125.2901427,43.8754439]}},{"type":"Feature","properties":{"station_id":"n6520538368","station_name":"Wenhua Square","station_name_local":"文化广场","network":"Unknown","network_local":null,"operator":null,"city":"Changchun","country":"China","lines":["2"],"wikidata":null},"geometry":{"type":"Point","coordinates":[125.3012687,43.8755529]}},{"type":"Feature","properties":{"station_id":"n6520538369","station_name":"Pingyang Street","station_name_local":"平阳街","network":"Unknown","network_local":null,"operator":null,"city":"Changchun","country":"China","lines":["2"],"wikidata":null},"geometry":{"type":"Point","coordinates":[125.3276525,43.8758743]}},{"type":"Feature","properties":{"station_id":"n6520538370","station_name":"Nanguan","station_name_local":"南关","network":"Unknown","network_local":null,"operator":null,"city":"Changchun","country":"China","lines":["2"],"wikidata":null},"geometry":{"type":"Point","coordinates":[125.3383213,43.878075]}},{"type":"Feature","properties":{"station_id":"n6520538371","station_name":"Dongsheng Street","station_name_local":"东盛大街","network":"Unknown","network_local":null,"operator":null,"city":"Changchun","country":"China","lines":["2"],"wikidata":null},"geometry":{"type":"Point","coordinates":[125.370157,43.8797688]}},{"type":"Feature","properties":{"station_id":"n6520538372","station_name":"East Ring Road","station_name_local":"东环城路","network":"Unknown","network_local":null,"operator":null,"city":"Changchun","country":"China","lines":["2"],"wikidata":null},"geometry":{"type":"Point","coordinates":[125.3880963,43.8799897]}},{"type":"Feature","properties":{"station_id":"n6520538373","station_name":"Changqing","station_name_local":"长青","network":"Unknown","network_local":null,"operator":null,"city":"Changchun","country":"China","lines":["2"],"wikidata":null},"geometry":{"type":"Point","coordinates":[125.4033663,43.8798389]}},{"type":"Feature","properties":{"station_id":"n6520538374","station_name":"Dongfang Square","station_name_local":"东方广场","network":"Unknown","network_local":null,"operator":null,"city":"Changchun","country":"China","lines":["2"],"wikidata":null},"geometry":{"type":"Point","coordinates":[125.4194854,43.8793306]}},{"type":"Feature","properties":{"station_id":"n8639244234","station_name":"Nanhu Square","station_name_local":"南湖广场（吉大南湖校区）","network":"长春轨道交通","network_local":"长春轨道交通","operator":null,"city":"Changchun","country":"China","lines":null,"wikidata":null},"geometry":{"type":"Point","coordinates":[125.2844284,43.8484147]}},{"type":"Feature","properties":{"station_id":"n9160356669","station_name":"Jieda Avenue","station_name_local":"捷达大路","network":"Unknown","network_local":null,"operator":null,"city":"Changchun","country":"China","lines":["2"],"wikidata":null},"geometry":{"type":"Point","coordinates":[125.1612429,43.8447033]}},{"type":"Feature","properties":{"station_id":"n9160356670","station_name":"West Lake","station_name_local":"西湖","network":"Unknown","network_local":null,"operator":null,"city":"Changchun","country":"China","lines":["2"],"wikidata":null},"geometry":{"type":"Point","coordinates":[125.1631991,43.8535296]}},{"type":"Feature","properties":{"station_id":"n9160356671","station_name":"Automobile Park","station_name_local":"汽车公园","network":"Unknown","network_local":null,"operator":null,"city":"Changchun","country":"China","lines":["2"],"wikidata":null},"geometry":{"type":"Point","coordinates":[125.1658063,43.8309336]}},{"type":"Feature","properties":{"station_id":"n9974877446","station_name":"Changchun Railway Station","station_name_local":"长春站","network":"Unknown","network_local":null,"operator":null,"city":"Changchun","country":"China","lines":["1"],"wikidata":null},"geometry":{"type":"Point","coordinates":[125.3168728,43.9068224]}},{"type":"Feature","properties":{"station_id":"n11766230931","station_name":"Changchun Movie Wonderland","station_name_local":"长影世纪城","network":"Unknown","network_local":null,"operator":null,"city":"Changchun","country":"China","lines":["6"],"wikidata":"Q11652988"},"geometry":{"type":"Point","coordinates":[125.440488,43.7673288]}},{"type":"Feature","properties":{"station_id":"n11766230932","station_name":"Shengbowuyuan","station_name_local":"省博物院","network":"Unknown","network_local":null,"operator":null,"city":"Changchun","country":"China","lines":["6"],"wikidata":null},"geometry":{"type":"Point","coordinates":[125.4242767,43.767046]}},{"type":"Feature","properties":{"station_id":"n11766230933","station_name":"Juye Dajie","station_name_local":"聚业大街","network":"Unknown","network_local":null,"operator":null,"city":"Changchun","country":"China","lines":["6"],"wikidata":null},"geometry":{"type":"Point","coordinates":[125.4158278,43.7671661]}},{"type":"Feature","properties":{"station_id":"n11766230934","station_name":"Yinghua Jie","station_name_local":"樱花街","network":"Unknown","network_local":null,"operator":null,"city":"Changchun","country":"China","lines":["6"],"wikidata":null},"geometry":{"type":"Point","coordinates":[125.4022129,43.768615]}},{"type":"Feature","properties":{"station_id":"n11766230935","station_name":"Yatai Zuqiu Jidi","station_name_local":"亚泰足球基地","network":"Unknown","network_local":null,"operator":null,"city":"Changchun","country":"China","lines":["6"],"wikidata":null},"geometry":{"type":"Point","coordinates":[125.3885497,43.7701219]}},{"type":"Feature","properties":{"station_id":"n11766316579","station_name":"Wujiadian","station_name_local":"吴家店","network":"Unknown","network_local":null,"operator":null,"city":"Changchun","country":"China","lines":["6"],"wikidata":null},"geometry":{"type":"Point","coordinates":[125.3719039,43.7753977]}},{"type":"Feature","properties":{"station_id":"n11766316580","station_name":"Fuzhi Avenue","station_name_local":"福祉大路","network":"Unknown","network_local":null,"operator":null,"city":"Changchun","country":"China","lines":["6"],"wikidata":null},"geometry":{"type":"Point","coordinates":[125.36088,43.7850185]}},{"type":"Feature","properties":{"station_id":"n11766316581","station_name":"Nanxi Shidi Gongyuan","station_name_local":"南溪湿地公园","network":"Unknown","network_local":null,"operator":null,"city":"Changchun","country":"China","lines":["6"],"wikidata":null},"geometry":{"type":"Point","coordinates":[125.3488262,43.7980955]}},{"type":"Feature","properties":{"station_id":"n11766349878","station_name":"Xinming Jie","station_name_local":"新明街","network":"Unknown","network_local":null,"operator":null,"city":"Changchun","country":"China","lines":["6"],"wikidata":null},"geometry":{"type":"Point","coordinates":[125.3064419,43.7977025]}},{"type":"Feature","properties":{"station_id":"n11766349879","station_name":"Guidao Jituan","station_name_local":"轨道集团","network":"Unknown","network_local":null,"operator":null,"city":"Changchun","country":"China","lines":["6"],"wikidata":"Q125188088"},"geometry":{"type":"Point","coordinates":[125.2990377,43.7976764]}},{"type":"Feature","properties":{"station_id":"n11766349880","station_name":"Lanraohu Gongyuan","station_name_local":"兰桡湖公园","network":"Unknown","network_local":null,"operator":null,"city":"Changchun","country":"China","lines":["6"],"wikidata":null},"geometry":{"type":"Point","coordinates":[125.2897519,43.7977151]}},{"type":"Feature","properties":{"station_id":"n11766349881","station_name":"Shifayuan","station_name_local":"市法院","network":"Unknown","network_local":null,"operator":null,"city":"Changchun","country":"China","lines":["6"],"wikidata":null},"geometry":{"type":"Point","coordinates":[125.2700537,43.8021173]}},{"type":"Feature","properties":{"station_id":"n11766349882","station_name":"Baihuayuan","station_name_local":"百花园","network":"Unknown","network_local":null,"operator":null,"city":"Changchun","country":"China","lines":["6"],"wikidata":null},"geometry":{"type":"Point","coordinates":[125.2692169,43.8109441]}},{"type":"Feature","properties":{"station_id":"n11766362152","station_name":"Guigu Guangchang","station_name_local":"硅谷广场","network":"Unknown","network_local":null,"operator":null,"city":"Changchun","country":"China","lines":["6"],"wikidata":null},"geometry":{"type":"Point","coordinates":[125.2552104,43.8230324]}},{"type":"Feature","properties":{"station_id":"n11766362153","station_name":"Guanggu Dajie","station_name_local":"光谷大街","network":"Unknown","network_local":null,"operator":null,"city":"Changchun","country":"China","lines":["6"],"wikidata":"Q125188083"},"geometry":{"type":"Point","coordinates":[125.2439451,43.8301689]}},{"type":"Feature","properties":{"station_id":"n11766362154","station_name":"Ouya Maichang","station_name_local":"欧亚卖场","network":"Unknown","network_local":null,"operator":null,"city":"Changchun","country":"China","lines":["6"],"wikidata":"Q125188082"},"geometry":{"type":"Point","coordinates":[125.2346593,43.8360508]}},{"type":"Feature","properties":{"station_id":"n11766362155","station_name":"Feiyue Guangchang","station_name_local":"飞跃广场","network":"Unknown","network_local":null,"operator":null,"city":"Changchun","country":"China","lines":["6"],"wikidata":"Q125188081"},"geometry":{"type":"Point","coordinates":[125.224086,43.8472287]}},{"type":"Feature","properties":{"station_id":"n11766362156","station_name":"Zhinong Dajie","station_name_local":"支农大街","network":"Unknown","network_local":null,"operator":null,"city":"Changchun","country":"China","lines":["6"],"wikidata":"Q125188080"},"geometry":{"type":"Point","coordinates":[125.2162808,43.8575226]}},{"type":"Feature","properties":{"station_id":"n11766362157","station_name":"Tengyue Jie","station_name_local":"腾跃街","network":"Unknown","network_local":null,"operator":null,"city":"Changchun","country":"China","lines":["6"],"wikidata":"Q125188079"},"geometry":{"type":"Point","coordinates":[125.2089283,43.868634]}},{"type":"Feature","properties":{"station_id":"n12180309582","station_name":"Northeast Normal University","station_name_local":"东北师大","network":"Unknown","network_local":null,"operator":null,"city":"Changchun","country":"China","lines":["1"],"wikidata":null},"geometry":{"type":"Point","coordinates":[125.3185403,43.8616582]}},{"type":"Feature","properties":{"station_id":"n12180309639","station_name":"Northeast Normal University","station_name_local":"东北师大","network":"Unknown","network_local":null,"operator":null,"city":"Changchun","country":"China","lines":["1"],"wikidata":null},"geometry":{"type":"Point","coordinates":[125.3187209,43.8616605]}},{"type":"Feature","properties":{"station_id":"n12497209131","station_name":"Shuangfeng","station_name_local":"双丰","network":"Unknown","network_local":null,"operator":null,"city":"Changchun","country":"China","lines":["6"],"wikidata":null},"geometry":{"type":"Point","coordinates":[125.178167,43.8644036]}},{"type":"Feature","properties":{"station_id":"n12497209132","station_name":"Changchun West Railway Station","station_name_local":"长春西站","network":"Unknown","network_local":null,"operator":null,"city":"Changchun","country":"China","lines":["6"],"wikidata":null},"geometry":{"type":"Point","coordinates":[125.1951883,43.8739366]}},{"type":"Feature","properties":{"station_id":"n13174729383","station_name":"Ha'erbin Dajie","station_name_local":"哈尔滨大街","network":"Unknown","network_local":null,"operator":null,"city":"Changchun","country":"China","lines":["2"],"wikidata":null},"geometry":{"type":"Point","coordinates":[125.4377159,43.8826451]}},{"type":"Feature","properties":{"station_id":"n13174729386","station_name":"Doujiagou","station_name_local":"窦家沟","network":"Unknown","network_local":null,"operator":null,"city":"Changchun","country":"China","lines":["2"],"wikidata":null},"geometry":{"type":"Point","coordinates":[125.4667803,43.8890554]}},{"type":"Feature","properties":{"station_id":"n13174729389","station_name":"Yingjun Dajie","station_name_local":"英俊大街","network":"Unknown","network_local":null,"operator":null,"city":"Changchun","country":"China","lines":["2"],"wikidata":null},"geometry":{"type":"Point","coordinates":[125.4832223,43.8892951]}},{"type":"Feature","properties":{"station_id":"n13174729392","station_name":"Yingkai Dajie","station_name_local":"英凯大街","network":"Unknown","network_local":null,"operator":null,"city":"Changchun","country":"China","lines":["2"],"wikidata":null},"geometry":{"type":"Point","coordinates":[125.5056268,43.8890979]}},{"type":"Feature","properties":{"station_id":"n13174729395","station_name":"Linxi Dajie","station_name_local":"林溪大街","network":"Unknown","network_local":null,"operator":null,"city":"Changchun","country":"China","lines":["2"],"wikidata":null},"geometry":{"type":"Point","coordinates":[125.5273741,43.8893376]}},{"type":"Feature","properties":{"station_id":"n13174729398","station_name":"Wukaihe Dajie","station_name_local":"雾开河大街","network":"Unknown","network_local":null,"operator":null,"city":"Changchun","country":"China","lines":["2"],"wikidata":null},"geometry":{"type":"Point","coordinates":[125.547201,43.8892854]}},{"type":"Feature","properties":{"station_id":"n1255815753","station_name":"Qianjinxi","station_name_local":"前进西","network":"Changchun Rail Transit","network_local":"长春轨道交通","operator":"长春轨道交通集团","city":"Changchun","country":"China","lines":null,"wikidata":"Q10899040"},"geometry":{"type":"Point","coordinates":[125.2800112,43.8297915]}},{"type":"Feature","properties":{"station_id":"n1502896512","station_name":"DONGDAQIAO Bridge","station_name_local":"东大桥","network":"长春轨道交通","network_local":"长春轨道交通","operator":"长春轨道交通集团","city":"Changchun","country":"China","lines":null,"wikidata":null},"geometry":{"type":"Point","coordinates":[125.3493586,43.8958365]}},{"type":"Feature","properties":{"station_id":"n1502896513","station_name":"省妇儿中心","station_name_local":"省妇儿中心","network":"长春轨道交通","network_local":"长春轨道交通","operator":"长春轨道交通集团","city":"Changchun","country":"China","lines":null,"wikidata":null},"geometry":{"type":"Point","coordinates":[125.3394216,43.8917901]}},{"type":"Feature","properties":{"station_id":"n1502896514","station_name":"DAJING Road","station_name_local":"大经路","network":"长春轨道交通","network_local":"长春轨道交通","operator":"长春轨道交通集团","city":"Changchun","country":"China","lines":null,"wikidata":null},"geometry":{"type":"Point","coordinates":[125.3300203,43.8882243]}},{"type":"Feature","properties":{"station_id":"n1502896515","station_name":"RENMIN Square","station_name_local":"人民广场","network":"长春轨道交通","network_local":"长春轨道交通","operator":"长春轨道交通集团","city":"Changchun","country":"China","lines":["1"],"wikidata":null},"geometry":{"type":"Point","coordinates":[125.3181085,43.8846885]}},{"type":"Feature","properties":{"station_id":"n1502896516","station_name":"TONGZHI Street","station_name_local":"同志街","network":"长春轨道交通","network_local":"长春轨道交通","operator":"长春轨道交通集团","city":"Changchun","country":"China","lines":null,"wikidata":null},"geometry":{"type":"Point","coordinates":[125.3124347,43.8828966]}},{"type":"Feature","properties":{"station_id":"n1502896518","station_name":"WENHUA Square","station_name_local":"文化广场","network":"长春轨道交通","network_local":"长春轨道交通","operator":"长春轨道交通集团","city":"Changchun","country":"China","lines":["2"],"wikidata":null},"geometry":{"type":"Point","coordinates":[125.302602,43.8770303]}},{"type":"Feature","properties":{"station_id":"n1502896519","station_name":"红旗街","station_name_local":"红旗街","network":"长春轨道交通","network_local":"长春轨道交通","operator":"长春轨道交通集团","city":"Changchun","country":"China","lines":null,"wikidata":null},"geometry":{"type":"Point","coordinates":[125.2916408,43.8673016]}},{"type":"Feature","properties":{"station_id":"n1502896520","station_name":"长影旧址博物馆","station_name_local":"长影旧址博物馆","network":"长春轨道交通","network_local":"长春轨道交通","operator":"长春轨道交通集团","city":"Changchun","country":"China","lines":null,"wikidata":null},"geometry":{"type":"Point","coordinates":[125.2888138,43.8574579]}},{"type":"Feature","properties":{"station_id":"n1502896521","station_name":"南湖广场（吉大南湖校区）","station_name_local":"南湖广场（吉大南湖校区）","network":"长春轨道交通","network_local":"长春轨道交通","operator":"长春轨道交通集团","city":"Changchun","country":"China","lines":null,"wikidata":null},"geometry":{"type":"Point","coordinates":[125.2841602,43.8475548]}},{"type":"Feature","properties":{"station_id":"n1502896522","station_name":"南湖广场（吉大南湖校区）","station_name_local":"南湖广场（吉大南湖校区）","network":"长春轨道交通","network_local":"长春轨道交通","operator":"长春轨道交通集团","city":"Changchun","country":"China","lines":null,"wikidata":null},"geometry":{"type":"Point","coordinates":[125.2861228,43.8485797]}},{"type":"Feature","properties":{"station_id":"n1502896523","station_name":"省委党校","station_name_local":"省委党校","network":"长春轨道交通","network_local":"长春轨道交通","operator":"长春轨道交通集团","city":"Changchun","country":"China","lines":null,"wikidata":null},"geometry":{"type":"Point","coordinates":[125.2838325,43.837362]}},{"type":"Feature","properties":{"station_id":"n1502896524","station_name":"Diantai Street","station_name_local":"电台街","network":"长春轨道交通","network_local":"长春轨道交通","operator":"长春轨道交通集团","city":"Changchun","country":"China","lines":null,"wikidata":"Q11587649"},"geometry":{"type":"Point","coordinates":[125.2712935,43.8301522]}},{"type":"Feature","properties":{"station_id":"n1502896525","station_name":"硅谷广场（吉大中心校区）","station_name_local":"硅谷广场（吉大中心校区）","network":"长春轨道交通","network_local":"长春轨道交通","operator":"长春轨道交通集团","city":"Changchun","country":"China","lines":["6"],"wikidata":null},"geometry":{"type":"Point","coordinates":[125.2554387,43.8223735]}},{"type":"Feature","properties":{"station_id":"n1502896526","station_name":"蔚山路","station_name_local":"蔚山路","network":"长春轨道交通","network_local":"长春轨道交通","operator":"长春轨道交通集团","city":"Changchun","country":"China","lines":null,"wikidata":null},"geometry":{"type":"Point","coordinates":[125.2437672,43.8112554]}},{"type":"Feature","properties":{"station_id":"n1502896527","station_name":"安新路","station_name_local":"安新路","network":"长春轨道交通","network_local":"长春轨道交通","operator":"长春轨道交通集团","city":"Changchun","country":"China","lines":null,"wikidata":null},"geometry":{"type":"Point","coordinates":[125.2380879,43.8057642]}},{"type":"Feature","properties":{"station_id":"n1502896528","station_name":"越达路","station_name_local":"越达路","network":"长春轨道交通","network_local":"长春轨道交通","operator":"长春轨道交通集团","city":"Changchun","country":"China","lines":null,"wikidata":null},"geometry":{"type":"Point","coordinates":[125.2299874,43.7988489]}},{"type":"Feature","properties":{"station_id":"n1502896529","station_name":"顺达路","station_name_local":"顺达路","network":"长春轨道交通","network_local":"长春轨道交通","operator":"长春轨道交通集团","city":"Changchun","country":"China","lines":null,"wikidata":null},"geometry":{"type":"Point","coordinates":[125.224747,43.7946112]}},{"type":"Feature","properties":{"station_id":"n1502896530","station_name":"市委党校","station_name_local":"市委党校","network":"长春轨道交通","network_local":"长春轨道交通","operator":"长春轨道交通集团","city":"Changchun","country":"China","lines":null,"wikidata":null},"geometry":{"type":"Point","coordinates":[125.2173977,43.7878272]}},{"type":"Feature","properties":{"station_id":"n1502896531","station_name":"卓越大街","station_name_local":"卓越大街","network":"长春轨道交通","network_local":"长春轨道交通","operator":"长春轨道交通集团","city":"Changchun","country":"China","lines":null,"wikidata":null},"geometry":{"type":"Point","coordinates":[125.2081898,43.7804729]}},{"type":"Feature","properties":{"station_id":"n1503250874","station_name":"飞跃广场","station_name_local":"飞跃广场","network":"长春轨道交通","network_local":"长春轨道交通","operator":"长春轨道交通集团","city":"Changchun","country":"China","lines":["6"],"wikidata":null},"geometry":{"type":"Point","coordinates":[125.2251317,43.8472778]}},{"type":"Feature","properties":{"station_id":"n1503250875","station_name":"兴顺路","station_name_local":"兴顺路","network":"长春轨道交通","network_local":"长春轨道交通","operator":"长春轨道交通集团","city":"Changchun","country":"China","lines":null,"wikidata":null},"geometry":{"type":"Point","coordinates":[125.2116017,43.8425982]}},{"type":"Feature","properties":{"station_id":"n1503250876","station_name":"兴安路","station_name_local":"兴安路","network":"长春轨道交通","network_local":"长春轨道交通","operator":"长春轨道交通集团","city":"Changchun","country":"China","lines":null,"wikidata":null},"geometry":{"type":"Point","coordinates":[125.1950262,43.8383701]}},{"type":"Feature","properties":{"station_id":"n1503250877","station_name":"西湖大路","station_name_local":"西湖大路","network":"长春轨道交通","network_local":"长春轨道交通","operator":"长春轨道交通集团","city":"Changchun","country":"China","lines":null,"wikidata":null},"geometry":{"type":"Point","coordinates":[125.1757693,43.8330184]}},{"type":"Feature","properties":{"station_id":"n1503250878","station_name":"汽车公园","station_name_local":"汽车公园","network":"长春轨道交通","network_local":"长春轨道交通","operator":"长春轨道交通集团","city":"Changchun","country":"China","lines":["2"],"wikidata":null},"geometry":{"type":"Point","coordinates":[125.163699,43.8304935]}},{"type":"Feature","properties":{"station_id":"n1503250880","station_name":"第一汽车制造厂","station_name_local":"第一汽车制造厂","network":"长春轨道交通","network_local":"长春轨道交通","operator":"长春轨道交通集团","city":"Changchun","country":"China","lines":null,"wikidata":null},"geometry":{"type":"Point","coordinates":[125.2384009,43.8535298]}},{"type":"Feature","properties":{"station_id":"n1503250881","station_name":"孟家屯","station_name_local":"孟家屯","network":"长春轨道交通","network_local":"长春轨道交通","operator":"长春轨道交通集团","city":"Changchun","country":"China","lines":null,"wikidata":null},"geometry":{"type":"Point","coordinates":[125.2576636,43.8481842]}},{"type":"Feature","properties":{"station_id":"n1503250882","station_name":"辉南街","station_name_local":"辉南街","network":"长春轨道交通","network_local":"长春轨道交通","operator":"长春轨道交通集团","city":"Changchun","country":"China","lines":null,"wikidata":null},"geometry":{"type":"Point","coordinates":[125.2693824,43.8481603]}},{"type":"Feature","properties":{"station_id":"n1503250883","station_name":"南湖公园","station_name_local":"南湖公园","network":"长春轨道交通","network_local":"长春轨道交通","operator":"长春轨道交通集团","city":"Changchun","country":"China","lines":null,"wikidata":null},"geometry":{"type":"Point","coordinates":[125.298372,43.8487775]}},{"type":"Feature","properties":{"station_id":"n1503250884","station_name":"工农广场","station_name_local":"工农广场","network":"长春轨道交通","network_local":"长春轨道交通","operator":"长春轨道交通集团","city":"Changchun","country":"China","lines":["1"],"wikidata":null},"geometry":{"type":"Point","coordinates":[125.3208674,43.8490575]}},{"type":"Feature","properties":{"station_id":"n1503250885","station_name":"省税务局","station_name_local":"省税务局","network":"长春轨道交通","network_local":"长春轨道交通","operator":"长春轨道交通集团","city":"Changchun","country":"China","lines":null,"wikidata":null},"geometry":{"type":"Point","coordinates":[125.3326063,43.8489001]}},{"type":"Feature","properties":{"station_id":"n1503250886","station_name":"东岭南街","station_name_local":"东岭南街","network":"长春轨道交通","network_local":"长春轨道交通","operator":"长春轨道交通集团","city":"Changchun","country":"China","lines":null,"wikidata":null},"geometry":{"type":"Point","coordinates":[125.3417749,43.8490124]}},{"type":"Feature","properties":{"station_id":"n1503250887","station_name":"威海路","station_name_local":"威海路","network":"长春轨道交通","network_local":"长春轨道交通","operator":"长春轨道交通集团","city":"Changchun","country":"China","lines":null,"wikidata":null},"geometry":{"type":"Point","coordinates":[125.3598424,43.8488713]}},{"type":"Feature","properties":{"station_id":"n1503250888","station_name":"赛得广场","station_name_local":"赛得广场","network":"长春轨道交通","network_local":"长春轨道交通","operator":"长春轨道交通集团","city":"Changchun","country":"China","lines":null,"wikidata":null},"geometry":{"type":"Point","coordinates":[125.3696026,43.8492052]}},{"type":"Feature","properties":{"station_id":"n1503250889","station_name":"会展大街","station_name_local":"会展大街","network":"长春轨道交通","network_local":"长春轨道交通","operator":"长春轨道交通集团","city":"Changchun","country":"China","lines":null,"wikidata":null},"geometry":{"type":"Point","coordinates":[125.3829895,43.8495166]}},{"type":"Feature","properties":{"station_id":"n1503250890","station_name":"中东大市场","station_name_local":"中东大市场","network":"长春轨道交通","network_local":"长春轨道交通","operator":"长春轨道交通集团","city":"Changchun","country":"China","lines":null,"wikidata":null},"geometry":{"type":"Point","coordinates":[125.3877195,43.8622928]}},{"type":"Feature","properties":{"station_id":"n1503250891","station_name":"岭东路","station_name_local":"岭东路","network":"长春轨道交通","network_local":"长春轨道交通","operator":"长春轨道交通集团","city":"Changchun","country":"China","lines":null,"wikidata":null},"geometry":{"type":"Point","coordinates":[125.3874328,43.8723493]}},{"type":"Feature","properties":{"station_id":"n1503250892","station_name":"东环城路","station_name_local":"东环城路","network":"长春轨道交通","network_local":"长春轨道交通","operator":"长春轨道交通集团","city":"Changchun","country":"China","lines":["2"],"wikidata":null},"geometry":{"type":"Point","coordinates":[125.387552,43.8783877]}}]}