{"type":"FeatureCollection","metro_system":{"continent":"asia","country":"China","city":"Changchun","osm_networks":["Changchun Rail Transit","Unknown","长春市轨道交通集团","长春轨道交通"],"operator":"长春市轨道交通集团","official_website":null,"official_map":"https://en.wikipedia.org/wiki/Line_3_(Changchun_Rail_Transit)","wikidata":"Q6123656","line_count":6,"station_count":130,"audit":{"strategies_tried":[],"passed":true,"checks":[{"id":"system_exists","ok":true,"detail":"matched OSM system systems/asia/china/asia-china-changchun.geojson","level":"error"},{"id":"has_lines","ok":true,"detail":"6 lines","level":"error"},{"id":"has_stations","ok":true,"detail":"130 stations","level":"error"},{"id":"station_ratio","ok":true,"detail":"OSM 130 vs Wikipedia 89（比值 1.46）","level":"error"},{"id":"stations_have_lines","ok":true,"detail":"130/130 站皆有所屬路線","level":"error"},{"id":"stations_named","ok":true,"detail":"127/130 站有名稱","level":"warn"},{"id":"station_order","ok":true,"detail":"所有線路站序合理","level":"warn"}],"reasons":[],"warnings":[],"audited_at":"2026-07-10T08:31:28.813Z"}},"features":[{"type":"Feature","properties":{"route_id":"rm7875360","route_name":"Changchun Rail Transit 3","route_name_local":"长春轨道交通3号线","route_ref":"3","route_color":"#009943","network":"Changchun Rail Transit","network_local":"Changchun Rail Transit","operator":"长春市轨道交通集团","city":"Changchun","country":"China","wikidata":"Q6123656","wikipedia":"en:Line 3 (Changchun Rail Transit)","osm_route_ids":[3066645,7875359]},"geometry":{"type":"MultiLineString","coordinates":[[[125.3457927,43.9042878],[125.3326471,43.9065621],[125.3175263,43.9068762],[125.3018835,43.9028284],[125.2937863,43.8925753],[125.2904345,43.8877828],[125.2866387,43.8825659],[125.2808518,43.8742255],[125.2759013,43.8670942],[125.2677245,43.8603898],[125.26178,43.8557132],[125.2558004,43.8488347],[125.2603728,43.8419561],[125.2720637,43.8307695],[125.2803811,43.8298464],[125.2870853,43.8298696],[125.2962809,43.8300152],[125.3090004,43.8301125],[125.3167,43.8301618],[125.3327566,43.8300955],[125.343321,43.8303701],[125.3597096,43.8305374],[125.3729061,43.8307173],[125.3842937,43.8308098],[125.3961907,43.8340937],[125.4143344,43.8318995],[125.42277,43.8272645],[125.4326419,43.8192376],[125.4385018,43.8118797],[125.4442635,43.8011059],[125.4336747,43.7902353],[125.4335566,43.7825812],[125.4429309,43.7740634],[125.4437168,43.7692476]]]}},{"type":"Feature","properties":{"route_id":"rm7875301","route_name":"Changchun Rail Transit Line 4","route_name_local":"长春轨道交通4号线","route_ref":"4","route_color":"#7d4697","network":"Changchun Rail Transit","network_local":"Changchun Rail Transit","operator":"Changchun Rail Transit Corporation","city":"Changchun","country":"China","wikidata":"Q6553125","wikipedia":"en:Line 4 (Changchun Rail Transit)","osm_route_ids":[3066646,7875300]},"geometry":{"type":"MultiLineString","coordinates":[[[125.3170337,43.9114944],[125.3304218,43.9101994],[125.3456618,43.9042785],[125.3506339,43.897694],[125.3594757,43.8897949],[125.3576392,43.8787045],[125.3578173,43.8694122],[125.3579773,43.8614499],[125.3581416,43.8545112],[125.3582592,43.8481249],[125.3584537,43.8393531],[125.3586313,43.8299099],[125.3587813,43.8227001],[125.3589391,43.8148757],[125.3591304,43.8045694],[125.3597117,43.7931372],[125.3595013,43.7838331],[125.3594255,43.7760518],[125.3595656,43.768891],[125.359723,43.7609534],[125.3598839,43.7527791]]]}},{"type":"Feature","properties":{"route_id":"rm7949339","route_name":"Line 1","route_name_local":"长春轨道交通1号线","route_ref":"1","route_color":"#e50011","network":"Changchun Rail Transit","network_local":"长春轨道交通","operator":"长春市轨道交通集团","city":"Changchun","country":"China","wikidata":"Q15913092","wikipedia":"en:Line 1 (Changchun Subway)","osm_route_ids":[7875901,9650341]},"geometry":{"type":"MultiLineString","coordinates":[[[125.3174935,43.9453074],[125.3175539,43.9345182],[125.3175648,43.9227033],[125.3165943,43.9116541],[125.316726,43.9068156],[125.317682,43.8978592],[125.3179704,43.8864735],[125.3181592,43.8758339],[125.3185403,43.8616582],[125.3188407,43.8485746],[125.3190419,43.8377627],[125.3192381,43.8303151],[125.3195895,43.8170287],[125.3200124,43.7975539],[125.3209332,43.7872104]]]}},{"type":"Feature","properties":{"route_id":"rm9642908","route_name":"Changchun Subway Line 8","route_name_local":"长春轨道交通8号线","route_ref":"8","route_color":"#25b7bc","network":"Changchun Rail Transit","network_local":"Changchun Rail Transit","operator":"长春市轨道交通集团","city":"Changchun","country":"China","wikidata":"Q15956288","wikipedia":"en:Line 8 (Changchun Subway)","osm_route_ids":[9642899,9652170]},"geometry":{"type":"MultiLineString","coordinates":[[[125.3187705,43.9466603],[125.3238057,43.9531111],[125.3233906,43.9626002],[125.3248085,43.968605],[125.3495705,43.9739234],[125.3612691,43.9738549],[125.3708179,43.973772],[125.3779686,43.9834612],[125.3779953,43.9917557],[125.3911383,43.9955552],[125.4030214,43.9980395],[125.4112161,44.00638]]]}},{"type":"Feature","properties":{"route_id":"rm9642906","route_name":"Changchun Subway Line 2","route_name_local":"长春轨道交通2号线","route_ref":"2","route_color":"#3b6a96","network":"Changchun Rail Transit","network_local":"长春轨道交通","operator":"长春市轨道交通集团","city":"Changchun","country":"China","wikidata":"Q15913266","wikipedia":"en:Line 2 (Changchun Rail Transit)","osm_route_ids":[9642904,9689345]},"geometry":{"type":"MultiLineString","coordinates":[[[125.1658818,43.8309415],[125.1613194,43.8447029],[125.1632564,43.8534805],[125.1777865,43.8647338],[125.1950687,43.8740501],[125.2170152,43.8815235],[125.2336212,43.8815865],[125.2483863,43.8817565],[125.2596863,43.881892],[125.2696503,43.8802596],[125.2802644,43.8763267],[125.2901445,43.875375],[125.3012714,43.8754869],[125.3185777,43.8756987],[125.3276501,43.8758018],[125.338364,43.8780116],[125.3581185,43.8795747],[125.3701589,43.8796928],[125.388097,43.8799209],[125.4033617,43.8797689],[125.419515,43.879233],[125.4378196,43.882556],[125.4667827,43.8889971],[125.4832221,43.8892316],[125.5056295,43.889036],[125.5273714,43.8892757],[125.547201,43.8892302]]]}},{"type":"Feature","properties":{"route_id":"rm17399102","route_name":"Changchun Rail Transit Line 6","route_name_local":"长春轨道交通6号线","route_ref":"6","route_color":"#e88f99","network":"Changchun Rail Transit","network_local":"长春轨道交通","operator":"长春市轨道交通集团","city":"Changchun","country":"China","wikidata":"Q17041527","wikipedia":null,"osm_route_ids":[17399100,17399101]},"geometry":{"type":"MultiLineString","coordinates":[[[125.1782137,43.8643628],[125.1952284,43.8738919],[125.2088801,43.8686259],[125.2162611,43.8574847],[125.2240717,43.8471908],[125.234661,43.8360129],[125.2439415,43.8301272],[125.2552014,43.8229675],[125.2691784,43.8109043],[125.2699079,43.8020417],[125.2897798,43.7976259],[125.2990555,43.7975964],[125.3064745,43.7976037],[125.3185498,43.7975938],[125.3488105,43.7980296],[125.3609019,43.7849642],[125.3718668,43.7753975],[125.3885648,43.7700646],[125.4022334,43.7685615],[125.4158644,43.7671127],[125.4243001,43.7669907],[125.440534,43.767281]]]}},{"type":"Feature","properties":{"station_id":"n114787792","station_name":"n114787792","station_name_local":null,"network":"Unknown","network_local":null,"operator":null,"city":"Changchun","country":"China","lines":["3"],"wikidata":null},"geometry":{"type":"Point","coordinates":[125.3729732,43.8307121]}},{"type":"Feature","properties":{"station_id":"n114787879","station_name":"n114787879","station_name_local":null,"network":"Unknown","network_local":null,"operator":null,"city":"Changchun","country":"China","lines":["3"],"wikidata":null},"geometry":{"type":"Point","coordinates":[125.3961598,43.8340877]}},{"type":"Feature","properties":{"station_id":"n114787886","station_name":"n114787886","station_name_local":null,"network":"Unknown","network_local":null,"operator":null,"city":"Changchun","country":"China","lines":["3"],"wikidata":null},"geometry":{"type":"Point","coordinates":[125.384295,43.8308472]}},{"type":"Feature","properties":{"station_id":"n1274494974","station_name":"Agricultural Expo Garden","station_name_local":"农博园","network":"Unknown","network_local":null,"operator":null,"city":"Changchun","country":"China","lines":["3"],"wikidata":null,"merged_from":3},"geometry":{"type":"Point","coordinates":[125.43852129999999,43.81188673333333]}},{"type":"Feature","properties":{"station_id":"n1274495271","station_name":"Jingyuetan Natural Park","station_name_local":"净月潭公园","network":"Unknown","network_local":null,"operator":null,"city":"Changchun","country":"China","lines":["3"],"wikidata":null,"merged_from":3},"geometry":{"type":"Point","coordinates":[125.44429083333334,43.801104]}},{"type":"Feature","properties":{"station_id":"n1274495433","station_name":"Baoxiang Street","station_name_local":"宝相街","network":"Unknown","network_local":null,"operator":null,"city":"Changchun","country":"China","lines":["3"],"wikidata":null,"merged_from":3},"geometry":{"type":"Point","coordinates":[125.4335626,43.782599233333336]}},{"type":"Feature","properties":{"station_id":"n1274495480","station_name":"Ski Resort","station_name_local":"滑雪场","network":"Unknown","network_local":null,"operator":null,"city":"Changchun","country":"China","lines":["3"],"wikidata":null,"merged_from":3},"geometry":{"type":"Point","coordinates":[125.44295973333334,43.77406633333334]}},{"type":"Feature","properties":{"station_id":"n1274495512","station_name":"Jinhe Street","station_name_local":"金河街","network":"Unknown","network_local":null,"operator":null,"city":"Changchun","country":"China","lines":["3"],"wikidata":null,"merged_from":3},"geometry":{"type":"Point","coordinates":[125.43266200000001,43.81924466666667]}},{"type":"Feature","properties":{"station_id":"n1274495618","station_name":"Zishan Road","station_name_local":"紫杉路","network":"Unknown","network_local":null,"operator":null,"city":"Changchun","country":"China","lines":["3"],"wikidata":null,"merged_from":3},"geometry":{"type":"Point","coordinates":[125.43369606666666,43.790224300000006]}},{"type":"Feature","properties":{"station_id":"n1274495663","station_name":"Changchun Movie Wonderland","station_name_local":"长影世纪城","network":"Unknown","network_local":null,"operator":null,"city":"Changchun","country":"China","lines":["3","6"],"wikidata":null,"merged_from":4},"geometry":{"type":"Point","coordinates":[125.44294562500001,43.768769275000004]}},{"type":"Feature","properties":{"station_id":"n2023044210","station_name":"Huxi Bridge","station_name_local":"湖西桥","network":"Unknown","network_local":null,"operator":null,"city":"Changchun","country":"China","lines":["3"],"wikidata":null,"merged_from":3},"geometry":{"type":"Point","coordinates":[125.2759228,43.867085366666664]}},{"type":"Feature","properties":{"station_id":"n2023044277","station_name":"Weiguang Street","station_name_local":"卫光街","network":"Unknown","network_local":null,"operator":null,"city":"Changchun","country":"China","lines":["3"],"wikidata":null,"merged_from":3},"geometry":{"type":"Point","coordinates":[125.3089993,43.83013256666666]}},{"type":"Feature","properties":{"station_id":"n6514090354","station_name":"Jilin Avenue","station_name_local":"吉林大路","network":"Unknown","network_local":null,"operator":null,"city":"Changchun","country":"China","lines":["2","4"],"wikidata":null,"merged_from":2},"geometry":{"type":"Point","coordinates":[125.3579038,43.879189249999996]}},{"type":"Feature","properties":{"station_id":"n6514100407","station_name":"Vocational Institute of Technology","station_name_local":"职业学院","network":"Unknown","network_local":null,"operator":null,"city":"Changchun","country":"China","lines":["4"],"wikidata":null},"geometry":{"type":"Point","coordinates":[125.3586538,43.8305529]}},{"type":"Feature","properties":{"station_id":"n6520150612","station_name":"North Ring Road","station_name_local":"北环城路","network":"Unknown","network_local":null,"operator":null,"city":"Changchun","country":"China","lines":["1","8"],"wikidata":null,"merged_from":2},"geometry":{"type":"Point","coordinates":[125.318308,43.9459595]}},{"type":"Feature","properties":{"station_id":"n6520150614","station_name":"Qingfeng Road","station_name_local":"庆丰路","network":"Unknown","network_local":null,"operator":null,"city":"Changchun","country":"China","lines":["1"],"wikidata":null},"geometry":{"type":"Point","coordinates":[125.3176654,43.9345382]}},{"type":"Feature","properties":{"station_id":"n6520150615","station_name":"Yikuang Street","station_name_local":"一匡街","network":"Unknown","network_local":null,"operator":null,"city":"Changchun","country":"China","lines":["1"],"wikidata":null},"geometry":{"type":"Point","coordinates":[125.3176137,43.9227503]}},{"type":"Feature","properties":{"station_id":"n6520150616","station_name":"Changchun Railway Station (North)","station_name_local":"长春站北","network":"Unknown","network_local":null,"operator":null,"city":"Changchun","country":"China","lines":["1","4"],"wikidata":null,"merged_from":2},"geometry":{"type":"Point","coordinates":[125.31674175,43.9115509]}},{"type":"Feature","properties":{"station_id":"n6520150649","station_name":"Shengli Park","station_name_local":"胜利公园","network":"Unknown","network_local":null,"operator":null,"city":"Changchun","country":"China","lines":["1"],"wikidata":null},"geometry":{"type":"Point","coordinates":[125.3178059,43.8978122]}},{"type":"Feature","properties":{"station_id":"n6520150650","station_name":"RENMIN Square","station_name_local":"人民广场","network":"Unknown","network_local":null,"operator":null,"city":"Changchun","country":"China","lines":["1"],"wikidata":null,"merged_from":2},"geometry":{"type":"Point","coordinates":[125.3180685,43.88563395]}},{"type":"Feature","properties":{"station_id":"n6520150651","station_name":"Jiefang Avenue","station_name_local":"解放大路","network":"Unknown","network_local":null,"operator":null,"city":"Changchun","country":"China","lines":["1","2"],"wikidata":null,"merged_from":2},"geometry":{"type":"Point","coordinates":[125.31841925,43.8758159]}},{"type":"Feature","properties":{"station_id":"n6520150653","station_name":"Northeast Normal University","station_name_local":"东北师大","network":"Unknown","network_local":null,"operator":null,"city":"Changchun","country":"China","lines":["1"],"wikidata":null,"merged_from":3},"geometry":{"type":"Point","coordinates":[125.31861789999999,43.861666899999996]}},{"type":"Feature","properties":{"station_id":"n6520150654","station_name":"Gongnong Square","station_name_local":"工农广场","network":"Unknown","network_local":null,"operator":null,"city":"Changchun","country":"China","lines":["1"],"wikidata":null},"geometry":{"type":"Point","coordinates":[125.3188767,43.8485811]}},{"type":"Feature","properties":{"station_id":"n6520150655","station_name":"Fanrong Road","station_name_local":"繁荣路","network":"Unknown","network_local":null,"operator":null,"city":"Changchun","country":"China","lines":["1"],"wikidata":null},"geometry":{"type":"Point","coordinates":[125.3190798,43.8377457]}},{"type":"Feature","properties":{"station_id":"n6520150656","station_name":"Weixing Square","station_name_local":"卫星广场","network":"Unknown","network_local":null,"operator":null,"city":"Changchun","country":"China","lines":["1","3"],"wikidata":null,"merged_from":2},"geometry":{"type":"Point","coordinates":[125.3179496,43.83024195]}},{"type":"Feature","properties":{"station_id":"n6520150657","station_name":"Municipal Government","station_name_local":"市政府","network":"Unknown","network_local":null,"operator":null,"city":"Changchun","country":"China","lines":["1"],"wikidata":"Q28757381"},"geometry":{"type":"Point","coordinates":[125.3196735,43.8170993]}},{"type":"Feature","properties":{"station_id":"n6520150658","station_name":"Huaqing Road","station_name_local":"华庆路","network":"Unknown","network_local":null,"operator":null,"city":"Changchun","country":"China","lines":["1"],"wikidata":"Q31450350"},"geometry":{"type":"Point","coordinates":[125.3199584,43.7976958]}},{"type":"Feature","properties":{"station_id":"n6520150659","station_name":"Hongzuizi","station_name_local":"红嘴子","network":"Unknown","network_local":null,"operator":null,"city":"Changchun","country":"China","lines":["1"],"wikidata":null},"geometry":{"type":"Point","coordinates":[125.3210241,43.7873109]}},{"type":"Feature","properties":{"station_id":"n6520538354","station_name":"Shuangfeng","station_name_local":"双丰","network":"Unknown","network_local":null,"operator":null,"city":"Changchun","country":"China","lines":["2","6"],"wikidata":null,"merged_from":2},"geometry":{"type":"Point","coordinates":[125.1779499,43.86459165]}},{"type":"Feature","properties":{"station_id":"n6520538355","station_name":"Changchun West Railway Station","station_name_local":"长春西站","network":"Unknown","network_local":null,"operator":null,"city":"Changchun","country":"China","lines":["2","6"],"wikidata":null,"merged_from":2},"geometry":{"type":"Point","coordinates":[125.19510305,43.87402]}},{"type":"Feature","properties":{"station_id":"n6520538356","station_name":"Xinglongpu","station_name_local":"兴隆堡","network":"Unknown","network_local":null,"operator":null,"city":"Changchun","country":"China","lines":["2"],"wikidata":null},"geometry":{"type":"Point","coordinates":[125.2169649,43.8816153]}},{"type":"Feature","properties":{"station_id":"n6520538357","station_name":"West Ring Road","station_name_local":"西环城路","network":"Unknown","network_local":null,"operator":null,"city":"Changchun","country":"China","lines":["2"],"wikidata":null},"geometry":{"type":"Point","coordinates":[125.2336196,43.8816508]}},{"type":"Feature","properties":{"station_id":"n6520538358","station_name":"Heping Street","station_name_local":"和平大街","network":"Unknown","network_local":null,"operator":null,"city":"Changchun","country":"China","lines":["2"],"wikidata":null},"geometry":{"type":"Point","coordinates":[125.2483808,43.8818194]}},{"type":"Feature","properties":{"station_id":"n6520538359","station_name":"Wanfu Street","station_name_local":"万福街","network":"Unknown","network_local":null,"operator":null,"city":"Changchun","country":"China","lines":["2"],"wikidata":null},"geometry":{"type":"Point","coordinates":[125.2596844,43.8819579]}},{"type":"Feature","properties":{"station_id":"n6520538365","station_name":"Jingyang Square","station_name_local":"景阳广场","network":"Unknown","network_local":null,"operator":null,"city":"Changchun","country":"China","lines":["2"],"wikidata":null},"geometry":{"type":"Point","coordinates":[125.2696886,43.880319]}},{"type":"Feature","properties":{"station_id":"n6520538366","station_name":"Jiefang Overpass","station_name_local":"解放桥","network":"Unknown","network_local":null,"operator":null,"city":"Changchun","country":"China","lines":["2","3"],"wikidata":null,"merged_from":2},"geometry":{"type":"Point","coordinates":[125.2806107,43.875287]}},{"type":"Feature","properties":{"station_id":"n6520538367","station_name":"Jianshe Square","station_name_local":"建设广场","network":"长春轨道交通","network_local":"长春轨道交通","operator":"长春市轨道交通集团","city":"Changchun","country":"China","lines":["2"],"wikidata":"Q56256684"},"geometry":{"type":"Point","coordinates":[125.2901427,43.8754439]}},{"type":"Feature","properties":{"station_id":"n6520538368","station_name":"Wenhua Square","station_name_local":"文化广场","network":"Unknown","network_local":null,"operator":null,"city":"Changchun","country":"China","lines":["2"],"wikidata":null,"merged_from":2},"geometry":{"type":"Point","coordinates":[125.30193535,43.8762916]}},{"type":"Feature","properties":{"station_id":"n6520538369","station_name":"Pingyang Street","station_name_local":"平阳街","network":"Unknown","network_local":null,"operator":null,"city":"Changchun","country":"China","lines":["2"],"wikidata":null},"geometry":{"type":"Point","coordinates":[125.3276525,43.8758743]}},{"type":"Feature","properties":{"station_id":"n6520538370","station_name":"Nanguan","station_name_local":"南关","network":"Unknown","network_local":null,"operator":null,"city":"Changchun","country":"China","lines":["2"],"wikidata":null},"geometry":{"type":"Point","coordinates":[125.3383213,43.878075]}},{"type":"Feature","properties":{"station_id":"n6520538371","station_name":"Dongsheng Street","station_name_local":"东盛大街","network":"Unknown","network_local":null,"operator":null,"city":"Changchun","country":"China","lines":["2"],"wikidata":null},"geometry":{"type":"Point","coordinates":[125.370157,43.8797688]}},{"type":"Feature","properties":{"station_id":"n6520538372","station_name":"East Ring Road","station_name_local":"东环城路","network":"Unknown","network_local":null,"operator":null,"city":"Changchun","country":"China","lines":["2"],"wikidata":null},"geometry":{"type":"Point","coordinates":[125.3880963,43.8799897]}},{"type":"Feature","properties":{"station_id":"n6520538373","station_name":"Changqing","station_name_local":"长青","network":"Unknown","network_local":null,"operator":null,"city":"Changchun","country":"China","lines":["2"],"wikidata":null},"geometry":{"type":"Point","coordinates":[125.4033663,43.8798389]}},{"type":"Feature","properties":{"station_id":"n6520538374","station_name":"Dongfang Square","station_name_local":"东方广场","network":"Unknown","network_local":null,"operator":null,"city":"Changchun","country":"China","lines":["2"],"wikidata":null},"geometry":{"type":"Point","coordinates":[125.4194854,43.8793306]}},{"type":"Feature","properties":{"station_id":"n6520541270","station_name":"Beiyatai Street","station_name_local":"北亚泰大街","network":"Unknown","network_local":null,"operator":null,"city":"Changchun","country":"China","lines":["4"],"wikidata":null},"geometry":{"type":"Point","coordinates":[125.3304019,43.9102261]}},{"type":"Feature","properties":{"station_id":"n6520723081","station_name":"Yatai Overpass","station_name_local":"亚泰立交桥","network":"Unknown","network_local":null,"operator":null,"city":"Changchun","country":"China","lines":["3"],"wikidata":null},"geometry":{"type":"Point","coordinates":[125.3327554,43.8301143]}},{"type":"Feature","properties":{"station_id":"n6520747189","station_name":"Yitong River","station_name_local":"伊通河","network":"Unknown","network_local":null,"operator":null,"city":"Changchun","country":"China","lines":["3"],"wikidata":null},"geometry":{"type":"Point","coordinates":[125.343318,43.830392]}},{"type":"Feature","properties":{"station_id":"n6520747199","station_name":"Jilin TV and Radio Center","station_name_local":"吉林广电","network":"Unknown","network_local":null,"operator":null,"city":"Changchun","country":"China","lines":["3"],"wikidata":null},"geometry":{"type":"Point","coordinates":[125.3728061,43.8307908]}},{"type":"Feature","properties":{"station_id":"n6520747215","station_name":"Conference and Exhibition Centre","station_name_local":"会展中心","network":"Unknown","network_local":null,"operator":null,"city":"Changchun","country":"China","lines":["3"],"wikidata":null},"geometry":{"type":"Point","coordinates":[125.3842939,43.8308264]}},{"type":"Feature","properties":{"station_id":"n6520747221","station_name":"Shiji Square","station_name_local":"世纪广场","network":"Unknown","network_local":null,"operator":null,"city":"Changchun","country":"China","lines":["3"],"wikidata":null},"geometry":{"type":"Point","coordinates":[125.3961897,43.8341161]}},{"type":"Feature","properties":{"station_id":"n6520747254","station_name":"Jinxin Street","station_name_local":"金鑫街","network":"Unknown","network_local":null,"operator":null,"city":"Changchun","country":"China","lines":["3"],"wikidata":null},"geometry":{"type":"Point","coordinates":[125.4143442,43.8319177]}},{"type":"Feature","properties":{"station_id":"n6520747266","station_name":"Boshuo Road","station_name_local":"博硕路","network":"Unknown","network_local":null,"operator":null,"city":"Changchun","country":"China","lines":["3"],"wikidata":null,"merged_from":2},"geometry":{"type":"Point","coordinates":[125.42277945000001,43.827278199999995]}},{"type":"Feature","properties":{"station_id":"n6520756271","station_name":"Qianjin Street","station_name_local":"前进大街","network":"Unknown","network_local":null,"operator":null,"city":"Changchun","country":"China","lines":["3"],"wikidata":null},"geometry":{"type":"Point","coordinates":[125.2870131,43.8298425]}},{"type":"Feature","properties":{"station_id":"n6520756275","station_name":"Weiming Street","station_name_local":"卫明街","network":"Unknown","network_local":null,"operator":null,"city":"Changchun","country":"China","lines":["3"],"wikidata":null},"geometry":{"type":"Point","coordinates":[125.296282,43.8300364]}},{"type":"Feature","properties":{"station_id":"n6521278780","station_name":"Changchun Railway Station","station_name_local":"长春站","network":"Unknown","network_local":null,"operator":null,"city":"Changchun","country":"China","lines":["1","3"],"wikidata":null,"merged_from":2},"geometry":{"type":"Point","coordinates":[125.3171986,43.9068417]}},{"type":"Feature","properties":{"station_id":"n6521283092","station_name":"Liaoning Road","station_name_local":"辽宁路","network":"Unknown","network_local":null,"operator":null,"city":"Changchun","country":"China","lines":["3"],"wikidata":"Q15900486"},"geometry":{"type":"Point","coordinates":[125.3080831,43.9067099]}},{"type":"Feature","properties":{"station_id":"n6521283111","station_name":"Xi'an Bridge","station_name_local":"西安桥","network":"Unknown","network_local":null,"operator":null,"city":"Changchun","country":"China","lines":["3"],"wikidata":"Q15902416"},"geometry":{"type":"Point","coordinates":[125.2938138,43.892567]}},{"type":"Feature","properties":{"station_id":"n6521283113","station_name":"Nanchang Road","station_name_local":"南昌路","network":"Unknown","network_local":null,"operator":null,"city":"Changchun","country":"China","lines":["3"],"wikidata":null},"geometry":{"type":"Point","coordinates":[125.2904624,43.8877727]}},{"type":"Feature","properties":{"station_id":"n6521283115","station_name":"Chaoyang Bridge","station_name_local":"朝阳桥","network":"长春轨道交通","network_local":"长春轨道交通","operator":"长春轨道交通集团","city":"Changchun","country":"China","lines":["3"],"wikidata":null},"geometry":{"type":"Point","coordinates":[125.2866644,43.882557]}},{"type":"Feature","properties":{"station_id":"n6521283132","station_name":"Kuanping Bridge","station_name_local":"宽平桥","network":"Unknown","network_local":null,"operator":null,"city":"Changchun","country":"China","lines":["3"],"wikidata":null},"geometry":{"type":"Point","coordinates":[125.2677414,43.8603797]}},{"type":"Feature","properties":{"station_id":"n6521283135","station_name":"Fusong Road","station_name_local":"抚松路","network":"Unknown","network_local":null,"operator":null,"city":"Changchun","country":"China","lines":["3"],"wikidata":null},"geometry":{"type":"Point","coordinates":[125.2618083,43.8556993]}},{"type":"Feature","properties":{"station_id":"n6521283146","station_name":"Mengjiatun","station_name_local":"孟家屯","network":"Unknown","network_local":null,"operator":null,"city":"Changchun","country":"China","lines":["3"],"wikidata":null},"geometry":{"type":"Point","coordinates":[125.2558203,43.8488348]}},{"type":"Feature","properties":{"station_id":"n6521283157","station_name":"Huguang Road","station_name_local":"湖光路","network":"Unknown","network_local":null,"operator":null,"city":"Changchun","country":"China","lines":["3"],"wikidata":null},"geometry":{"type":"Point","coordinates":[125.2604768,43.8417841]}},{"type":"Feature","properties":{"station_id":"n6521283168","station_name":"Diantai Street","station_name_local":"电台街","network":"Unknown","network_local":null,"operator":null,"city":"Changchun","country":"China","lines":["3"],"wikidata":"Q11587649","merged_from":2},"geometry":{"type":"Point","coordinates":[125.27168435,43.83046995]}},{"type":"Feature","properties":{"station_id":"n6522409293","station_name":"Guangtong Road","station_name_local":"广通路","network":"长春市轨道交通集团","network_local":null,"operator":"长春市轨道交通集团","city":"Changchun","country":"China","lines":["8"],"wikidata":"Q60683233"},"geometry":{"type":"Point","coordinates":[125.4111297,44.006414]}},{"type":"Feature","properties":{"station_id":"n6522409295","station_name":"Olympic Park","station_name_local":"奥林匹克公园","network":"Unknown","network_local":null,"operator":null,"city":"Changchun","country":"China","lines":["8"],"wikidata":null},"geometry":{"type":"Point","coordinates":[125.4029978,43.9980433]}},{"type":"Feature","properties":{"station_id":"n6522409296","station_name":"Institute of Geography","station_name_local":"地理所","network":"Unknown","network_local":null,"operator":null,"city":"Changchun","country":"China","lines":["8"],"wikidata":null},"geometry":{"type":"Point","coordinates":[125.3911404,43.995564]}},{"type":"Feature","properties":{"station_id":"n6522409298","station_name":"Daxuecheng Road","station_name_local":"大学城路","network":"Unknown","network_local":null,"operator":null,"city":"Changchun","country":"China","lines":["8"],"wikidata":null},"geometry":{"type":"Point","coordinates":[125.377962,43.9917591]}},{"type":"Feature","properties":{"station_id":"n6522409299","station_name":"North Lake Bridge","station_name_local":"北湖大桥","network":"Unknown","network_local":null,"operator":null,"city":"Changchun","country":"China","lines":["8"],"wikidata":null},"geometry":{"type":"Point","coordinates":[125.3495715,43.9739445]}},{"type":"Feature","properties":{"station_id":"n6522409300","station_name":"North Lake Park","station_name_local":"北湖公园","network":"Unknown","network_local":null,"operator":null,"city":"Changchun","country":"China","lines":["8"],"wikidata":null},"geometry":{"type":"Point","coordinates":[125.3612549,43.9739721]}},{"type":"Feature","properties":{"station_id":"n6522409301","station_name":"Guangji Road","station_name_local":"光机路","network":"Unknown","network_local":null,"operator":null,"city":"Changchun","country":"China","lines":["8"],"wikidata":null},"geometry":{"type":"Point","coordinates":[125.3779408,43.9834703]}},{"type":"Feature","properties":{"station_id":"n6522409302","station_name":"Xiaonan","station_name_local":"小南","network":"Unknown","network_local":null,"operator":null,"city":"Changchun","country":"China","lines":["8"],"wikidata":null},"geometry":{"type":"Point","coordinates":[125.3233647,43.9626029]}},{"type":"Feature","properties":{"station_id":"n6522409303","station_name":"Xiaochengzi Street","station_name_local":"小城子街","network":"Unknown","network_local":null,"operator":null,"city":"Changchun","country":"China","lines":["8"],"wikidata":null},"geometry":{"type":"Point","coordinates":[125.3251527,43.9688244]}},{"type":"Feature","properties":{"station_id":"n6522409305","station_name":"No.123 Middle School","station_name_local":"一二三中学","network":"Unknown","network_local":null,"operator":null,"city":"Changchun","country":"China","lines":["8"],"wikidata":null},"geometry":{"type":"Point","coordinates":[125.3237518,43.953064]}},{"type":"Feature","properties":{"station_id":"n6632314159","station_name":"Tiangong Road","station_name_local":"天工路","network":"Unknown","network_local":null,"operator":null,"city":"Changchun","country":"China","lines":["4"],"wikidata":"Q17041616"},"geometry":{"type":"Point","coordinates":[125.3597469,43.7931645]}},{"type":"Feature","properties":{"station_id":"n6632314160","station_name":"伪满皇宫","station_name_local":"伪满皇宫","network":"Unknown","network_local":null,"operator":null,"city":"Changchun","country":"China","lines":["3"],"wikidata":"Q10885610"},"geometry":{"type":"Point","coordinates":[125.3457716,43.9042814]}},{"type":"Feature","properties":{"station_id":"n6661071072","station_name":"South Ring Road","station_name_local":"南环城路","network":"Unknown","network_local":null,"operator":null,"city":"Changchun","country":"China","lines":["4"],"wikidata":null},"geometry":{"type":"Point","coordinates":[125.3589639,43.8148804]}},{"type":"Feature","properties":{"station_id":"n8556305258","station_name":"Dong Guang Chang","station_name_local":"东广场","network":"Unknown","network_local":null,"operator":null,"city":"Changchun","country":"China","lines":["3"],"wikidata":"Q105942901"},"geometry":{"type":"Point","coordinates":[125.3326374,43.90662]}},{"type":"Feature","properties":{"station_id":"n9160356669","station_name":"Jieda Avenue","station_name_local":"捷达大路","network":"Unknown","network_local":null,"operator":null,"city":"Changchun","country":"China","lines":["2"],"wikidata":null},"geometry":{"type":"Point","coordinates":[125.1612429,43.8447033]}},{"type":"Feature","properties":{"station_id":"n9160356670","station_name":"West Lake","station_name_local":"西湖","network":"Unknown","network_local":null,"operator":null,"city":"Changchun","country":"China","lines":["2"],"wikidata":null},"geometry":{"type":"Point","coordinates":[125.1631991,43.8535296]}},{"type":"Feature","properties":{"station_id":"n9160356671","station_name":"Automobile Park","station_name_local":"汽车公园","network":"Unknown","network_local":null,"operator":null,"city":"Changchun","country":"China","lines":["2"],"wikidata":null},"geometry":{"type":"Point","coordinates":[125.1658063,43.8309336]}},{"type":"Feature","properties":{"station_id":"n10923927279","station_name":"Yisheng Street","station_name_local":"宜盛街","network":"Unknown","network_local":null,"operator":null,"city":"Changchun","country":"China","lines":["4"],"wikidata":null},"geometry":{"type":"Point","coordinates":[125.3591658,43.8046055]}},{"type":"Feature","properties":{"station_id":"n10966530424","station_name":"Tianxin Road","station_name_local":"天新路","network":"Unknown","network_local":null,"operator":null,"city":"Changchun","country":"China","lines":["4"],"wikidata":"Q119122349"},"geometry":{"type":"Point","coordinates":[125.3599098,43.7527684]}},{"type":"Feature","properties":{"station_id":"n10966530425","station_name":"Qianshilipu","station_name_local":"前十里堡","network":"Unknown","network_local":null,"operator":null,"city":"Changchun","country":"China","lines":["4"],"wikidata":"Q119122348"},"geometry":{"type":"Point","coordinates":[125.3597513,43.7609468]}},{"type":"Feature","properties":{"station_id":"n10966530426","station_name":"Tianpu Road","station_name_local":"天普路","network":"Unknown","network_local":null,"operator":null,"city":"Changchun","country":"China","lines":["4"],"wikidata":"Q119122347"},"geometry":{"type":"Point","coordinates":[125.3595877,43.7688874]}},{"type":"Feature","properties":{"station_id":"n10966530427","station_name":"Tianqing Road","station_name_local":"天青路","network":"Unknown","network_local":null,"operator":null,"city":"Changchun","country":"China","lines":["4"],"wikidata":"Q119122345"},"geometry":{"type":"Point","coordinates":[125.3594446,43.7760478]}},{"type":"Feature","properties":{"station_id":"n10966530428","station_name":"Fuzhi Avenue","station_name_local":"福祉大路","network":"Unknown","network_local":null,"operator":null,"city":"Changchun","country":"China","lines":["4","6"],"wikidata":"Q119122346","merged_from":2},"geometry":{"type":"Point","coordinates":[125.36020255,43.784423700000005]}},{"type":"Feature","properties":{"station_id":"n11432008356","station_name":"芙蓉桥","station_name_local":"芙蓉桥","network":"Unknown","network_local":null,"operator":null,"city":"Changchun","country":"China","lines":["3"],"wikidata":null},"geometry":{"type":"Point","coordinates":[125.3019012,43.9028167]}},{"type":"Feature","properties":{"station_id":"n11766230932","station_name":"Shengbowuyuan","station_name_local":"省博物院","network":"Unknown","network_local":null,"operator":null,"city":"Changchun","country":"China","lines":["6"],"wikidata":null},"geometry":{"type":"Point","coordinates":[125.4242767,43.767046]}},{"type":"Feature","properties":{"station_id":"n11766230933","station_name":"Juye Dajie","station_name_local":"聚业大街","network":"Unknown","network_local":null,"operator":null,"city":"Changchun","country":"China","lines":["6"],"wikidata":null},"geometry":{"type":"Point","coordinates":[125.4158278,43.7671661]}},{"type":"Feature","properties":{"station_id":"n11766230934","station_name":"Yinghua Jie","station_name_local":"樱花街","network":"Unknown","network_local":null,"operator":null,"city":"Changchun","country":"China","lines":["6"],"wikidata":null},"geometry":{"type":"Point","coordinates":[125.4022129,43.768615]}},{"type":"Feature","properties":{"station_id":"n11766230935","station_name":"Yatai Zuqiu Jidi","station_name_local":"亚泰足球基地","network":"Unknown","network_local":null,"operator":null,"city":"Changchun","country":"China","lines":["6"],"wikidata":null},"geometry":{"type":"Point","coordinates":[125.3885497,43.7701219]}},{"type":"Feature","properties":{"station_id":"n11766316579","station_name":"Wujiadian","station_name_local":"吴家店","network":"Unknown","network_local":null,"operator":null,"city":"Changchun","country":"China","lines":["6"],"wikidata":null},"geometry":{"type":"Point","coordinates":[125.3719039,43.7753977]}},{"type":"Feature","properties":{"station_id":"n11766316581","station_name":"Nanxi Shidi Gongyuan","station_name_local":"南溪湿地公园","network":"Unknown","network_local":null,"operator":null,"city":"Changchun","country":"China","lines":["6"],"wikidata":null},"geometry":{"type":"Point","coordinates":[125.3488262,43.7980955]}},{"type":"Feature","properties":{"station_id":"n11766349878","station_name":"Xinming Jie","station_name_local":"新明街","network":"Unknown","network_local":null,"operator":null,"city":"Changchun","country":"China","lines":["6"],"wikidata":null},"geometry":{"type":"Point","coordinates":[125.3064419,43.7977025]}},{"type":"Feature","properties":{"station_id":"n11766349879","station_name":"Guidao Jituan","station_name_local":"轨道集团","network":"Unknown","network_local":null,"operator":null,"city":"Changchun","country":"China","lines":["6"],"wikidata":"Q125188088"},"geometry":{"type":"Point","coordinates":[125.2990377,43.7976764]}},{"type":"Feature","properties":{"station_id":"n11766349880","station_name":"Lanraohu Gongyuan","station_name_local":"兰桡湖公园","network":"Unknown","network_local":null,"operator":null,"city":"Changchun","country":"China","lines":["6"],"wikidata":null},"geometry":{"type":"Point","coordinates":[125.2897519,43.7977151]}},{"type":"Feature","properties":{"station_id":"n11766349881","station_name":"Shifayuan","station_name_local":"市法院","network":"Unknown","network_local":null,"operator":null,"city":"Changchun","country":"China","lines":["6"],"wikidata":null},"geometry":{"type":"Point","coordinates":[125.2700537,43.8021173]}},{"type":"Feature","properties":{"station_id":"n11766349882","station_name":"Baihuayuan","station_name_local":"百花园","network":"Unknown","network_local":null,"operator":null,"city":"Changchun","country":"China","lines":["6"],"wikidata":null},"geometry":{"type":"Point","coordinates":[125.2692169,43.8109441]}},{"type":"Feature","properties":{"station_id":"n11766362152","station_name":"Guigu Guangchang","station_name_local":"硅谷广场","network":"Unknown","network_local":null,"operator":null,"city":"Changchun","country":"China","lines":["6"],"wikidata":null},"geometry":{"type":"Point","coordinates":[125.2552104,43.8230324]}},{"type":"Feature","properties":{"station_id":"n11766362153","station_name":"Guanggu Dajie","station_name_local":"光谷大街","network":"Unknown","network_local":null,"operator":null,"city":"Changchun","country":"China","lines":["6"],"wikidata":"Q125188083"},"geometry":{"type":"Point","coordinates":[125.2439451,43.8301689]}},{"type":"Feature","properties":{"station_id":"n11766362154","station_name":"Ouya Maichang","station_name_local":"欧亚卖场","network":"Unknown","network_local":null,"operator":null,"city":"Changchun","country":"China","lines":["6"],"wikidata":"Q125188082"},"geometry":{"type":"Point","coordinates":[125.2346593,43.8360508]}},{"type":"Feature","properties":{"station_id":"n11766362155","station_name":"Feiyue Guangchang","station_name_local":"飞跃广场","network":"Unknown","network_local":null,"operator":null,"city":"Changchun","country":"China","lines":["6"],"wikidata":"Q125188081"},"geometry":{"type":"Point","coordinates":[125.224086,43.8472287]}},{"type":"Feature","properties":{"station_id":"n11766362156","station_name":"Zhinong Dajie","station_name_local":"支农大街","network":"Unknown","network_local":null,"operator":null,"city":"Changchun","country":"China","lines":["6"],"wikidata":"Q125188080"},"geometry":{"type":"Point","coordinates":[125.2162808,43.8575226]}},{"type":"Feature","properties":{"station_id":"n11766362157","station_name":"Tengyue Jie","station_name_local":"腾跃街","network":"Unknown","network_local":null,"operator":null,"city":"Changchun","country":"China","lines":["6"],"wikidata":"Q125188079"},"geometry":{"type":"Point","coordinates":[125.2089283,43.868634]}},{"type":"Feature","properties":{"station_id":"n13091337308","station_name":"Dongxin Road","station_name_local":"东新路","network":"Unknown","network_local":null,"operator":null,"city":"Changchun","country":"China","lines":["4"],"wikidata":"Q10870300"},"geometry":{"type":"Point","coordinates":[125.3595152,43.8897901]}},{"type":"Feature","properties":{"station_id":"n13174729383","station_name":"Ha'erbin Dajie","station_name_local":"哈尔滨大街","network":"Unknown","network_local":null,"operator":null,"city":"Changchun","country":"China","lines":["2"],"wikidata":null},"geometry":{"type":"Point","coordinates":[125.4377159,43.8826451]}},{"type":"Feature","properties":{"station_id":"n13174729386","station_name":"Doujiagou","station_name_local":"窦家沟","network":"Unknown","network_local":null,"operator":null,"city":"Changchun","country":"China","lines":["2"],"wikidata":null},"geometry":{"type":"Point","coordinates":[125.4667803,43.8890554]}},{"type":"Feature","properties":{"station_id":"n13174729389","station_name":"Yingjun Dajie","station_name_local":"英俊大街","network":"Unknown","network_local":null,"operator":null,"city":"Changchun","country":"China","lines":["2"],"wikidata":null},"geometry":{"type":"Point","coordinates":[125.4832223,43.8892951]}},{"type":"Feature","properties":{"station_id":"n13174729392","station_name":"Yingkai Dajie","station_name_local":"英凯大街","network":"Unknown","network_local":null,"operator":null,"city":"Changchun","country":"China","lines":["2"],"wikidata":null},"geometry":{"type":"Point","coordinates":[125.5056268,43.8890979]}},{"type":"Feature","properties":{"station_id":"n13174729395","station_name":"Linxi Dajie","station_name_local":"林溪大街","network":"Unknown","network_local":null,"operator":null,"city":"Changchun","country":"China","lines":["2"],"wikidata":null},"geometry":{"type":"Point","coordinates":[125.5273741,43.8893376]}},{"type":"Feature","properties":{"station_id":"n13174729398","station_name":"Wukaihe Dajie","station_name_local":"雾开河大街","network":"Unknown","network_local":null,"operator":null,"city":"Changchun","country":"China","lines":["2"],"wikidata":null},"geometry":{"type":"Point","coordinates":[125.547201,43.8892854]}},{"type":"Feature","properties":{"station_id":"n693558074","station_name":"DONGDAQIAO Bridge","station_name_local":"东大桥","network":"Unknown","network_local":null,"operator":null,"city":"Changchun","country":"China","lines":["4"],"wikidata":null,"merged_from":2},"geometry":{"type":"Point","coordinates":[125.35003935,43.896741649999996]}},{"type":"Feature","properties":{"station_id":"n693648346","station_name":"Gongping Road","station_name_local":"公平路","network":"Unknown","network_local":null,"operator":null,"city":"Changchun","country":"China","lines":["4"],"wikidata":null},"geometry":{"type":"Point","coordinates":[125.3579079,43.8695281]}},{"type":"Feature","properties":{"station_id":"n693648347","station_name":"Haikou Road","station_name_local":"海口路","network":"Unknown","network_local":null,"operator":null,"city":"Changchun","country":"China","lines":["4"],"wikidata":null},"geometry":{"type":"Point","coordinates":[125.3580554,43.8612335]}},{"type":"Feature","properties":{"station_id":"n693648348","station_name":"Pudong Road","station_name_local":"浦东路","network":"Unknown","network_local":null,"operator":null,"city":"Changchun","country":"China","lines":["4"],"wikidata":null},"geometry":{"type":"Point","coordinates":[125.3581838,43.8544854]}},{"type":"Feature","properties":{"station_id":"n693648349","station_name":"Weihai Street","station_name_local":"威海路","network":"Unknown","network_local":null,"operator":null,"city":"Changchun","country":"China","lines":["4"],"wikidata":null},"geometry":{"type":"Point","coordinates":[125.3582997,43.8481226]}},{"type":"Feature","properties":{"station_id":"n693648350","station_name":"Beihai Road","station_name_local":"北海路","network":"Unknown","network_local":null,"operator":null,"city":"Changchun","country":"China","lines":["4"],"wikidata":null},"geometry":{"type":"Point","coordinates":[125.3584809,43.8393852]}},{"type":"Feature","properties":{"station_id":"n693648351","station_name":"Shirong Road","station_name_local":"世荣路","network":"Unknown","network_local":null,"operator":null,"city":"Changchun","country":"China","lines":["4"],"wikidata":null},"geometry":{"type":"Point","coordinates":[125.3588053,43.8226732]}},{"type":"Feature","properties":{"station_id":"n694272114","station_name":"和安街","station_name_local":"和安街","network":"Unknown","network_local":null,"operator":null,"city":"Changchun","country":"China","lines":["8"],"wikidata":null},"geometry":{"type":"Point","coordinates":[125.3708422,43.9737743]}},{"type":"Feature","properties":{"station_id":"n1255815753","station_name":"Qianjinxi","station_name_local":"前进西","network":"Changchun Rail Transit","network_local":"长春轨道交通","operator":"长春轨道交通集团","city":"Changchun","country":"China","lines":["3"],"wikidata":"Q10899040"},"geometry":{"type":"Point","coordinates":[125.2800112,43.8297915]}},{"type":"Feature","properties":{"station_id":"n1502896516","station_name":"TONGZHI Street","station_name_local":"同志街","network":"长春轨道交通","network_local":"长春轨道交通","operator":"长春轨道交通集团","city":"Changchun","country":"China","lines":["1"],"wikidata":null},"geometry":{"type":"Point","coordinates":[125.3124347,43.8828966]}},{"type":"Feature","properties":{"station_id":"n1502896525","station_name":"硅谷广场（吉大中心校区）","station_name_local":"硅谷广场（吉大中心校区）","network":"长春轨道交通","network_local":"长春轨道交通","operator":"长春轨道交通集团","city":"Changchun","country":"China","lines":["6"],"wikidata":null},"geometry":{"type":"Point","coordinates":[125.2554387,43.8223735]}},{"type":"Feature","properties":{"station_id":"n1503250874","station_name":"飞跃广场","station_name_local":"飞跃广场","network":"长春轨道交通","network_local":"长春轨道交通","operator":"长春轨道交通集团","city":"Changchun","country":"China","lines":["6"],"wikidata":null},"geometry":{"type":"Point","coordinates":[125.2251317,43.8472778]}},{"type":"Feature","properties":{"station_id":"n1503250878","station_name":"汽车公园","station_name_local":"汽车公园","network":"长春轨道交通","network_local":"长春轨道交通","operator":"长春轨道交通集团","city":"Changchun","country":"China","lines":["2"],"wikidata":null},"geometry":{"type":"Point","coordinates":[125.163699,43.8304935]}},{"type":"Feature","properties":{"station_id":"n1503250881","station_name":"孟家屯","station_name_local":"孟家屯","network":"长春轨道交通","network_local":"长春轨道交通","operator":"长春轨道交通集团","city":"Changchun","country":"China","lines":["3"],"wikidata":null},"geometry":{"type":"Point","coordinates":[125.2576636,43.8481842]}},{"type":"Feature","properties":{"station_id":"n1503250884","station_name":"工农广场","station_name_local":"工农广场","network":"长春轨道交通","network_local":"长春轨道交通","operator":"长春轨道交通集团","city":"Changchun","country":"China","lines":["1"],"wikidata":null},"geometry":{"type":"Point","coordinates":[125.3208674,43.8490575]}},{"type":"Feature","properties":{"station_id":"n1503250887","station_name":"威海路","station_name_local":"威海路","network":"长春轨道交通","network_local":"长春轨道交通","operator":"长春轨道交通集团","city":"Changchun","country":"China","lines":["4"],"wikidata":null},"geometry":{"type":"Point","coordinates":[125.3598424,43.8488713]}},{"type":"Feature","properties":{"station_id":"n1503250891","station_name":"岭东路","station_name_local":"岭东路","network":"长春轨道交通","network_local":"长春轨道交通","operator":"长春轨道交通集团","city":"Changchun","country":"China","lines":["2"],"wikidata":null},"geometry":{"type":"Point","coordinates":[125.3874328,43.8723493]}},{"type":"Feature","properties":{"station_id":"n1503250892","station_name":"东环城路","station_name_local":"东环城路","network":"长春轨道交通","network_local":"长春轨道交通","operator":"长春轨道交通集团","city":"Changchun","country":"China","lines":["2"],"wikidata":null},"geometry":{"type":"Point","coordinates":[125.387552,43.8783877]}}]}