{"type":"FeatureCollection","metro_system":{"continent":"asia","country":"China","city":"Fuzhou","osm_networks":["Fuzhou Metro","Unknown","福州地铁","福州地铁集团有限公司"],"operator":"Fuzhou Metro Group","official_website":null,"official_map":"https://en.wikipedia.org/wiki/Line_1_(Fuzhou_Metro)","wikidata":"Q15941872","line_count":6,"station_count":108,"audit":{"strategies_tried":[],"passed":true,"checks":[{"id":"system_exists","ok":true,"detail":"matched OSM system systems/asia/china/asia-china-fuzhou.geojson","level":"error"},{"id":"has_lines","ok":true,"detail":"6 lines","level":"error"},{"id":"has_stations","ok":true,"detail":"108 stations","level":"error"},{"id":"station_ratio","ok":true,"detail":"OSM 108 vs Wikipedia 102（比值 1.06）","level":"error"},{"id":"stations_have_lines","ok":true,"detail":"108/108 站皆有所屬路線","level":"error"},{"id":"stations_named","ok":true,"detail":"102/108 站有名稱","level":"warn"},{"id":"station_order","ok":true,"detail":"所有線路站序合理","level":"warn"}],"reasons":[],"warnings":[],"audited_at":"2026-07-10T07:56:59.645Z"}},"features":[{"type":"Feature","properties":{"route_id":"rm7895188","route_name":"Line 1, Fuzhou Metro","route_name_local":"福州轨道交通一号线","route_ref":"1","route_color":"#eb212f","network":"Fuzhou Metro","network_local":"福州地铁","operator":"Fuzhou Metro Group","city":"Fuzhou","country":"China","wikidata":"Q15941872","wikipedia":"en:Line 1 (Fuzhou Metro)","osm_route_ids":[6028932,7895187]},"geometry":{"type":"MultiLineString","coordinates":[[[119.3245573,26.146373],[119.3161848,26.1369927],[119.3137457,26.1285853],[119.3132838,26.1160201],[119.3088895,26.1071225],[119.3007337,26.1052889],[119.2921431,26.0994338],[119.2943721,26.0890485],[119.2968833,26.0801776],[119.2994615,26.0722954],[119.3048886,26.0600382],[119.3157362,26.0467366],[119.3208361,26.0388494],[119.330414,26.0287925],[119.3384832,26.0201289],[119.3435686,26.0134793],[119.3487881,26.0047256],[119.3552142,25.9990842],[119.3636933,25.9936721],[119.3751435,25.987187],[119.3855882,25.9887247],[119.3973635,25.9952408],[119.4099014,25.9970549],[119.415783,25.987133],[119.4211174,25.9818348]]]}},{"type":"Feature","properties":{"route_id":"rm10458608","route_name":"Line 2, Fuzhou Metro","route_name_local":"福州轨道交通二号线","route_ref":"2","route_color":"#00643a","network":"Fuzhou Metro","network_local":"福州地铁","operator":"Fuzhou Metro Group","city":"Fuzhou","country":"China","wikidata":"Q20063925","wikipedia":"zh:福州地铁2号线","osm_route_ids":[6441135,10458586]},"geometry":{"type":"MultiLineString","coordinates":[[[119.3674244,26.0482223],[119.3701392,26.0562733],[119.3578928,26.0698252],[119.3455656,26.0756692],[119.3356721,26.0773681],[119.3223171,26.0796039],[119.3092611,26.0795409],[119.2983163,26.0793684],[119.2919668,26.0748216],[119.2886154,26.065733],[119.2812174,26.0639523],[119.2660732,26.0515778],[119.2574652,26.0506731],[119.2452238,26.0505185],[119.2378019,26.0500455],[119.2102001,26.0444787],[119.2023394,26.0445787],[119.1986021,26.0616174],[119.1953686,26.0701476],[119.1824678,26.0787137],[119.169343,26.0888133],[119.1482897,26.1065834]],[[119.1481667,26.1064443],[119.1692598,26.0887124],[119.182394,26.0786097],[119.195263,26.0700628],[119.1984697,26.0615823],[119.202248,26.044484],[119.2102377,26.0443386],[119.2378116,26.0499196],[119.2452342,26.0503923],[119.2574666,26.0505208],[119.2661277,26.0514627],[119.2813107,26.0638245],[119.2886178,26.0655794],[119.2921034,26.0748195],[119.298319,26.0792172],[119.3092683,26.0794179],[119.322117,26.0794993],[119.3356663,26.077244],[119.3578081,26.0697241],[119.3699991,26.056249],[119.3673752,26.0482198]]]}},{"type":"Feature","properties":{"route_id":"rm14085418","route_name":"福州地铁5号线","route_name_local":"福州地铁5号线","route_ref":"5","route_color":"#893b67","network":"Fuzhou Metro","network_local":"福州地铁","operator":null,"city":"Fuzhou","country":"China","wikidata":"Q25305553","wikipedia":"en:Line 5 (Fuzhou Metro)","osm_route_ids":[14085416,14085417]},"geometry":{"type":"MultiLineString","coordinates":[[[119.2244087,26.1145356],[119.2422184,26.0879215],[119.2452791,26.0766163],[119.2470399,26.0693267],[119.2537492,26.0585004],[119.2575221,26.0517062],[119.2621954,26.0418109],[119.2679937,26.037058],[119.2717176,26.0280325],[119.2724906,26.0165116],[119.2768342,26.0088557],[119.2884862,26.0023894],[119.3061619,26.000259],[119.3157215,25.9967909],[119.3227094,25.9898573],[119.3300435,25.990332],[119.3465858,25.9891465],[119.3577476,25.9873459],[119.3674291,25.9873048],[119.3871438,25.9892203]]]}},{"type":"Feature","properties":{"route_id":"rm14509136","route_name":"福州地铁6号线","route_name_local":"福州地铁6号线","route_ref":"6","route_color":"#005eb8","network":"Fuzhou Metro","network_local":"福州地铁","operator":null,"city":"Fuzhou","country":"China","wikidata":"Q24886992","wikipedia":"en:Line 6 (Fuzhou Metro)","osm_route_ids":[14509134,14509135]},"geometry":{"type":"MultiLineString","coordinates":[[[119.3528958,26.0237833],[119.3598788,26.0182148],[119.3838089,26.0091416],[119.4100515,25.9971229],[119.4155736,25.9870422],[119.4697399,25.9595767],[119.485609,25.9543007],[119.4979028,25.9611692],[119.5110953,25.9612368],[119.5246686,25.9539465],[119.5350892,25.9422667],[119.5419758,25.9339182],[119.5780736,25.9154915],[119.5990214,25.9026464]]]}},{"type":"Feature","properties":{"route_id":"rm18957313","route_name":"Binhai Express","route_name_local":"滨海快线","route_ref":"F1","route_color":"#00adbb","network":"Fuzhou Metro","network_local":"福州地铁","operator":"福州地铁","city":"Fuzhou","country":"China","wikidata":"Q59135401","wikipedia":null,"osm_route_ids":[15700253,18957312,19658164,19658165,19658166,19658167]},"geometry":{"type":"MultiLineString","coordinates":[[[119.3127251,26.1123299],[119.3117574,26.0899043],[119.3144096,26.0783573],[119.3149436,26.0670111],[119.3177207,26.0386011],[119.33085,25.9919273],[119.3817365,25.9332844],[119.4805193,25.926693],[119.5932759,25.894705],[119.6055412,25.8869755],[119.6703218,25.9310917],[119.6907166,25.9771182]]]}},{"type":"Feature","properties":{"route_id":"rm16253271","route_name":"Line 4, Fuzhou Metro","route_name_local":"福州地铁4号线","route_ref":"4","route_color":"#ff7f00","network":"Fuzhou Metro","network_local":"福州地铁","operator":null,"city":"Fuzhou","country":"China","wikidata":"Q25346431","wikipedia":"en:Line 4 (Fuzhou Metro)","osm_route_ids":[16253268,16253269]},"geometry":{"type":"MultiLineString","coordinates":[[[119.3300439,25.9901996],[119.3445646,25.9932895],[119.3549415,25.9988323],[119.3605942,26.0193109],[119.3546799,26.0329071],[119.3448634,26.04364],[119.3398424,26.0575973],[119.3418618,26.067616],[119.3453602,26.0749074],[119.347608,26.0842402],[119.3474564,26.0929261],[119.3330393,26.0961826],[119.3214035,26.0940584],[119.3093392,26.0905945],[119.3025496,26.0899258],[119.2945207,26.0889937],[119.2853578,26.087853],[119.2787758,26.0855305],[119.2677602,26.0814992],[119.2573414,26.0795545],[119.2444516,26.0767308],[119.2333547,26.0678511],[119.2329845,26.059952]],[[119.2331134,26.0599569],[119.2334705,26.0677787],[119.2445355,26.0766161],[119.2573469,26.0794092],[119.2678237,26.0813524],[119.2788228,26.0854218],[119.2853703,26.0877897],[119.2945264,26.0889473],[119.3025583,26.0898397],[119.3093517,26.0905124],[119.3214209,26.0939449],[119.3330314,26.0960602],[119.3472997,26.0929063],[119.3475101,26.0842532],[119.3452016,26.0749494],[119.3417233,26.0676449],[119.3396912,26.057617],[119.3447953,26.0435272],[119.3545727,26.0328831],[119.360464,26.0193196],[119.3549237,25.9988924],[119.344553,25.9934386],[119.3300416,25.9905526]]]}},{"type":"Feature","properties":{"station_id":"n1056561054","station_name":"n1056561054","station_name_local":null,"network":"Unknown","network_local":null,"operator":null,"city":"Fuzhou","country":"China","lines":["1"],"wikidata":null},"geometry":{"type":"Point","coordinates":[119.4214319,25.9817107]}},{"type":"Feature","properties":{"station_id":"n1056561074","station_name":"n1056561074","station_name_local":null,"network":"Unknown","network_local":null,"operator":null,"city":"Fuzhou","country":"China","lines":["1"],"wikidata":null},"geometry":{"type":"Point","coordinates":[119.3856715,25.9888403]}},{"type":"Feature","properties":{"station_id":"n1316108788","station_name":"n1316108788","station_name_local":null,"network":"Unknown","network_local":null,"operator":null,"city":"Fuzhou","country":"China","lines":["6"],"wikidata":null},"geometry":{"type":"Point","coordinates":[119.5247025,25.9537032]}},{"type":"Feature","properties":{"station_id":"n1316108790","station_name":"n1316108790","station_name_local":null,"network":"Unknown","network_local":null,"operator":null,"city":"Fuzhou","country":"China","lines":["6"],"wikidata":null},"geometry":{"type":"Point","coordinates":[119.5238603,25.9546208]}},{"type":"Feature","properties":{"station_id":"n1316108792","station_name":"n1316108792","station_name_local":null,"network":"Unknown","network_local":null,"operator":null,"city":"Fuzhou","country":"China","lines":["6"],"wikidata":null},"geometry":{"type":"Point","coordinates":[119.5244598,25.9549814]}},{"type":"Feature","properties":{"station_id":"n1316108796","station_name":"n1316108796","station_name_local":null,"network":"Unknown","network_local":null,"operator":null,"city":"Fuzhou","country":"China","lines":["6"],"wikidata":null},"geometry":{"type":"Point","coordinates":[119.4856062,25.9543683]}},{"type":"Feature","properties":{"station_id":"n4043021690","station_name":"Xiayang","station_name_local":"下洋","network":"Unknown","network_local":null,"operator":null,"city":"Fuzhou","country":"China","lines":["1"],"wikidata":"Q28152192"},"geometry":{"type":"Point","coordinates":[119.4157533,25.9871196]}},{"type":"Feature","properties":{"station_id":"n4043025503","station_name":"Sanchajie","station_name_local":"三叉街","network":"Unknown","network_local":null,"operator":null,"city":"Fuzhou","country":"China","lines":["1","F1"],"wikidata":"Q24836888","merged_from":2},"geometry":{"type":"Point","coordinates":[119.3192008,26.038863499999998]}},{"type":"Feature","properties":{"station_id":"n4209767915","station_name":"Baihuting","station_name_local":"白湖亭","network":"Unknown","network_local":null,"operator":null,"city":"Fuzhou","country":"China","lines":["1"],"wikidata":null,"merged_from":3},"geometry":{"type":"Point","coordinates":[119.3304703,26.028838433333334]}},{"type":"Feature","properties":{"station_id":"n4345238083","station_name":"Hangcheng","station_name_local":"航城","network":"Unknown","network_local":null,"operator":null,"city":"Fuzhou","country":"China","lines":["6"],"wikidata":"Q113462025"},"geometry":{"type":"Point","coordinates":[119.4856465,25.9543656]}},{"type":"Feature","properties":{"station_id":"n6448648423","station_name":"Taiyu","station_name_local":"台屿","network":"Unknown","network_local":null,"operator":null,"city":"Fuzhou","country":"China","lines":["5"],"wikidata":null,"merged_from":2},"geometry":{"type":"Point","coordinates":[119.2768997,26.0089273]}},{"type":"Feature","properties":{"station_id":"n6448648424","station_name":"Dongling","station_name_local":"东岭","network":"Unknown","network_local":null,"operator":null,"city":"Fuzhou","country":"China","lines":["5"],"wikidata":null,"merged_from":2},"geometry":{"type":"Point","coordinates":[119.2725887,26.01652405]}},{"type":"Feature","properties":{"station_id":"n6448648425","station_name":"Xiajing","station_name_local":"霞镜","network":"Unknown","network_local":null,"operator":null,"city":"Fuzhou","country":"China","lines":["5"],"wikidata":null,"merged_from":2},"geometry":{"type":"Point","coordinates":[119.2717552,26.028027]}},{"type":"Feature","properties":{"station_id":"n6448648426","station_name":"Fenggangli","station_name_local":"凤岗里","network":"Unknown","network_local":null,"operator":null,"city":"Fuzhou","country":"China","lines":["5"],"wikidata":null,"merged_from":2},"geometry":{"type":"Point","coordinates":[119.26223145,26.041855249999998]}},{"type":"Feature","properties":{"station_id":"n6448648427","station_name":"Marong","station_name_local":"马榕","network":"Unknown","network_local":null,"operator":null,"city":"Fuzhou","country":"China","lines":["5"],"wikidata":null,"merged_from":2},"geometry":{"type":"Point","coordinates":[119.2538159,26.058542699999997]}},{"type":"Feature","properties":{"station_id":"n6448648429","station_name":"Xiawu","station_name_local":"下吴","network":"Unknown","network_local":null,"operator":null,"city":"Fuzhou","country":"China","lines":["6"],"wikidata":"Q113462739"},"geometry":{"type":"Point","coordinates":[119.5780874,25.9155265]}},{"type":"Feature","properties":{"station_id":"n6448648430","station_name":"Wanshou","station_name_local":"万寿","network":"Unknown","network_local":null,"operator":null,"city":"Fuzhou","country":"China","lines":["6"],"wikidata":"Q113462742"},"geometry":{"type":"Point","coordinates":[119.5990359,25.9026647]}},{"type":"Feature","properties":{"station_id":"n6448648433","station_name":"Heshang","station_name_local":"鹤上","network":"Unknown","network_local":null,"operator":null,"city":"Fuzhou","country":"China","lines":["6"],"wikidata":"Q113462736"},"geometry":{"type":"Point","coordinates":[119.5351223,25.9422786]}},{"type":"Feature","properties":{"station_id":"n6448648435","station_name":"Yingqian","station_name_local":"营前","network":"Unknown","network_local":null,"operator":null,"city":"Fuzhou","country":"China","lines":["6"],"wikidata":"Q106353760"},"geometry":{"type":"Point","coordinates":[119.469562,25.9596486]}},{"type":"Feature","properties":{"station_id":"n6448648438","station_name":"Zhenban","station_name_local":"阵坂","network":"Unknown","network_local":null,"operator":null,"city":"Fuzhou","country":"China","lines":["5"],"wikidata":null,"merged_from":2},"geometry":{"type":"Point","coordinates":[119.24713785,26.069320849999997]}},{"type":"Feature","properties":{"station_id":"n6727006927","station_name":"Xiangfeng","station_name_local":"象峰","network":"Unknown","network_local":null,"operator":null,"city":"Fuzhou","country":"China","lines":["1"],"wikidata":"Q27104895"},"geometry":{"type":"Point","coordinates":[119.324619,26.1463371]}},{"type":"Feature","properties":{"station_id":"n7076285135","station_name":"Ziyang","station_name_local":"紫阳","network":"Unknown","network_local":null,"operator":null,"city":"Fuzhou","country":"China","lines":["2"],"wikidata":"Q28152194"},"geometry":{"type":"Point","coordinates":[119.3221389,26.0795663]}},{"type":"Feature","properties":{"station_id":"n7076285136","station_name":"Shuibu","station_name_local":"水部","network":"Unknown","network_local":null,"operator":null,"city":"Fuzhou","country":"China","lines":["2"],"wikidata":"Q28152177"},"geometry":{"type":"Point","coordinates":[119.3092623,26.0794796]}},{"type":"Feature","properties":{"station_id":"n7076285138","station_name":"Xiyang","station_name_local":"西洋","network":"Unknown","network_local":null,"operator":null,"city":"Fuzhou","country":"China","lines":["2"],"wikidata":"Q27186851"},"geometry":{"type":"Point","coordinates":[119.2920293,26.0748184]}},{"type":"Feature","properties":{"station_id":"n7076285139","station_name":"Ninghua","station_name_local":"宁化","network":"Unknown","network_local":null,"operator":null,"city":"Fuzhou","country":"China","lines":["2"],"wikidata":"Q27186451"},"geometry":{"type":"Point","coordinates":[119.2886166,26.0656523]}},{"type":"Feature","properties":{"station_id":"n7076285140","station_name":"Jinxiang","station_name_local":"金祥","network":"Unknown","network_local":null,"operator":null,"city":"Fuzhou","country":"China","lines":["2"],"wikidata":"Q27186420"},"geometry":{"type":"Point","coordinates":[119.2661003,26.0515185]}},{"type":"Feature","properties":{"station_id":"n7076285141","station_name":"Xiangban","station_name_local":"祥坂","network":"Unknown","network_local":null,"operator":null,"city":"Fuzhou","country":"China","lines":["2"],"wikidata":"Q28152178"},"geometry":{"type":"Point","coordinates":[119.2812631,26.0638845]}},{"type":"Feature","properties":{"station_id":"n7076285143","station_name":"Jinshan","station_name_local":"金山","network":"Unknown","network_local":null,"operator":null,"city":"Fuzhou","country":"China","lines":["2"],"wikidata":"Q27186821"},"geometry":{"type":"Point","coordinates":[119.2574677,26.0505965]}},{"type":"Feature","properties":{"station_id":"n7076285144","station_name":"Hongwan","station_name_local":"洪湾","network":"Unknown","network_local":null,"operator":null,"city":"Fuzhou","country":"China","lines":["2"],"wikidata":"Q27186784"},"geometry":{"type":"Point","coordinates":[119.2452271,26.0504683]}},{"type":"Feature","properties":{"station_id":"n7076285145","station_name":"Juyuanzhou","station_name_local":"桔园洲","network":"Unknown","network_local":null,"operator":null,"city":"Fuzhou","country":"China","lines":["2"],"wikidata":"Q27186638"},"geometry":{"type":"Point","coordinates":[119.237806,26.0499776]}},{"type":"Feature","properties":{"station_id":"n7076285146","station_name":"Houting","station_name_local":"厚庭","network":"Unknown","network_local":null,"operator":null,"city":"Fuzhou","country":"China","lines":["2"],"wikidata":"Q28152179"},"geometry":{"type":"Point","coordinates":[119.2102178,26.0444127]}},{"type":"Feature","properties":{"station_id":"n7076285148","station_name":"Dongyu/Fujian Normal University Station","station_name_local":"董屿·福建师大","network":"Unknown","network_local":null,"operator":null,"city":"Fuzhou","country":"China","lines":["2"],"wikidata":"Q28152184"},"geometry":{"type":"Point","coordinates":[119.2022925,26.0445314]}},{"type":"Feature","properties":{"station_id":"n7076285149","station_name":"Suyang","station_name_local":"苏洋","network":"Unknown","network_local":null,"operator":null,"city":"Fuzhou","country":"China","lines":["2"],"wikidata":"Q28152190"},"geometry":{"type":"Point","coordinates":[119.1545688,26.1017623]}},{"type":"Feature","properties":{"station_id":"n7076285150","station_name":"Shadi","station_name_local":"沙堤","network":"Unknown","network_local":null,"operator":null,"city":"Fuzhou","country":"China","lines":["2"],"wikidata":"Q28152188"},"geometry":{"type":"Point","coordinates":[119.1692962,26.088761]}},{"type":"Feature","properties":{"station_id":"n7076285151","station_name":"Shangjie","station_name_local":"上街","network":"Unknown","network_local":null,"operator":null,"city":"Fuzhou","country":"China","lines":["2"],"wikidata":"Q10868250"},"geometry":{"type":"Point","coordinates":[119.1824303,26.0786579]}},{"type":"Feature","properties":{"station_id":"n7076285152","station_name":"Jinyu","station_name_local":"金屿","network":"Unknown","network_local":null,"operator":null,"city":"Fuzhou","country":"China","lines":["2"],"wikidata":"Q28152186"},"geometry":{"type":"Point","coordinates":[119.1953175,26.0701083]}},{"type":"Feature","properties":{"station_id":"n7076314532","station_name":"Fuzhou South Railway Station","station_name_local":"福州火车南站","network":"Unknown","network_local":null,"operator":null,"city":"Fuzhou","country":"China","lines":["1"],"wikidata":"Q25513958"},"geometry":{"type":"Point","coordinates":[119.3856361,25.9888037]}},{"type":"Feature","properties":{"station_id":"n7412704908","station_name":"Nanmendou","station_name_local":"南门兜","network":"Unknown","network_local":null,"operator":null,"city":"Fuzhou","country":"China","lines":["1"],"wikidata":"Q26261994"},"geometry":{"type":"Point","coordinates":[119.2972792,26.0793696]}},{"type":"Feature","properties":{"station_id":"n9064066522","station_name":"Wuhang","station_name_local":"吴航","network":"Unknown","network_local":null,"operator":null,"city":"Fuzhou","country":"China","lines":["6"],"wikidata":"Q113462735"},"geometry":{"type":"Point","coordinates":[119.5247205,25.9539466]}},{"type":"Feature","properties":{"station_id":"n9157637250","station_name":"Luohanshan","station_name_local":"罗汉山","network":"Unknown","network_local":null,"operator":null,"city":"Fuzhou","country":"China","lines":["1"],"wikidata":"Q27104980"},"geometry":{"type":"Point","coordinates":[119.3138064,26.1286151]}},{"type":"Feature","properties":{"station_id":"n9157637251","station_name":"Xiushan","station_name_local":"秀山","network":"Unknown","network_local":null,"operator":null,"city":"Fuzhou","country":"China","lines":["1"],"wikidata":"Q28085225"},"geometry":{"type":"Point","coordinates":[119.3162421,26.1369486]}},{"type":"Feature","properties":{"station_id":"n9157637252","station_name":"Fuzhou Railway Station","station_name_local":"福州火车站","network":"Unknown","network_local":null,"operator":null,"city":"Fuzhou","country":"China","lines":["1","F1"],"wikidata":"Q26714966","merged_from":2},"geometry":{"type":"Point","coordinates":[119.3131163,26.1141396]}},{"type":"Feature","properties":{"station_id":"n9157637253","station_name":"Doumen","station_name_local":"斗门","network":"Unknown","network_local":null,"operator":null,"city":"Fuzhou","country":"China","lines":["1"],"wikidata":"Q27186245"},"geometry":{"type":"Point","coordinates":[119.3089068,26.1070614]}},{"type":"Feature","properties":{"station_id":"n9157637254","station_name":"Shudou","station_name_local":"树兜","network":"Unknown","network_local":null,"operator":null,"city":"Fuzhou","country":"China","lines":["1"],"wikidata":"Q27186345"},"geometry":{"type":"Point","coordinates":[119.3007527,26.1052203]}},{"type":"Feature","properties":{"station_id":"n9157637255","station_name":"Pingshan","station_name_local":"屏山","network":"Unknown","network_local":null,"operator":null,"city":"Fuzhou","country":"China","lines":["1"],"wikidata":"Q26261995"},"geometry":{"type":"Point","coordinates":[119.2922196,26.0994477]}},{"type":"Feature","properties":{"station_id":"n9157637257","station_name":"Dongjiekou","station_name_local":"东街口","network":"Unknown","network_local":null,"operator":null,"city":"Fuzhou","country":"China","lines":["1"],"wikidata":"Q26261997"},"geometry":{"type":"Point","coordinates":[119.2945129,26.0890606]}},{"type":"Feature","properties":{"station_id":"n9157637259","station_name":"Sanjiangkou","station_name_local":"三江口","network":"Unknown","network_local":null,"operator":null,"city":"Fuzhou","country":"China","lines":["1"],"wikidata":"Q28152193"},"geometry":{"type":"Point","coordinates":[119.4211301,25.9818552]}},{"type":"Feature","properties":{"station_id":"n9157637260","station_name":"Liangcuo","station_name_local":"梁厝","network":"Unknown","network_local":null,"operator":null,"city":"Fuzhou","country":"China","lines":["6"],"wikidata":"Q28152191"},"geometry":{"type":"Point","coordinates":[119.410074,25.997133]}},{"type":"Feature","properties":{"station_id":"n9157637261","station_name":"Anping","station_name_local":"安平","network":"Unknown","network_local":null,"operator":null,"city":"Fuzhou","country":"China","lines":["1"],"wikidata":"Q28149930"},"geometry":{"type":"Point","coordinates":[119.3973413,25.9952968]}},{"type":"Feature","properties":{"station_id":"n9157637262","station_name":"Lulei","station_name_local":"胪雷","network":"福州地铁","network_local":null,"operator":"福州地铁","city":"Fuzhou","country":"China","lines":["1"],"wikidata":"Q25513936"},"geometry":{"type":"Point","coordinates":[119.3750219,25.9872305]}},{"type":"Feature","properties":{"station_id":"n9157637263","station_name":"Chating","station_name_local":"茶亭","network":"Unknown","network_local":null,"operator":null,"city":"Fuzhou","country":"China","lines":["1"],"wikidata":"Q26491007"},"geometry":{"type":"Point","coordinates":[119.2995424,26.0723188]}},{"type":"Feature","properties":{"station_id":"n9157637264","station_name":"Dadao","station_name_local":"达道","network":"Unknown","network_local":null,"operator":null,"city":"Fuzhou","country":"China","lines":["1"],"wikidata":"Q28059071"},"geometry":{"type":"Point","coordinates":[119.3049552,26.0600785]}},{"type":"Feature","properties":{"station_id":"n9157637265","station_name":"Shangteng","station_name_local":"上藤","network":"Unknown","network_local":null,"operator":null,"city":"Fuzhou","country":"China","lines":["1"],"wikidata":"Q27942912"},"geometry":{"type":"Point","coordinates":[119.3157983,26.0467931]}},{"type":"Feature","properties":{"station_id":"n9157637267","station_name":"Sanjiaocheng","station_name_local":"三角埕","network":"Unknown","network_local":null,"operator":null,"city":"Fuzhou","country":"China","lines":["1"],"wikidata":"Q25513931"},"geometry":{"type":"Point","coordinates":[119.3635661,25.9937681]}},{"type":"Feature","properties":{"station_id":"n9157637268","station_name":"Chengmen","station_name_local":"城门","network":"Unknown","network_local":null,"operator":null,"city":"Fuzhou","country":"China","lines":["1"],"wikidata":"Q25513921"},"geometry":{"type":"Point","coordinates":[119.3552464,25.9991484]}},{"type":"Feature","properties":{"station_id":"n9157637269","station_name":"Paixia","station_name_local":"排下","network":"Unknown","network_local":null,"operator":null,"city":"Fuzhou","country":"China","lines":["1"],"wikidata":"Q25513919"},"geometry":{"type":"Point","coordinates":[119.3488352,26.004772]}},{"type":"Feature","properties":{"station_id":"n9157637270","station_name":"Huangshan","station_name_local":"黄山","network":"Unknown","network_local":null,"operator":null,"city":"Fuzhou","country":"China","lines":["1"],"wikidata":"Q24836787"},"geometry":{"type":"Point","coordinates":[119.3436373,26.0135051]}},{"type":"Feature","properties":{"station_id":"n9157637271","station_name":"Huluzhen","station_name_local":"葫芦阵","network":"Unknown","network_local":null,"operator":null,"city":"Fuzhou","country":"China","lines":["1"],"wikidata":"Q24836795"},"geometry":{"type":"Point","coordinates":[119.3387761,26.0198693]}},{"type":"Feature","properties":{"station_id":"n9394575972","station_name":"Binhai CBD","station_name_local":"滨海中央商务区","network":"Unknown","network_local":null,"operator":null,"city":"Fuzhou","country":"China","lines":["F1"],"wikidata":null},"geometry":{"type":"Point","coordinates":[119.6052438,25.8872642]}},{"type":"Feature","properties":{"station_id":"n9394575973","station_name":"沙尾","station_name_local":"沙尾","network":"Unknown","network_local":null,"operator":null,"city":"Fuzhou","country":"China","lines":["F1"],"wikidata":null},"geometry":{"type":"Point","coordinates":[119.6028466,25.8821228]}},{"type":"Feature","properties":{"station_id":"n9402502237","station_name":"Jingxi Houyu","station_name_local":"荆溪厚屿","network":"Unknown","network_local":null,"operator":null,"city":"Fuzhou","country":"China","lines":["5"],"wikidata":null},"geometry":{"type":"Point","coordinates":[119.2244259,26.1145537]}},{"type":"Feature","properties":{"station_id":"n9402502241","station_name":"Agriculture and Forestry University","station_name_local":"农林大学","network":"Unknown","network_local":null,"operator":null,"city":"Fuzhou","country":"China","lines":["5"],"wikidata":null},"geometry":{"type":"Point","coordinates":[119.2422506,26.0879265]}},{"type":"Feature","properties":{"station_id":"n9402502244","station_name":"Hongtang","station_name_local":"洪塘","network":"Unknown","network_local":null,"operator":null,"city":"Fuzhou","country":"China","lines":["5"],"wikidata":null},"geometry":{"type":"Point","coordinates":[119.2453003,26.0766227]}},{"type":"Feature","properties":{"station_id":"n9402502255","station_name":"Pushang Dadao","station_name_local":"浦上大道","network":"Unknown","network_local":null,"operator":null,"city":"Fuzhou","country":"China","lines":["5"],"wikidata":null},"geometry":{"type":"Point","coordinates":[119.2680161,26.0370679]}},{"type":"Feature","properties":{"station_id":"n9402502265","station_name":"Panyu","station_name_local":"盘屿","network":"Unknown","network_local":null,"operator":null,"city":"Fuzhou","country":"China","lines":["5"],"wikidata":null},"geometry":{"type":"Point","coordinates":[119.2885033,26.0024415]}},{"type":"Feature","properties":{"station_id":"n9402502268","station_name":"Wushan","station_name_local":"吴山","network":"Unknown","network_local":null,"operator":null,"city":"Fuzhou","country":"China","lines":["5"],"wikidata":null},"geometry":{"type":"Point","coordinates":[119.3061426,26.0003125]}},{"type":"Feature","properties":{"station_id":"n9402502271","station_name":"Gaishan Zhulan","station_name_local":"盖山竹榄","network":"Unknown","network_local":null,"operator":null,"city":"Fuzhou","country":"China","lines":["5"],"wikidata":null},"geometry":{"type":"Point","coordinates":[119.3157923,25.9968006]}},{"type":"Feature","properties":{"station_id":"n9409868660","station_name":"Shajing","station_name_local":"沙京","network":"Unknown","network_local":null,"operator":null,"city":"Fuzhou","country":"China","lines":["6"],"wikidata":"Q113462737"},"geometry":{"type":"Point","coordinates":[119.5420231,25.9339633]}},{"type":"Feature","properties":{"station_id":"n9409868663","station_name":"Shiyang","station_name_local":"十洋","network":"Unknown","network_local":null,"operator":null,"city":"Fuzhou","country":"China","lines":["6"],"wikidata":"Q113462734"},"geometry":{"type":"Point","coordinates":[119.511081,25.9613208]}},{"type":"Feature","properties":{"station_id":"n9409868664","station_name":"Zhenghe","station_name_local":"郑和","network":"Unknown","network_local":null,"operator":null,"city":"Fuzhou","country":"China","lines":["6"],"wikidata":"Q113462026"},"geometry":{"type":"Point","coordinates":[119.4979559,25.9612011]}},{"type":"Feature","properties":{"station_id":"n9409868678","station_name":"Zhanglan","station_name_local":"樟岚","network":"Unknown","network_local":null,"operator":null,"city":"Fuzhou","country":"China","lines":["6"],"wikidata":"Q113462024"},"geometry":{"type":"Point","coordinates":[119.3838238,26.0091845]}},{"type":"Feature","properties":{"station_id":"n9409868682","station_name":"Linpu","station_name_local":"林浦","network":"Unknown","network_local":null,"operator":null,"city":"Fuzhou","country":"China","lines":["6"],"wikidata":"Q28414884"},"geometry":{"type":"Point","coordinates":[119.360214,26.018205]}},{"type":"Feature","properties":{"station_id":"n9409868685","station_name":"Pandun","station_name_local":"潘墩","network":"Unknown","network_local":null,"operator":null,"city":"Fuzhou","country":"China","lines":["6"],"wikidata":"Q105729798"},"geometry":{"type":"Point","coordinates":[119.3529273,26.0237944]}},{"type":"Feature","properties":{"station_id":"n9409891386","station_name":"Yixu","station_name_local":"义序","network":"Unknown","network_local":null,"operator":null,"city":"Fuzhou","country":"China","lines":["5"],"wikidata":null},"geometry":{"type":"Point","coordinates":[119.3227062,25.9899172]}},{"type":"Feature","properties":{"station_id":"n9409891394","station_name":"Ancient Luozhou Town","station_name_local":"螺洲古镇","network":"Unknown","network_local":null,"operator":null,"city":"Fuzhou","country":"China","lines":["5"],"wikidata":null},"geometry":{"type":"Point","coordinates":[119.3466012,25.9891962]}},{"type":"Feature","properties":{"station_id":"n9409891399","station_name":"Longjiang","station_name_local":"龙江","network":"Unknown","network_local":null,"operator":null,"city":"Fuzhou","country":"China","lines":["5"],"wikidata":"Q121878583"},"geometry":{"type":"Point","coordinates":[119.3674205,25.9873751]}},{"type":"Feature","properties":{"station_id":"n9521852841","station_name":"Dongmen","station_name_local":"东门","network":"Unknown","network_local":null,"operator":null,"city":"Fuzhou","country":"China","lines":["4","F1"],"wikidata":"Q121877986","merged_from":2},"geometry":{"type":"Point","coordinates":[119.31059585,26.090229700000002]}},{"type":"Feature","properties":{"station_id":"n9521852842","station_name":"Mindu","station_name_local":"闽都","network":"Unknown","network_local":null,"operator":null,"city":"Fuzhou","country":"China","lines":["F1"],"wikidata":null},"geometry":{"type":"Point","coordinates":[119.3145328,26.0783475]}},{"type":"Feature","properties":{"station_id":"n9521852843","station_name":"Nangongyuan","station_name_local":"南公园","network":"Unknown","network_local":null,"operator":null,"city":"Fuzhou","country":"China","lines":["F1"],"wikidata":"Q133521548"},"geometry":{"type":"Point","coordinates":[119.3150143,26.06701]}},{"type":"Feature","properties":{"station_id":"n9521852850","station_name":"Xiangqian","station_name_local":"祥谦","network":"Unknown","network_local":null,"operator":null,"city":"Fuzhou","country":"China","lines":["F1"],"wikidata":"Q133519926"},"geometry":{"type":"Point","coordinates":[119.3816102,25.9333336]}},{"type":"Feature","properties":{"station_id":"n9521852851","station_name":"Shouzhan","station_name_local":"首占","network":"Unknown","network_local":null,"operator":null,"city":"Fuzhou","country":"China","lines":["F1"],"wikidata":"Q133519927"},"geometry":{"type":"Point","coordinates":[119.4806387,25.9268629]}},{"type":"Feature","properties":{"station_id":"n9521852854","station_name":"Dashuju","station_name_local":"大数据","network":"Unknown","network_local":null,"operator":null,"city":"Fuzhou","country":"China","lines":["F1"],"wikidata":null},"geometry":{"type":"Point","coordinates":[119.5933296,25.8947864]}},{"type":"Feature","properties":{"station_id":"n9521852855","station_name":"Airport","station_name_local":"机场","network":"Unknown","network_local":null,"operator":null,"city":"Fuzhou","country":"China","lines":["F1"],"wikidata":"Q111254204"},"geometry":{"type":"Point","coordinates":[119.6702443,25.9311243]}},{"type":"Feature","properties":{"station_id":"n9521852856","station_name":"Wenling","station_name_local":"文岭","network":"Unknown","network_local":null,"operator":null,"city":"Fuzhou","country":"China","lines":["F1"],"wikidata":null},"geometry":{"type":"Point","coordinates":[119.6906685,25.9771254]}},{"type":"Feature","properties":{"station_id":"n11124986635","station_name":"Guangminggang","station_name_local":"光明港","network":"Unknown","network_local":null,"operator":null,"city":"Fuzhou","country":"China","lines":["4"],"wikidata":null},"geometry":{"type":"Point","coordinates":[119.3418369,26.0676193]}},{"type":"Feature","properties":{"station_id":"n11125049501","station_name":"Aofengzhou","station_name_local":"鳌峰洲","network":"Unknown","network_local":null,"operator":null,"city":"Fuzhou","country":"China","lines":["4"],"wikidata":null},"geometry":{"type":"Point","coordinates":[119.3398029,26.0575778]}},{"type":"Feature","properties":{"station_id":"n11125071112","station_name":"Qianyu","station_name_local":"前屿","network":"Unknown","network_local":null,"operator":null,"city":"Fuzhou","country":"China","lines":["2"],"wikidata":"Q28152183"},"geometry":{"type":"Point","coordinates":[119.3456051,26.0756299]}},{"type":"Feature","properties":{"station_id":"n11125122401","station_name":"Hengyu","station_name_local":"横屿","network":"Unknown","network_local":null,"operator":null,"city":"Fuzhou","country":"China","lines":["4"],"wikidata":null},"geometry":{"type":"Point","coordinates":[119.3473878,26.0929003]}},{"type":"Feature","properties":{"station_id":"n11137495977","station_name":"Sanjiaochi","station_name_local":"三角池","network":"Unknown","network_local":null,"operator":null,"city":"Fuzhou","country":"China","lines":["4"],"wikidata":null},"geometry":{"type":"Point","coordinates":[119.3214128,26.0939746]}},{"type":"Feature","properties":{"station_id":"n11137504571","station_name":"Zhuyu","station_name_local":"竹屿","network":"Unknown","network_local":null,"operator":null,"city":"Fuzhou","country":"China","lines":["4"],"wikidata":null},"geometry":{"type":"Point","coordinates":[119.3330371,26.0961144]}},{"type":"Feature","properties":{"station_id":"n11137518057","station_name":"Provincial Hospital","station_name_local":"省立医院","network":"Unknown","network_local":null,"operator":null,"city":"Fuzhou","country":"China","lines":["4"],"wikidata":null},"geometry":{"type":"Point","coordinates":[119.3025513,26.08988]}},{"type":"Feature","properties":{"station_id":"n11137530963","station_name":"Ximen","station_name_local":"西门","network":"Unknown","network_local":null,"operator":null,"city":"Fuzhou","country":"China","lines":["4"],"wikidata":null},"geometry":{"type":"Point","coordinates":[119.285364,26.0878161]}},{"type":"Feature","properties":{"station_id":"n11137538110","station_name":"Fenghuangchi","station_name_local":"凤凰池","network":"Unknown","network_local":null,"operator":null,"city":"Fuzhou","country":"China","lines":["4"],"wikidata":null},"geometry":{"type":"Point","coordinates":[119.2677931,26.0814237]}},{"type":"Feature","properties":{"station_id":"n11137539002","station_name":"Luzhaung","station_name_local":"陆庄","network":"Unknown","network_local":null,"operator":null,"city":"Fuzhou","country":"China","lines":["4"],"wikidata":null},"geometry":{"type":"Point","coordinates":[119.2788002,26.0854634]}},{"type":"Feature","properties":{"station_id":"n11139161337","station_name":"Houyu","station_name_local":"后屿","network":"Unknown","network_local":null,"operator":null,"city":"Fuzhou","country":"China","lines":["4"],"wikidata":null},"geometry":{"type":"Point","coordinates":[119.3475558,26.0842357]}},{"type":"Feature","properties":{"station_id":"n11141033418","station_name":"Huahai Park","station_name_local":"花海公园","network":"Unknown","network_local":null,"operator":null,"city":"Fuzhou","country":"China","lines":["4"],"wikidata":null},"geometry":{"type":"Point","coordinates":[119.344854,26.0435945]}},{"type":"Feature","properties":{"station_id":"n11141094242","station_name":"Exhibition Center","station_name_local":"会展中心","network":"Unknown","network_local":null,"operator":null,"city":"Fuzhou","country":"China","lines":["4"],"wikidata":null},"geometry":{"type":"Point","coordinates":[119.3546265,26.03289]}},{"type":"Feature","properties":{"station_id":"n11141118917","station_name":"Luozhou Hot Spring","station_name_local":"螺洲温泉","network":"Unknown","network_local":null,"operator":null,"city":"Fuzhou","country":"China","lines":["4"],"wikidata":"Q121878182"},"geometry":{"type":"Point","coordinates":[119.3445573,25.993371]}},{"type":"Feature","properties":{"station_id":"n11152381692","station_name":"Qianjin","station_name_local":"前锦站","network":"Unknown","network_local":null,"operator":null,"city":"Fuzhou","country":"China","lines":["5"],"wikidata":"Q121878575"},"geometry":{"type":"Point","coordinates":[119.3577471,25.987386]}},{"type":"Feature","properties":{"station_id":"n13366366043","station_name":"Banzhou","station_name_local":"半洲","network":"Unknown","network_local":null,"operator":null,"city":"Fuzhou","country":"China","lines":["4"],"wikidata":null},"geometry":{"type":"Point","coordinates":[119.2330531,26.0599539]}},{"type":"Feature","properties":{"station_id":"n13366366048","station_name":"Jianxin","station_name_local":"建新","network":"Unknown","network_local":null,"operator":null,"city":"Fuzhou","country":"China","lines":["4"],"wikidata":null},"geometry":{"type":"Point","coordinates":[119.2334148,26.0678091]}},{"type":"Feature","properties":{"station_id":"n13366366055","station_name":"Jinniushan","station_name_local":"金牛山","network":"Unknown","network_local":null,"operator":null,"city":"Fuzhou","country":"China","lines":["4"],"wikidata":null},"geometry":{"type":"Point","coordinates":[119.2573435,26.0794741]}},{"type":"Feature","properties":{"station_id":"n775570837","station_name":"Shangyang Station","station_name_local":"上洋站","network":"福州地铁","network_local":null,"operator":"福州地铁","city":"Fuzhou","country":"China","lines":["2"],"wikidata":"Q28152182"},"geometry":{"type":"Point","coordinates":[119.3593993,26.0688629]}},{"type":"Feature","properties":{"station_id":"n775701013","station_name":"Wuliting","station_name_local":"五里亭站","network":"Unknown","network_local":null,"operator":null,"city":"Fuzhou","country":"China","lines":["2"],"wikidata":"Q28152180"},"geometry":{"type":"Point","coordinates":[119.3354104,26.0772561]}},{"type":"Feature","properties":{"station_id":"n775701020","station_name":"Gushan Station","station_name_local":"鼓山站","network":"Unknown","network_local":null,"operator":null,"city":"Fuzhou","country":"China","lines":["2"],"wikidata":"Q28152181"},"geometry":{"type":"Point","coordinates":[119.3701343,26.0559365]}},{"type":"Feature","properties":{"station_id":"n775701021","station_name":"Yangli Station","station_name_local":"洋里站","network":"Unknown","network_local":null,"operator":null,"city":"Fuzhou","country":"China","lines":["2"],"wikidata":"Q28152185"},"geometry":{"type":"Point","coordinates":[119.3674101,26.0485199]}},{"type":"Feature","properties":{"station_id":"n776438257","station_name":"Fuzhou University Station","station_name_local":"福州大学站","network":"Unknown","network_local":null,"operator":null,"city":"Fuzhou","country":"China","lines":["2"],"wikidata":"Q28152187"},"geometry":{"type":"Point","coordinates":[119.1986108,26.0613633]}},{"type":"Feature","properties":{"station_id":"n1338988620","station_name":"Difengjiang","station_name_local":"帝封江","network":"福州地铁集团有限公司","network_local":null,"operator":"福州地铁集团有限公司","city":"Fuzhou","country":"China","lines":["5","F1"],"wikidata":"Q111801414","merged_from":2},"geometry":{"type":"Point","coordinates":[119.3309812,25.991095]}}]}