{"type":"FeatureCollection","metro_system":{"continent":"asia","country":"China","city":"Hohhot","osm_networks":["Hohhot Metro","Unknown","呼和浩特市城市轨道交通建设管理有限责任公司"],"operator":"呼和浩特市城市轨道交通建设管理有限责任公司","official_website":null,"official_map":"https://zh.wikipedia.org/wiki/呼和浩特地铁1号线","wikidata":"Q76339003","line_count":2,"station_count":45},"features":[{"type":"Feature","properties":{"route_id":"rm10507454","route_name":"Hohhot Metro Line 1","route_name_local":"呼和浩特地铁1号线","route_ref":"1","route_color":"#e82311","network":"Hohhot Metro","network_local":"呼和浩特地铁","operator":"呼和浩特市城市轨道交通建设管理有限责任公司","city":"Hohhot","country":"China","wikidata":"Q76339003","wikipedia":"zh:呼和浩特地铁1号线","osm_route_ids":[10454992,10513261]},"geometry":{"type":"MultiLineString","coordinates":[[[111.5684909,40.7835389],[111.5858125,40.7934774],[111.5979656,40.7985405],[111.6101598,40.8035822],[111.6251923,40.809911],[111.634323,40.8138112],[111.6489484,40.8174871],[111.6609513,40.8200742],[111.6696467,40.8219497],[111.6816701,40.8245971],[111.6927856,40.8274448],[111.701911,40.829453],[111.7135486,40.8320339],[111.7285653,40.8353245],[111.740638,40.8380064],[111.7597918,40.8458116],[111.7740339,40.8463968],[111.7936902,40.8507749],[111.8047389,40.8533509],[111.8178465,40.8563668]],[[111.8177809,40.8564792],[111.8047222,40.8533828],[111.793679,40.8508],[111.7739477,40.8466588],[111.7597334,40.8459633],[111.7405214,40.8381958],[111.7285016,40.8355352],[111.7134673,40.8322275],[111.701823,40.8296596],[111.6927036,40.8276572],[111.6816008,40.8247606],[111.6695471,40.8221452],[111.6608672,40.8202623],[111.6489249,40.817667],[111.6342701,40.8138922],[111.6250876,40.8100748],[111.6099993,40.8038028],[111.597875,40.7986793],[111.585667,40.7936904],[111.5684909,40.7835389]]]}},{"type":"Feature","properties":{"route_id":"rm11697809","route_name":"Hohhot Metro Line 2","route_name_local":"呼和浩特地铁2号线","route_ref":"2","route_color":"#005bac","network":"Hohhot Metro","network_local":"呼和浩特地铁","operator":"呼和浩特市城市轨道交通建设管理有限责任公司","city":"Hohhot","country":"China","wikidata":"Q82669483","wikipedia":"en:Line 2 (Hohhot Metro)","osm_route_ids":[11697807,11697808]},"geometry":{"type":"MultiLineString","coordinates":[[[111.7408901,40.7541941],[111.7244081,40.7543765],[111.7000364,40.7544299],[111.6857293,40.7578626],[111.6808813,40.7697139],[111.6782666,40.7759509],[111.6745751,40.7850377],[111.6729368,40.7971021],[111.6690988,40.804574],[111.6641544,40.8141749],[111.6611222,40.8201943],[111.6589762,40.8279003],[111.6555229,40.8349935],[111.6492905,40.8491421],[111.6575794,40.854506],[111.6695721,40.8560742],[111.6842228,40.8580271],[111.6977622,40.8600736],[111.7116006,40.8579351],[111.7260336,40.8576593],[111.7403668,40.8610316],[111.7517428,40.8636507],[111.7589134,40.8658182],[111.7700536,40.8679541]]]}},{"type":"Feature","properties":{"station_id":"n6040115709","station_name":"Inner Mongolia Exhibition Hall","station_name_local":"内蒙古展览馆","network":"呼和浩特市城市轨道交通建设管理有限责任公司","network_local":null,"operator":"呼和浩特市城市轨道交通建设管理有限责任公司","city":"Hohhot","country":"China","lines":["1"],"wikidata":"Q80191374"},"geometry":{"type":"Point","coordinates":[111.7134925,40.8321442]}},{"type":"Feature","properties":{"station_id":"n6040115716","station_name":"City Government","station_name_local":"市政府","network":"呼和浩特市城市轨道交通建设管理有限责任公司","network_local":null,"operator":"呼和浩特市城市轨道交通建设管理有限责任公司","city":"Hohhot","country":"China","lines":["1"],"wikidata":"Q80171203"},"geometry":{"type":"Point","coordinates":[111.7404873,40.8380728]}},{"type":"Feature","properties":{"station_id":"n6040115724","station_name":"Houbutaqi","station_name_local":"后不塔气","network":"呼和浩特市城市轨道交通建设管理有限责任公司","network_local":null,"operator":"呼和浩特市城市轨道交通建设管理有限责任公司","city":"Hohhot","country":"China","lines":["1"],"wikidata":"Q80171212"},"geometry":{"type":"Point","coordinates":[111.7739827,40.8465066]}},{"type":"Feature","properties":{"station_id":"n6040115729","station_name":"Hohhot East Railway Station","station_name_local":"呼和浩特东站","network":"呼和浩特市城市轨道交通建设管理有限责任公司","network_local":null,"operator":"呼和浩特市城市轨道交通建设管理有限责任公司","city":"Hohhot","country":"China","lines":["1"],"wikidata":"Q80148184"},"geometry":{"type":"Point","coordinates":[111.7597592,40.8458916]}},{"type":"Feature","properties":{"station_id":"n7075573020","station_name":"Inner Mongolia Museum","station_name_local":"内蒙古博物院","network":"呼和浩特市城市轨道交通建设管理有限责任公司","network_local":null,"operator":"呼和浩特市城市轨道交通建设管理有限责任公司","city":"Hohhot","country":"China","lines":["1"],"wikidata":"Q80190971"},"geometry":{"type":"Point","coordinates":[111.728527,40.8354385]}},{"type":"Feature","properties":{"station_id":"n7075573053","station_name":"Shilandai","station_name_local":"什兰岱","network":"呼和浩特市城市轨道交通建设管理有限责任公司","network_local":null,"operator":"呼和浩特市城市轨道交通建设管理有限责任公司","city":"Hohhot","country":"China","lines":["1"],"wikidata":"Q80173675"},"geometry":{"type":"Point","coordinates":[111.7936674,40.8507813]}},{"type":"Feature","properties":{"station_id":"n7095452110","station_name":"Yili Health Valley","station_name_local":"伊利健康谷","network":"呼和浩特市城市轨道交通建设管理有限责任公司","network_local":null,"operator":"呼和浩特市城市轨道交通建设管理有限责任公司","city":"Hohhot","country":"China","lines":["1"],"wikidata":"Q80171421"},"geometry":{"type":"Point","coordinates":[111.568365,40.7836474]}},{"type":"Feature","properties":{"station_id":"n7095907355","station_name":"Hugangnanlu","station_name_local":"呼钢南路","network":"呼和浩特市城市轨道交通建设管理有限责任公司","network_local":null,"operator":"呼和浩特市城市轨道交通建设管理有限责任公司","city":"Hohhot","country":"China","lines":["1"],"wikidata":"Q80199121"},"geometry":{"type":"Point","coordinates":[111.6100662,40.8036939]}},{"type":"Feature","properties":{"station_id":"n7095907372","station_name":"Kongjiaying","station_name_local":"孔家营","network":"呼和浩特市城市轨道交通建设管理有限责任公司","network_local":null,"operator":"呼和浩特市城市轨道交通建设管理有限责任公司","city":"Hohhot","country":"China","lines":["1"],"wikidata":"Q80199356"},"geometry":{"type":"Point","coordinates":[111.5979141,40.7986244]}},{"type":"Feature","properties":{"station_id":"n7097723901","station_name":"Xilongwangmiao","station_name_local":"西龙王庙","network":"呼和浩特市城市轨道交通建设管理有限责任公司","network_local":null,"operator":"呼和浩特市城市轨道交通建设管理有限责任公司","city":"Hohhot","country":"China","lines":["1"],"wikidata":"Q80199102"},"geometry":{"type":"Point","coordinates":[111.6251359,40.8099881]}},{"type":"Feature","properties":{"station_id":"n7097833691","station_name":"Baita West","station_name_local":"白塔西","network":"呼和浩特市城市轨道交通建设管理有限责任公司","network_local":null,"operator":"呼和浩特市城市轨道交通建设管理有限责任公司","city":"Hohhot","country":"China","lines":["1"],"wikidata":"Q80173664"},"geometry":{"type":"Point","coordinates":[111.8047239,40.85336]}},{"type":"Feature","properties":{"station_id":"n7098261679","station_name":"Xi'erhuanlu","station_name_local":"西二环路","network":"呼和浩特市城市轨道交通建设管理有限责任公司","network_local":null,"operator":"呼和浩特市城市轨道交通建设管理有限责任公司","city":"Hohhot","country":"China","lines":["1"],"wikidata":"Q80171635"},"geometry":{"type":"Point","coordinates":[111.5857422,40.7935744]}},{"type":"Feature","properties":{"station_id":"n7098350516","station_name":"Wulanfu Memorial Hall","station_name_local":"乌兰夫纪念馆站","network":"呼和浩特市城市轨道交通建设管理有限责任公司","network_local":null,"operator":"呼和浩特市城市轨道交通建设管理有限责任公司","city":"Hohhot","country":"China","lines":["1"],"wikidata":"Q80194401"},"geometry":{"type":"Point","coordinates":[111.6348414,40.8140631]}},{"type":"Feature","properties":{"station_id":"n7098893394","station_name":"Affiliated Hospital","station_name_local":"附属医院","network":"呼和浩特市城市轨道交通建设管理有限责任公司","network_local":null,"operator":"呼和浩特市城市轨道交通建设管理有限责任公司","city":"Hohhot","country":"China","lines":["1"],"wikidata":"Q80196223"},"geometry":{"type":"Point","coordinates":[111.6489762,40.8175899]}},{"type":"Feature","properties":{"station_id":"n7098893465","station_name":"Arts College","station_name_local":"艺术学院","network":"呼和浩特市城市轨道交通建设管理有限责任公司","network_local":null,"operator":"呼和浩特市城市轨道交通建设管理有限责任公司","city":"Hohhot","country":"China","lines":["1"],"wikidata":"Q80193161"},"geometry":{"type":"Point","coordinates":[111.692744,40.8275571]}},{"type":"Feature","properties":{"station_id":"n7098893468","station_name":"Dongyinglu","station_name_local":"东影路","network":"呼和浩特市城市轨道交通建设管理有限责任公司","network_local":null,"operator":"呼和浩特市城市轨道交通建设管理有限责任公司","city":"Hohhot","country":"China","lines":["1"],"wikidata":"Q80193134"},"geometry":{"type":"Point","coordinates":[111.7018674,40.8295498]}},{"type":"Feature","properties":{"station_id":"n7099913129","station_name":"Xinhua Square","station_name_local":"新华广场","network":"呼和浩特市城市轨道交通建设管理有限责任公司","network_local":null,"operator":"呼和浩特市城市轨道交通建设管理有限责任公司","city":"Hohhot","country":"China","lines":["2"],"wikidata":"Q80194491"},"geometry":{"type":"Point","coordinates":[111.6609573,40.8201584]}},{"type":"Feature","properties":{"station_id":"n7099913130","station_name":"People's Hall","station_name_local":"人民会堂","network":"呼和浩特市城市轨道交通建设管理有限责任公司","network_local":null,"operator":"呼和浩特市城市轨道交通建设管理有限责任公司","city":"Hohhot","country":"China","lines":["1"],"wikidata":"Q80194343"},"geometry":{"type":"Point","coordinates":[111.6695903,40.8220483]}},{"type":"Feature","properties":{"station_id":"n7099913131","station_name":"Jiangjunyashu","station_name_local":"将军衙署","network":"呼和浩特市城市轨道交通建设管理有限责任公司","network_local":null,"operator":"呼和浩特市城市轨道交通建设管理有限责任公司","city":"Hohhot","country":"China","lines":["1"],"wikidata":"Q80193258"},"geometry":{"type":"Point","coordinates":[111.6816372,40.8246857]}},{"type":"Feature","properties":{"station_id":"n7965245047","station_name":"Genghis Khan","station_name_local":"成吉思汗公园","network":"Unknown","network_local":null,"operator":null,"city":"Hohhot","country":"China","lines":["2"],"wikidata":null},"geometry":{"type":"Point","coordinates":[111.6977895,40.8601679]}},{"type":"Feature","properties":{"station_id":"n7965245048","station_name":"Yijiacun","station_name_local":"一家村","network":"Unknown","network_local":null,"operator":null,"city":"Hohhot","country":"China","lines":["2"],"wikidata":null},"geometry":{"type":"Point","coordinates":[111.7116243,40.85803]}},{"type":"Feature","properties":{"station_id":"n7965245049","station_name":"Sichouzhiludadao","station_name_local":"丝绸之路大道","network":"Unknown","network_local":null,"operator":null,"city":"Hohhot","country":"China","lines":["2"],"wikidata":null},"geometry":{"type":"Point","coordinates":[111.7259957,40.8577514]}},{"type":"Feature","properties":{"station_id":"n7965245050","station_name":"Beishan Park","station_name_local":"北山公园","network":"Unknown","network_local":null,"operator":null,"city":"Hohhot","country":"China","lines":["2"],"wikidata":"Q102367985"},"geometry":{"type":"Point","coordinates":[111.7403289,40.8611238]}},{"type":"Feature","properties":{"station_id":"n7965245051","station_name":"Baihelu","station_name_local":"百合路","network":"Unknown","network_local":null,"operator":null,"city":"Hohhot","country":"China","lines":["2"],"wikidata":null},"geometry":{"type":"Point","coordinates":[111.7517049,40.8637325]}},{"type":"Feature","properties":{"station_id":"n7965245052","station_name":"Xindian","station_name_local":"新店","network":"Unknown","network_local":null,"operator":null,"city":"Hohhot","country":"China","lines":["2"],"wikidata":"Q102367260"},"geometry":{"type":"Point","coordinates":[111.7588704,40.8659092]}},{"type":"Feature","properties":{"station_id":"n7965245053","station_name":"Talidonglu","station_name_local":"塔利东路","network":"Unknown","network_local":null,"operator":null,"city":"Hohhot","country":"China","lines":["2"],"wikidata":"Q102367724"},"geometry":{"type":"Point","coordinates":[111.7700328,40.8680493]}},{"type":"Feature","properties":{"station_id":"n7965334501","station_name":"Hohhot Railway Station","station_name_local":"呼和浩特站","network":"Unknown","network_local":null,"operator":null,"city":"Hohhot","country":"China","lines":["2"],"wikidata":null},"geometry":{"type":"Point","coordinates":[111.6588506,40.8278831]}},{"type":"Feature","properties":{"station_id":"n7965334502","station_name":"公主府","station_name_local":"公主府","network":"Unknown","network_local":null,"operator":null,"city":"Hohhot","country":"China","lines":["2"],"wikidata":"Q102367730"},"geometry":{"type":"Point","coordinates":[111.6553971,40.8349775]}},{"type":"Feature","properties":{"station_id":"n7965334503","station_name":"Hohhot Stadium","station_name_local":"呼和浩特体育场","network":"Unknown","network_local":null,"operator":null,"city":"Hohhot","country":"China","lines":["2"],"wikidata":"Q102367644"},"geometry":{"type":"Point","coordinates":[111.6491679,40.8491138]}},{"type":"Feature","properties":{"station_id":"n7965334504","station_name":"Inner Mongolia Gymnasium","station_name_local":"内蒙古体育馆","network":"Unknown","network_local":null,"operator":null,"city":"Hohhot","country":"China","lines":["2"],"wikidata":null},"geometry":{"type":"Point","coordinates":[111.657551,40.8546001]}},{"type":"Feature","properties":{"station_id":"n7965334505","station_name":"Genghis Khan Square","station_name_local":"成吉思汗广场","network":"Unknown","network_local":null,"operator":null,"city":"Hohhot","country":"China","lines":["2"],"wikidata":"Q102367641"},"geometry":{"type":"Point","coordinates":[111.66955,40.8561693]}},{"type":"Feature","properties":{"station_id":"n7965334506","station_name":"Haoqinying","station_name_local":"毫沁营","network":"Unknown","network_local":null,"operator":null,"city":"Hohhot","country":"China","lines":["2"],"wikidata":"Q102389965"},"geometry":{"type":"Point","coordinates":[111.6841932,40.858121]}},{"type":"Feature","properties":{"station_id":"n7965531809","station_name":"诺和木勒","station_name_local":"诺和木勒","network":"Unknown","network_local":null,"operator":null,"city":"Hohhot","country":"China","lines":["2"],"wikidata":null},"geometry":{"type":"Point","coordinates":[111.6728265,40.7970527]}},{"type":"Feature","properties":{"station_id":"n7965531810","station_name":"帅家营","station_name_local":"帅家营","network":"Unknown","network_local":null,"operator":null,"city":"Hohhot","country":"China","lines":["2"],"wikidata":"Q102390278"},"geometry":{"type":"Point","coordinates":[111.7000669,40.754343]}},{"type":"Feature","properties":{"station_id":"n7965531811","station_name":"五里营","station_name_local":"五里营","network":"Unknown","network_local":null,"operator":null,"city":"Hohhot","country":"China","lines":["2"],"wikidata":null},"geometry":{"type":"Point","coordinates":[111.678142,40.7759291]}},{"type":"Feature","properties":{"station_id":"n7965531812","station_name":"A'ershanlu","station_name_local":"阿尔山路","network":"Unknown","network_local":null,"operator":null,"city":"Hohhot","country":"China","lines":["2"],"wikidata":null},"geometry":{"type":"Point","coordinates":[111.7409174,40.7541076]}},{"type":"Feature","properties":{"station_id":"n7965531813","station_name":"大学西街","station_name_local":"大学西街","network":"Unknown","network_local":null,"operator":null,"city":"Hohhot","country":"China","lines":["2"],"wikidata":null},"geometry":{"type":"Point","coordinates":[111.6689795,40.8045398]}},{"type":"Feature","properties":{"station_id":"n7965531814","station_name":"内大南校区","station_name_local":"内大南校区","network":"Unknown","network_local":null,"operator":null,"city":"Hohhot","country":"China","lines":["2"],"wikidata":"Q102367978"},"geometry":{"type":"Point","coordinates":[111.6856168,40.757834]}},{"type":"Feature","properties":{"station_id":"n7965531815","station_name":"Shuishang Park","station_name_local":"水上公园","network":"Unknown","network_local":null,"operator":null,"city":"Hohhot","country":"China","lines":["2"],"wikidata":"Q102367982"},"geometry":{"type":"Point","coordinates":[111.674489,40.7850169]}},{"type":"Feature","properties":{"station_id":"n7965531816","station_name":"喇嘛营","station_name_local":"喇嘛营","network":"Unknown","network_local":null,"operator":null,"city":"Hohhot","country":"China","lines":["2"],"wikidata":null},"geometry":{"type":"Point","coordinates":[111.7243776,40.7542896]}},{"type":"Feature","properties":{"station_id":"n7965531817","station_name":"中山路","station_name_local":"中山路","network":"Unknown","network_local":null,"operator":null,"city":"Hohhot","country":"China","lines":["2"],"wikidata":null},"geometry":{"type":"Point","coordinates":[111.6640354,40.8141402]}},{"type":"Feature","properties":{"station_id":"n7965531818","station_name":"锡林公园","station_name_local":"锡林公园","network":"Unknown","network_local":null,"operator":null,"city":"Hohhot","country":"China","lines":["2"],"wikidata":null},"geometry":{"type":"Point","coordinates":[111.6807553,40.7696955]}},{"type":"Feature","properties":{"station_id":"n12253357026","station_name":"呼和浩特站","station_name_local":"呼和浩特站","network":"Unknown","network_local":null,"operator":null,"city":"Hohhot","country":"China","lines":["2"],"wikidata":null},"geometry":{"type":"Point","coordinates":[111.6589762,40.8279003]}},{"type":"Feature","properties":{"station_id":"n12253357126","station_name":"呼和浩特站","station_name_local":"呼和浩特站","network":"Unknown","network_local":null,"operator":null,"city":"Hohhot","country":"China","lines":["2"],"wikidata":null},"geometry":{"type":"Point","coordinates":[111.658725,40.8278659]}},{"type":"Feature","properties":{"station_id":"n12255176618","station_name":"Bayan (Airport)","station_name_local":"坝堰（机场）","network":"呼和浩特市城市轨道交通建设管理有限责任公司","network_local":null,"operator":"呼和浩特市城市轨道交通建设管理有限责任公司","city":"Hohhot","country":"China","lines":["1"],"wikidata":"Q80171815"},"geometry":{"type":"Point","coordinates":[111.8178123,40.8564265]}}]}