{"type":"FeatureCollection","metro_system":{"continent":"asia","country":"China","city":"Dongguan","osm_networks":["Dongguan Rail Transit","Unknown","东莞轨道交通"],"operator":"东莞市轨道交通有限公司","official_website":null,"official_map":"https://zh.wikipedia.org/wiki/东莞轨道交通2号线","wikidata":"Q11103955","line_count":2,"station_count":39,"audit":{"strategies_tried":[],"passed":true,"checks":[{"id":"system_exists","ok":true,"detail":"matched OSM system systems/asia/china/asia-china-dongguan.geojson","level":"error"},{"id":"has_lines","ok":true,"detail":"2 lines","level":"error"},{"id":"has_stations","ok":true,"detail":"39 stations","level":"error"},{"id":"station_ratio","ok":true,"detail":"OSM 39 vs Wikipedia 39（比值 1.00）","level":"error"},{"id":"stations_have_lines","ok":true,"detail":"39/39 站皆有所屬路線","level":"error"},{"id":"stations_named","ok":true,"detail":"39/39 站有名稱","level":"warn"},{"id":"station_order","ok":true,"detail":"所有線路站序合理","level":"warn"}],"reasons":[],"warnings":[],"audited_at":"2026-07-10T07:56:59.644Z"}},"features":[{"type":"Feature","properties":{"route_id":"rm7986215","route_name":"Dongguan Rail Transit Line 2","route_name_local":"东莞轨道交通2号线","route_ref":"2","route_color":"#ed1c24","network":"Dongguan Rail Transit","network_local":"东莞轨道交通","operator":"东莞市轨道交通有限公司","city":"Dongguan","country":"China","wikidata":"Q11103955","wikipedia":"zh:东莞轨道交通2号线","osm_route_ids":[6502861,7986214]},"geometry":{"type":"MultiLineString","coordinates":[[[113.8557165,23.0914388],[113.8413003,23.0829753],[113.8094127,23.0830512],[113.7829676,23.0654231],[113.7735793,23.0492893],[113.7713224,23.0356744],[113.7627026,23.0228266],[113.7550062,23.0145286],[113.7412721,22.9968707],[113.7238594,22.9808671],[113.6857749,22.9612507],[113.668507,22.9438765],[113.6597652,22.929483],[113.6564991,22.9048737],[113.6665394,22.8622179]]]}},{"type":"Feature","properties":{"route_id":"rm19893576","route_name":"Dongguan Rail Transit Line 1","route_name_local":"东莞轨道交通1号线","route_ref":"1","route_color":"#3190cb","network":"Dongguan Rail Transit","network_local":"东莞轨道交通","operator":"东莞市轨道交通有限公司","city":"Dongguan","country":"China","wikidata":"Q18127251","wikipedia":"zh:东莞轨道交通1号线","osm_route_ids":[19902978,19902979]},"geometry":{"type":"MultiLineString","coordinates":[[[113.9802475,22.845154],[113.9913964,22.875371],[113.9935158,22.8968239],[113.9661807,22.9122359],[113.9461127,22.9207725],[113.9219983,22.9308935],[113.8967557,22.9361268],[113.8687739,22.9321172],[113.8621804,22.9243104],[113.8467105,22.9141744],[113.8275583,22.9167697],[113.8010879,22.9318437],[113.7708309,22.9629573],[113.7697979,22.9734673],[113.7702623,22.989296],[113.7676322,23.0066108],[113.7550012,23.0144177],[113.7479203,23.0174062],[113.7352397,23.0195393],[113.7222645,23.0244616],[113.7118568,23.0348361],[113.6935632,23.0290973],[113.6824139,23.0196615],[113.6562148,23.0123699],[113.6225359,23.0125259]]]}},{"type":"Feature","properties":{"station_id":"n3442532236","station_name":"Dongguan Railway Station","station_name_local":"东莞火车站","network":"东莞轨道交通","network_local":null,"operator":"东莞轨道交通","city":"Dongguan","country":"China","lines":["2"],"wikidata":null,"merged_from":3},"geometry":{"type":"Point","coordinates":[113.85573653333334,23.091421733333334]}},{"type":"Feature","properties":{"station_id":"n3442721315","station_name":"Liuhua Park","station_name_local":"榴花公园","network":"东莞轨道交通","network_local":null,"operator":"东莞轨道交通","city":"Dongguan","country":"China","lines":["2"],"wikidata":null,"merged_from":3},"geometry":{"type":"Point","coordinates":[113.80942036666666,23.083020033333337]}},{"type":"Feature","properties":{"station_id":"n3471195267","station_name":"Lianping","station_name_local":"连平","network":"Dongguan Rail Transit","network_local":"东莞轨道交通","operator":"东莞轨道交通","city":"Dongguan","country":"China","lines":["1"],"wikidata":"Q131868566"},"geometry":{"type":"Point","coordinates":[113.8010498,22.9317804]}},{"type":"Feature","properties":{"station_id":"n3471195556","station_name":"Dalingshan","station_name_local":"大岭山","network":"Dongguan Rail Transit","network_local":"东莞轨道交通","operator":"东莞轨道交通","city":"Dongguan","country":"China","lines":["1"],"wikidata":"Q131868560"},"geometry":{"type":"Point","coordinates":[113.8275489,22.9167106]}},{"type":"Feature","properties":{"station_id":"n5299970132","station_name":"Chashan","station_name_local":"茶山","network":"东莞轨道交通","network_local":null,"operator":"东莞轨道交通","city":"Dongguan","country":"China","lines":["2"],"wikidata":null,"merged_from":3},"geometry":{"type":"Point","coordinates":[113.84130463333334,23.0829511]}},{"type":"Feature","properties":{"station_id":"n5305510175","station_name":"Exhibition Center","station_name_local":"展览中心","network":"Unknown","network_local":null,"operator":null,"city":"Dongguan","country":"China","lines":["2"],"wikidata":null},"geometry":{"type":"Point","coordinates":[113.656527,22.9048732]}},{"type":"Feature","properties":{"station_id":"n6289527416","station_name":"Xiping","station_name_local":"西平","network":"Unknown","network_local":null,"operator":null,"city":"Dongguan","country":"China","lines":["2"],"wikidata":"Q26365935"},"geometry":{"type":"Point","coordinates":[113.7413049,22.9968491]}},{"type":"Feature","properties":{"station_id":"n7942711900","station_name":"Humen Railway Station","station_name_local":"虎门火车站","network":"东莞轨道交通","network_local":null,"operator":"东莞轨道交通","city":"Dongguan","country":"China","lines":["2"],"wikidata":null},"geometry":{"type":"Point","coordinates":[113.6665681,22.8622601]}},{"type":"Feature","properties":{"station_id":"n9433838623","station_name":"Liaoxia","station_name_local":"寮厦","network":"东莞轨道交通","network_local":"东莞轨道交通","operator":"东莞轨道交通","city":"Dongguan","country":"China","lines":["2"],"wikidata":"Q26365924"},"geometry":{"type":"Point","coordinates":[113.6685412,22.9438507]}},{"type":"Feature","properties":{"station_id":"n9433838624","station_name":"Shanmei","station_name_local":"珊美","network":"东莞轨道交通","network_local":null,"operator":"东莞轨道交通","city":"Dongguan","country":"China","lines":["2"],"wikidata":null},"geometry":{"type":"Point","coordinates":[113.6598046,22.929467]}},{"type":"Feature","properties":{"station_id":"n9435252197","station_name":"Tianbao","station_name_local":"天宝","network":"东莞轨道交通","network_local":null,"operator":"东莞轨道交通","city":"Dongguan","country":"China","lines":["2"],"wikidata":null},"geometry":{"type":"Point","coordinates":[113.7736235,23.0492895]}},{"type":"Feature","properties":{"station_id":"n9435252198","station_name":"Dongcheng","station_name_local":"东城","network":"东莞轨道交通","network_local":null,"operator":"东莞轨道交通","city":"Dongguan","country":"China","lines":["2"],"wikidata":null},"geometry":{"type":"Point","coordinates":[113.7713637,23.0356663]}},{"type":"Feature","properties":{"station_id":"n9435252199","station_name":"Qifeng Park","station_name_local":"旗峰公园","network":"东莞轨道交通","network_local":null,"operator":"东莞轨道交通","city":"Dongguan","country":"China","lines":["2"],"wikidata":null},"geometry":{"type":"Point","coordinates":[113.762731,23.0227982]}},{"type":"Feature","properties":{"station_id":"n9435252201","station_name":"Xiaqiao","station_name_local":"下桥","network":"东莞轨道交通","network_local":null,"operator":"东莞轨道交通","city":"Dongguan","country":"China","lines":["2"],"wikidata":"Q26365964"},"geometry":{"type":"Point","coordinates":[113.7829951,23.0653965]}},{"type":"Feature","properties":{"station_id":"n9436575386","station_name":"Chenwu","station_name_local":"陈屋","network":"东莞轨道交通","network_local":null,"operator":"东莞轨道交通","city":"Dongguan","country":"China","lines":["2"],"wikidata":null},"geometry":{"type":"Point","coordinates":[113.6858066,22.9612236]}},{"type":"Feature","properties":{"station_id":"n9436575387","station_name":"Gedi","station_name_local":"蛤地","network":"东莞轨道交通","network_local":null,"operator":"东莞轨道交通","city":"Dongguan","country":"China","lines":["2"],"wikidata":null},"geometry":{"type":"Point","coordinates":[113.7238906,22.9808408]}},{"type":"Feature","properties":{"station_id":"n12290352332","station_name":"Changping","station_name_local":"昌平","network":"Dongguan Rail Transit","network_local":"东莞轨道交通","operator":"东莞轨道交通","city":"Dongguan","country":"China","lines":["1"],"wikidata":"Q131869306"},"geometry":{"type":"Point","coordinates":[113.6824669,23.0196032]}},{"type":"Feature","properties":{"station_id":"n12290352333","station_name":"People's Hospital","station_name_local":"人民医院","network":"Dongguan Rail Transit","network_local":"东莞轨道交通","operator":"东莞轨道交通","city":"Dongguan","country":"China","lines":["1"],"wikidata":"Q131869285"},"geometry":{"type":"Point","coordinates":[113.6936122,23.0290517]}},{"type":"Feature","properties":{"station_id":"n12290352334","station_name":"Houde","station_name_local":"厚德","network":"Dongguan Rail Transit","network_local":"东莞轨道交通","operator":"东莞轨道交通","city":"Dongguan","country":"China","lines":["1"],"wikidata":"Q131869313"},"geometry":{"type":"Point","coordinates":[113.6562517,23.0122966]}},{"type":"Feature","properties":{"station_id":"n12290352338","station_name":"Dongguanxi Railway Station","station_name_local":"东莞西站","network":"Dongguan Rail Transit","network_local":"东莞轨道交通","operator":"东莞轨道交通","city":"Dongguan","country":"China","lines":["1"],"wikidata":"Q131864015"},"geometry":{"type":"Point","coordinates":[113.6225022,23.0124566]}},{"type":"Feature","properties":{"station_id":"n12290352340","station_name":"Quhai","station_name_local":"曲海","network":"Dongguan Rail Transit","network_local":"东莞轨道交通","operator":"东莞轨道交通","city":"Dongguan","country":"China","lines":["1"],"wikidata":"Q131869278"},"geometry":{"type":"Point","coordinates":[113.7118129,23.0347579]}},{"type":"Feature","properties":{"station_id":"n12290352343","station_name":"Batou","station_name_local":"坝头","network":"Dongguan Rail Transit","network_local":"东莞轨道交通","operator":"东莞轨道交通","city":"Dongguan","country":"China","lines":["1"],"wikidata":"Q131869269"},"geometry":{"type":"Point","coordinates":[113.7222348,23.0244159]}},{"type":"Feature","properties":{"station_id":"n12290352347","station_name":"Yuanmei","station_name_local":"元美","network":"Dongguan Rail Transit","network_local":"东莞轨道交通","operator":"东莞轨道交通","city":"Dongguan","country":"China","lines":["1"],"wikidata":"Q131869257"},"geometry":{"type":"Point","coordinates":[113.7352276,23.0194688]}},{"type":"Feature","properties":{"station_id":"n12290352350","station_name":"Central Square","station_name_local":"中心广场","network":"Dongguan Rail Transit","network_local":"东莞轨道交通","operator":"东莞轨道交通","city":"Dongguan","country":"China","lines":["1"],"wikidata":"Q131869236"},"geometry":{"type":"Point","coordinates":[113.7479067,23.0173285]}},{"type":"Feature","properties":{"station_id":"n12290352376","station_name":"Lixin","station_name_local":"立新","network":"Dongguan Rail Transit","network_local":"东莞轨道交通","operator":"东莞轨道交通","city":"Dongguan","country":"China","lines":["1"],"wikidata":"Q131869201"},"geometry":{"type":"Point","coordinates":[113.7676078,23.0065594]}},{"type":"Feature","properties":{"station_id":"n12290352422","station_name":"Dongchengnan Railway Station","station_name_local":"东城南站","network":"Dongguan Rail Transit","network_local":"东莞轨道交通","operator":"东莞轨道交通","city":"Dongguan","country":"China","lines":["1"],"wikidata":"Q131869193"},"geometry":{"type":"Point","coordinates":[113.7702028,22.9893128]}},{"type":"Feature","properties":{"station_id":"n12290352445","station_name":"Tongsha Park","station_name_local":"同沙公园","network":"Dongguan Rail Transit","network_local":"东莞轨道交通","operator":"东莞轨道交通","city":"Dongguan","country":"China","lines":["1"],"wikidata":"Q131869185"},"geometry":{"type":"Point","coordinates":[113.7697248,22.9734526]}},{"type":"Feature","properties":{"station_id":"n12290352454","station_name":"Niushan","station_name_local":"牛山","network":"Dongguan Rail Transit","network_local":"东莞轨道交通","operator":"东莞轨道交通","city":"Dongguan","country":"China","lines":["1"],"wikidata":"Q131869176"},"geometry":{"type":"Point","coordinates":[113.7707602,22.962941]}},{"type":"Feature","properties":{"station_id":"n12290352554","station_name":"Jinju","station_name_local":"金桔","network":"Dongguan Rail Transit","network_local":"东莞轨道交通","operator":"东莞轨道交通","city":"Dongguan","country":"China","lines":["1"],"wikidata":"Q131868528"},"geometry":{"type":"Point","coordinates":[113.8466942,22.9141164]}},{"type":"Feature","properties":{"station_id":"n12290352600","station_name":"Guangdong Medical University","station_name_local":"广东医大","network":"Dongguan Rail Transit","network_local":"东莞轨道交通","operator":"东莞轨道交通","city":"Dongguan","country":"China","lines":["1"],"wikidata":"Q131868509"},"geometry":{"type":"Point","coordinates":[113.8622636,22.9242093]}},{"type":"Feature","properties":{"station_id":"n12290420037","station_name":"Songshan Lake","station_name_local":"松山湖","network":"Dongguan Rail Transit","network_local":"东莞轨道交通","operator":"东莞轨道交通","city":"Dongguan","country":"China","lines":["1"],"wikidata":"Q131868499"},"geometry":{"type":"Point","coordinates":[113.8689687,22.931974]}},{"type":"Feature","properties":{"station_id":"n12290436801","station_name":"Songfo","station_name_local":"松佛","network":"Dongguan Rail Transit","network_local":"东莞轨道交通","operator":"东莞轨道交通","city":"Dongguan","country":"China","lines":["1"],"wikidata":"Q131868433"},"geometry":{"type":"Point","coordinates":[113.8967723,22.9360474]}},{"type":"Feature","properties":{"station_id":"n12290436827","station_name":"Dalang","station_name_local":"大朗","network":"Dongguan Rail Transit","network_local":"东莞轨道交通","operator":"东莞轨道交通","city":"Dongguan","country":"China","lines":["1"],"wikidata":"Q131868421"},"geometry":{"type":"Point","coordinates":[113.9219558,22.9308268]}},{"type":"Feature","properties":{"station_id":"n12290436837","station_name":"Lixiang Park","station_name_local":"荔香公园","network":"Dongguan Rail Transit","network_local":"东莞轨道交通","operator":"东莞轨道交通","city":"Dongguan","country":"China","lines":["1"],"wikidata":"Q131868417"},"geometry":{"type":"Point","coordinates":[113.9460881,22.9207048]}},{"type":"Feature","properties":{"station_id":"n12290436859","station_name":"Fengshan","station_name_local":"凤山","network":"Dongguan Rail Transit","network_local":"东莞轨道交通","operator":"东莞轨道交通","city":"Dongguan","country":"China","lines":["1"],"wikidata":"Q131868409"},"geometry":{"type":"Point","coordinates":[113.9654345,22.9124369]}},{"type":"Feature","properties":{"station_id":"n12290436971","station_name":"Huangniupu","station_name_local":"黄牛埔","network":"Dongguan Rail Transit","network_local":"东莞轨道交通","operator":"东莞轨道交通","city":"Dongguan","country":"China","lines":["1"],"wikidata":"Q131868391"},"geometry":{"type":"Point","coordinates":[113.9913472,22.8754276]}},{"type":"Feature","properties":{"station_id":"n12290436974","station_name":"Meitang","station_name_local":"梅塘","network":"Dongguan Rail Transit","network_local":"东莞轨道交通","operator":"东莞轨道交通","city":"Dongguan","country":"China","lines":["1"],"wikidata":"Q131864051"},"geometry":{"type":"Point","coordinates":[113.9801722,22.8451491]}},{"type":"Feature","properties":{"station_id":"n12791162944","station_name":"Civic Center","station_name_local":"市民中心","network":"Dongguan Rail Transit","network_local":"东莞轨道交通","operator":"东莞轨道交通","city":"Dongguan","country":"China","lines":["1"],"wikidata":"Q26365941"},"geometry":{"type":"Point","coordinates":[113.7549604,23.0143497]}},{"type":"Feature","properties":{"station_id":"n13337599187","station_name":"Huangjiang","station_name_local":"黄江","network":"Dongguan Rail Transit","network_local":"东莞轨道交通","operator":"东莞轨道交通","city":"Dongguan","country":"China","lines":["1"],"wikidata":"Q131868396"},"geometry":{"type":"Point","coordinates":[113.9934165,22.8968456]}}]}