{"type":"FeatureCollection","metro_system":{"continent":"asia","country":"China","city":"Lanzhou","osm_networks":["Lanzhou Metro","Unknown"],"operator":"Lanzhou Rail Transit","official_website":null,"official_map":"https://en.wikipedia.org/wiki/Line_1_(Lanzhou_Metro)","wikidata":"Q10893610","line_count":2,"station_count":26,"audit":null},"features":[{"type":"Feature","properties":{"route_id":"rm10380194","route_name":"Lanzhou Metro Line 1","route_name_local":"兰州轨道交通1号线","route_ref":"1","route_color":"#0080bc","network":"Lanzhou Metro","network_local":"兰州轨道交通","operator":"Lanzhou Rail Transit","city":"Lanzhou","country":"China","wikidata":"Q10893610","wikipedia":"en:Line 1 (Lanzhou Metro)","osm_route_ids":[6078060,10380192]},"geometry":{"type":"MultiLineString","coordinates":[[[103.6600319,36.0873004],[103.674672,36.0904595],[103.6989021,36.0991341],[103.706994,36.0946963],[103.7247854,36.0831509],[103.740685,36.0733499],[103.749977,36.0705554],[103.767222,36.0687137],[103.7788752,36.0667017],[103.7922285,36.0642528],[103.8030056,36.061368],[103.8142589,36.0599412],[103.8395179,36.0535609],[103.8544558,36.0504988],[103.8690966,36.04699],[103.8811156,36.0421288],[103.8936549,36.0395045],[103.9051784,36.0386607],[103.9156283,36.0407831]],[[103.9156283,36.0407831],[103.9051784,36.0386607],[103.8936549,36.0395045],[103.8811156,36.0421288],[103.8690966,36.04699],[103.8544558,36.0504988],[103.8395179,36.0535609],[103.8142589,36.0599412],[103.8030056,36.061368],[103.7922285,36.0642528],[103.7788752,36.0667017],[103.767222,36.0687137],[103.749977,36.0705554],[103.740685,36.0733499],[103.7247854,36.0831509],[103.706994,36.0946963],[103.6989021,36.0991341],[103.674672,36.0904595],[103.6600319,36.0873004]]]}},{"type":"Feature","properties":{"route_id":"rm15924888","route_name":"Lanzhou Metro Line 2","route_name_local":"兰州轨道交通2号线","route_ref":"2","route_color":"#ff0000","network":"Lanzhou Metro","network_local":"兰州轨道交通","operator":"Lanzhou Rail Transit","city":"Lanzhou","country":"China","wikidata":"Q65050458","wikipedia":"zh:兰州轨道交通2号线","osm_route_ids":[15917615,15917616]},"geometry":{"type":"MultiLineString","coordinates":[[[103.88221,36.0691473],[103.87819776666667,36.06059153333333],[103.8748527,36.05619],[103.8690966,36.04699],[103.8667966,36.039832],[103.8576024,36.0346802],[103.8507557,36.0362598],[103.8462456,36.0426254],[103.8395179,36.0535609]]]}},{"type":"Feature","properties":{"station_id":"n3945258045","station_name":"Jiaojiawan","station_name_local":"焦家湾","network":"Unknown","network_local":null,"operator":null,"city":"Lanzhou","country":"China","lines":["1"],"wikidata":"Q64761777"},"geometry":{"type":"Point","coordinates":[103.9051784,36.0386607]}},{"type":"Feature","properties":{"station_id":"n4077238744","station_name":"Junjiatan","station_name_local":"均家滩","network":"Unknown","network_local":null,"operator":null,"city":"Lanzhou","country":"China","lines":["2"],"wikidata":null,"merged_from":3},"geometry":{"type":"Point","coordinates":[103.87819776666667,36.06059153333333]}},{"type":"Feature","properties":{"station_id":"n4173957771","station_name":"Wulipu","station_name_local":"五里铺","network":"Unknown","network_local":null,"operator":null,"city":"Lanzhou","country":"China","lines":["2"],"wikidata":"Q64761823"},"geometry":{"type":"Point","coordinates":[103.8690966,36.04699]}},{"type":"Feature","properties":{"station_id":"n4290398448","station_name":"Donggang","station_name_local":"东岗","network":"Unknown","network_local":null,"operator":null,"city":"Lanzhou","country":"China","lines":["1"],"wikidata":"Q64761716"},"geometry":{"type":"Point","coordinates":[103.9156283,36.0407831]}},{"type":"Feature","properties":{"station_id":"n5636152181","station_name":"Chenguanying","station_name_local":"陈官营","network":"Unknown","network_local":null,"operator":null,"city":"Lanzhou","country":"China","lines":["1"],"wikidata":null},"geometry":{"type":"Point","coordinates":[103.6600319,36.0873004]}},{"type":"Feature","properties":{"station_id":"n6563923252","station_name":"Olympic Sports Center","station_name_local":"奥体中心","network":"Unknown","network_local":null,"operator":null,"city":"Lanzhou","country":"China","lines":["1"],"wikidata":"Q64761295"},"geometry":{"type":"Point","coordinates":[103.674672,36.0904595]}},{"type":"Feature","properties":{"station_id":"n6563941615","station_name":"Lanzhou City University (Gansu Science & Technology Museum)","station_name_local":"兰州城市学院（省科技馆）","network":"Unknown","network_local":null,"operator":null,"city":"Lanzhou","country":"China","lines":["1"],"wikidata":"Q64761642"},"geometry":{"type":"Point","coordinates":[103.6989021,36.0991341]}},{"type":"Feature","properties":{"station_id":"n6563941624","station_name":"Yingmentan","station_name_local":"兰州海关","network":"Unknown","network_local":null,"operator":null,"city":"Lanzhou","country":"China","lines":["1"],"wikidata":null},"geometry":{"type":"Point","coordinates":[103.706994,36.0946963]}},{"type":"Feature","properties":{"station_id":"n6563941662","station_name":"Matan","station_name_local":"马滩","network":"Unknown","network_local":null,"operator":null,"city":"Lanzhou","country":"China","lines":["1"],"wikidata":"Q64762051"},"geometry":{"type":"Point","coordinates":[103.7247854,36.0831509]}},{"type":"Feature","properties":{"station_id":"n6563941666","station_name":"Tumendun","station_name_local":"土门墩","network":"Unknown","network_local":null,"operator":null,"city":"Lanzhou","country":"China","lines":["1"],"wikidata":"Q64762040"},"geometry":{"type":"Point","coordinates":[103.740685,36.0733499]}},{"type":"Feature","properties":{"station_id":"n6563941677","station_name":"North Square of Lanzhou West Railway Station","station_name_local":"兰州西站北广场","network":"Unknown","network_local":null,"operator":null,"city":"Lanzhou","country":"China","lines":["1"],"wikidata":"Q64761145"},"geometry":{"type":"Point","coordinates":[103.749977,36.0705554]}},{"type":"Feature","properties":{"station_id":"n6563941678","station_name":"Xizhanshizi","station_name_local":"西站什字","network":"Unknown","network_local":null,"operator":null,"city":"Lanzhou","country":"China","lines":["1"],"wikidata":"Q64761312"},"geometry":{"type":"Point","coordinates":[103.767222,36.0687137]}},{"type":"Feature","properties":{"station_id":"n6563941698","station_name":"Qilihe","station_name_local":"七里河","network":"Unknown","network_local":null,"operator":null,"city":"Lanzhou","country":"China","lines":["1"],"wikidata":"Q64764471"},"geometry":{"type":"Point","coordinates":[103.7788752,36.0667017]}},{"type":"Feature","properties":{"station_id":"n6563941701","station_name":"Xiaoxihu Park","station_name_local":"小西湖","network":"Unknown","network_local":null,"operator":null,"city":"Lanzhou","country":"China","lines":["1"],"wikidata":"Q64764475"},"geometry":{"type":"Point","coordinates":[103.7922285,36.0642528]}},{"type":"Feature","properties":{"station_id":"n6563941758","station_name":"Cultural Palace","station_name_local":"文化宫","network":"Unknown","network_local":null,"operator":null,"city":"Lanzhou","country":"China","lines":["1"],"wikidata":"Q64764470"},"geometry":{"type":"Point","coordinates":[103.8030056,36.061368]}},{"type":"Feature","properties":{"station_id":"n6563941759","station_name":"Xiguan","station_name_local":"西关","network":"Unknown","network_local":null,"operator":null,"city":"Lanzhou","country":"China","lines":["1"],"wikidata":"Q64761304"},"geometry":{"type":"Point","coordinates":[103.8142589,36.0599412]}},{"type":"Feature","properties":{"station_id":"n6563941854","station_name":"Dongfanghong Square","station_name_local":"东方红广场","network":"Unknown","network_local":null,"operator":null,"city":"Lanzhou","country":"China","lines":["2"],"wikidata":"Q64760071"},"geometry":{"type":"Point","coordinates":[103.8395179,36.0535609]}},{"type":"Feature","properties":{"station_id":"n6563941940","station_name":"Lanzhou University","station_name_local":"兰州大学","network":"Unknown","network_local":null,"operator":null,"city":"Lanzhou","country":"China","lines":["1"],"wikidata":"Q64760069"},"geometry":{"type":"Point","coordinates":[103.8544558,36.0504988]}},{"type":"Feature","properties":{"station_id":"n6563942021","station_name":"Gansu Meteorological Bureau","station_name_local":"省气象局","network":"Unknown","network_local":null,"operator":null,"city":"Lanzhou","country":"China","lines":["1"],"wikidata":"Q64761819"},"geometry":{"type":"Point","coordinates":[103.8811156,36.0421288]}},{"type":"Feature","properties":{"station_id":"n6563942044","station_name":"Gongxingdun","station_name_local":"拱星墩","network":"Unknown","network_local":null,"operator":null,"city":"Lanzhou","country":"China","lines":["1"],"wikidata":"Q64761870"},"geometry":{"type":"Point","coordinates":[103.8936549,36.0395045]}},{"type":"Feature","properties":{"station_id":"n10937066500","station_name":"Zhangsutan","station_name_local":"张苏滩","network":"Unknown","network_local":null,"operator":null,"city":"Lanzhou","country":"China","lines":["2"],"wikidata":null},"geometry":{"type":"Point","coordinates":[103.8748527,36.05619]}},{"type":"Feature","properties":{"station_id":"n10937066504","station_name":"Postal Building","station_name_local":"邮电大楼","network":"Unknown","network_local":null,"operator":null,"city":"Lanzhou","country":"China","lines":["2"],"wikidata":null},"geometry":{"type":"Point","coordinates":[103.8462456,36.0426254]}},{"type":"Feature","properties":{"station_id":"n10937090905","station_name":"Lanzhou Railway Station","station_name_local":"兰州火车站","network":"Unknown","network_local":null,"operator":null,"city":"Lanzhou","country":"China","lines":["2"],"wikidata":null},"geometry":{"type":"Point","coordinates":[103.8507557,36.0362598]}},{"type":"Feature","properties":{"station_id":"n10937090907","station_name":"Hongxingxiang","station_name_local":"红星巷","network":"Unknown","network_local":null,"operator":null,"city":"Lanzhou","country":"China","lines":["2"],"wikidata":null},"geometry":{"type":"Point","coordinates":[103.8576024,36.0346802]}},{"type":"Feature","properties":{"station_id":"n10937090908","station_name":"Tuanjie Xincun","station_name_local":"团结新村","network":"Unknown","network_local":null,"operator":null,"city":"Lanzhou","country":"China","lines":["2"],"wikidata":null},"geometry":{"type":"Point","coordinates":[103.8667966,36.039832]}},{"type":"Feature","properties":{"station_id":"n10937090909","station_name":"Yanbai Bridge","station_name_local":"雁白大桥","network":"Unknown","network_local":null,"operator":null,"city":"Lanzhou","country":"China","lines":["2"],"wikidata":null},"geometry":{"type":"Point","coordinates":[103.88221,36.0691473]}}]}