{"type":"FeatureCollection","metro_system":{"continent":"europe","country":"Portugal","city":"Porto","osm_networks":["Andante","Metro do Porto","Unknown"],"operator":"ViaPorto","official_website":null,"official_map":"https://pt.wikipedia.org/wiki/Linha_E_(Metro_do_Porto)","wikidata":"Q10318682","line_count":6,"station_count":86,"audit":{"strategies_tried":[],"passed":true,"checks":[{"id":"has_lines","ok":true,"detail":"6 lines","level":"error"},{"id":"has_stations","ok":true,"detail":"86 stations","level":"error"},{"id":"stations_have_lines","ok":true,"detail":"86/86 站皆有所屬路線","level":"error"},{"id":"stations_named","ok":true,"detail":"86/86 站有名稱","level":"warn"},{"id":"station_order","ok":true,"detail":"所有線路站序合理","level":"warn"}],"reasons":[],"warnings":[],"audited_at":"2026-07-10T07:57:11.043Z"}},"features":[{"type":"Feature","properties":{"route_id":"rm6063237","route_name":"Linha E: Estádio do Dragão ⇔ Aeroporto","route_name_local":"Linha E: Estádio do Dragão ⇔ Aeroporto","route_ref":"E","route_color":"#937bb8","network":"Metro do Porto","network_local":"Metro do Porto","operator":"ViaPorto","city":"Porto","country":"Portugal","wikidata":"Q10318682","wikipedia":"pt:Linha E (Metro do Porto)","osm_route_ids":[1710380,6063236,15866972,15866973]},"geometry":{"type":"MultiLineString","coordinates":[[[-8.5820047,41.1607236],[-8.5856572,41.1507357],[-8.5930469,41.1465347],[-8.5986755,41.1487564],[-8.6058239,41.1497892],[-8.609185,41.1522806],[-8.6167954,41.1570996],[-8.6218919,41.1585715],[-8.6286823,41.1606428],[-8.6363404,41.165496],[-8.6418366,41.1729817],[-8.6465194,41.1772443],[-8.6521632,41.1824196],[-8.654487,41.1880791],[-8.6559427,41.1941624],[-8.6555611,41.200272],[-8.6545453,41.2160221],[-8.6566169,41.2329919],[-8.6582627,41.2381767],[-8.6652351,41.2375415],[-8.6695563,41.2372068]]]}},{"type":"Feature","properties":{"route_id":"rm6065645","route_name":"Linha C: Campanhã ⇔ ISMAI","route_name_local":"Linha C: Campanhã ⇔ ISMAI","route_ref":"C","route_color":"#8bc63e","network":"Metro do Porto","network_local":"Metro do Porto","operator":"ViaPorto","city":"Porto","country":"Portugal","wikidata":"Q10318673","wikipedia":"pt:Linha C (Metro do Porto)","osm_route_ids":[2124143,6065644]},"geometry":{"type":"MultiLineString","coordinates":[[[-8.615431,41.2688969],[-8.6170417,41.262715],[-8.6283663,41.2535761],[-8.6285144,41.243749],[-8.6239708,41.2343186],[-8.6265851,41.2291439],[-8.6390054,41.2223204],[-8.6410522,41.2168878],[-8.6471675,41.2082183],[-8.6497603,41.2007066],[-8.6556553,41.1941739],[-8.6545271,41.1880759],[-8.6521925,41.1824031],[-8.646547,41.1772271],[-8.6418643,41.1729646],[-8.6363617,41.1654744],[-8.6286896,41.1606149],[-8.621901,41.1585461],[-8.6168077,41.1570743],[-8.6092205,41.1522767],[-8.6058353,41.1497603],[-8.5987107,41.148742],[-8.5930436,41.1465046],[-8.5856206,41.1507324]]]}},{"type":"Feature","properties":{"route_id":"rm6064925","route_name":"Linha A: Estádio do Dragão ⇔ Senhor de Matosinhos","route_name_local":"Linha A: Estádio do Dragão ⇔ Senhor de Matosinhos","route_ref":"A","route_color":"#3caeef","network":"Metro do Porto","network_local":"Metro do Porto","operator":"ViaPorto","city":"Porto","country":"Portugal","wikidata":"Q18473912","wikipedia":"pt:Linha A (Metro do Porto)","osm_route_ids":[2174525,6064924]},"geometry":{"type":"MultiLineString","coordinates":[[[-8.6851606,41.188208],[-8.6934636,41.1874588],[-8.6915191,41.1838769],[-8.6885891,41.1801059],[-8.6812543,41.1806357],[-8.6735805,41.1790607],[-8.6662377,41.1803292],[-8.6612146,41.1857281],[-8.6610289,41.1902888],[-8.6545271,41.1880759],[-8.6521925,41.1824031],[-8.646547,41.1772271],[-8.6418643,41.1729646],[-8.6363617,41.1654744],[-8.6286896,41.1606149],[-8.621901,41.1585461],[-8.6168077,41.1570743],[-8.6092205,41.1522767],[-8.6058353,41.1497603],[-8.5987107,41.148742],[-8.5930436,41.1465046],[-8.5856206,41.1507324],[-8.5820047,41.1607236]]]}},{"type":"Feature","properties":{"route_id":"rm6064751","route_name":"Linha F: Senhora da Hora ⇔ Fânzeres","route_name_local":"Linha F: Senhora da Hora ⇔ Fânzeres","route_ref":"F","route_color":"#f68b1f","network":"Metro do Porto","network_local":"Metro do Porto","operator":"ViaPorto","city":"Porto","country":"Portugal","wikidata":"Q10318684","wikipedia":"pt:Linha F (Metro do Porto)","osm_route_ids":[2465891,6064750]},"geometry":{"type":"MultiLineString","coordinates":[[[-8.6851606,41.188208],[-8.6934636,41.1874588],[-8.6915191,41.1838769],[-8.6885891,41.1801059],[-8.6812543,41.1806357],[-8.6735805,41.1790607],[-8.6662377,41.1803292],[-8.6612146,41.1857281],[-8.6610289,41.1902888],[-8.6545271,41.1880759],[-8.6521925,41.1824031],[-8.646547,41.1772271],[-8.6418643,41.1729646],[-8.6363617,41.1654744],[-8.6286896,41.1606149],[-8.621901,41.1585461],[-8.6168077,41.1570743],[-8.6092205,41.1522767],[-8.6058353,41.1497603],[-8.5987107,41.148742],[-8.5930436,41.1465046],[-8.5856206,41.1507324],[-8.5817313,41.1611769],[-8.57863,41.1657034],[-8.5772463,41.1706503],[-8.5734693,41.174079],[-8.5621587,41.1757272],[-8.5602052,41.1793773],[-8.5538309,41.1833383],[-8.5458661,41.185512],[-8.5435434,41.1798166],[-8.5419137,41.175084],[-8.5427846,41.1712808]]]}},{"type":"Feature","properties":{"route_id":"rm6063097","route_name":"Linha D: Hospital de São João ⇔ Santo Ovídio","route_name_local":"Linha D: Hospital de São João ⇔ Santo Ovídio","route_ref":"D","route_color":"#f9c212","network":"Metro do Porto","network_local":"Metro do Porto","operator":"ViaPorto","city":"Porto","country":"Portugal","wikidata":"Q10318679","wikipedia":"pt:Linha D (Metro do Porto)","osm_route_ids":[2567504,6063096]},"geometry":{"type":"MultiLineString","coordinates":[[[-8.588523,41.0985899],[-8.5911354,41.1058358],[-8.600031,41.1106607],[-8.6065926,41.1155036],[-8.6061806,41.1195255],[-8.6056012,41.1260886],[-8.606157,41.1296636],[-8.6075143,41.1339348],[-8.6086894,41.1376202],[-8.6107945,41.1447922],[-8.6109519,41.148591],[-8.6096722,41.15226],[-8.6092616,41.1572221],[-8.6042878,41.1611552],[-8.5988733,41.1650776],[-8.5986405,41.1693038],[-8.6035622,41.1746366],[-8.6045407,41.1812086],[-8.6022789,41.1832178]]]}},{"type":"Feature","properties":{"route_id":"rm6161229","route_name":"Linha B: Póvoa de Varzim ⇔ Estádio do Dragão","route_name_local":"Linha B: Póvoa de Varzim ⇔ Estádio do Dragão","route_ref":"B","route_color":"#e62621","network":"Metro do Porto","network_local":"Metro do Porto","operator":"ViaPorto","city":"Porto","country":"Portugal","wikidata":"Q10318669","wikipedia":"pt:Linha B (Metro do Porto)","osm_route_ids":[2904254,5750428,15866974,15866975]},"geometry":{"type":"MultiLineString","coordinates":[[[-8.7582642,41.3777069],[-8.753831,41.3731785],[-8.7496818,41.3692313],[-8.7449546,41.3643501],[-8.7398849,41.3590605],[-8.735662,41.3539144],[-8.7280797,41.3459412],[-8.7255577,41.3403326],[-8.720694,41.3342042],[-8.7186987,41.3211746],[-8.7142291,41.315052],[-8.7040243,41.3004894],[-8.6992863,41.2936416],[-8.6935796,41.2852176],[-8.6795702,41.2702615],[-8.6680489,41.2549083],[-8.6618725,41.2463368],[-8.6584244,41.2381402],[-8.6566575,41.2329844],[-8.6545838,41.2160343],[-8.6555987,41.2002816],[-8.6559814,41.1941577],[-8.6545271,41.1880759],[-8.6521925,41.1824031],[-8.646547,41.1772271],[-8.6418643,41.1729646],[-8.6363617,41.1654744],[-8.6286896,41.1606149],[-8.621901,41.1585461],[-8.6168077,41.1570743],[-8.6092205,41.1522767],[-8.6058353,41.1497603],[-8.5987107,41.148742],[-8.5930436,41.1465046],[-8.5856206,41.1507324],[-8.5820047,41.1607236]]]}},{"type":"Feature","properties":{"station_id":"n3939659557","station_name":"NorteShopping / Sete Bicas","station_name_local":"NorteShopping / Sete Bicas","network":"Metro do Porto","network_local":null,"operator":"Metro do Porto","city":"Porto","country":"Portugal","lines":["A","B","C","E","F"],"wikidata":"Q10276142"},"geometry":{"type":"Point","coordinates":[-8.6521802,41.1824127]}},{"type":"Feature","properties":{"station_id":"n3939661657","station_name":"Francos","station_name_local":"Francos","network":"Metro do Porto","network_local":null,"operator":"Metro do Porto","city":"Porto","country":"Portugal","lines":["A","B","C","E","F"],"wikidata":"Q10275813"},"geometry":{"type":"Point","coordinates":[-8.6363513,41.1654863]}},{"type":"Feature","properties":{"station_id":"n3939836094","station_name":"Viso","station_name_local":"Viso","network":"Metro do Porto","network_local":null,"operator":"Metro do Porto","city":"Porto","country":"Portugal","lines":["A","B","C","E","F"],"wikidata":"Q10276227"},"geometry":{"type":"Point","coordinates":[-8.6465342,41.1772361]}},{"type":"Feature","properties":{"station_id":"n3941918457","station_name":"Ramalde","station_name_local":"Ramalde","network":"Metro do Porto","network_local":null,"operator":"Metro do Porto","city":"Porto","country":"Portugal","lines":["A","B","C","E","F"],"wikidata":"Q10276085"},"geometry":{"type":"Point","coordinates":[-8.6418485,41.1729743]}},{"type":"Feature","properties":{"station_id":"n3996603757","station_name":"Trindade","station_name_local":"Trindade","network":"Metro do Porto","network_local":null,"operator":"Metro do Porto","city":"Porto","country":"Portugal","lines":["A","B","C","E","F"],"wikidata":"Q162481","merged_from":2},"geometry":{"type":"Point","coordinates":[-8.6093584,41.152479]}},{"type":"Feature","properties":{"station_id":"n6627320512","station_name":"Senhora da Hora","station_name_local":"Senhora da Hora","network":"Metro do Porto","network_local":null,"operator":"Metro do Porto","city":"Porto","country":"Portugal","lines":["A","B","C","E","F"],"wikidata":"Q48855726"},"geometry":{"type":"Point","coordinates":[-8.6544931,41.1880792]}},{"type":"Feature","properties":{"station_id":"n6627320513","station_name":"Casa da Música","station_name_local":"Casa da Música","network":"Metro do Porto","network_local":null,"operator":"Metro do Porto","city":"Porto","country":"Portugal","lines":["A","B","C","E","F"],"wikidata":"Q10275633"},"geometry":{"type":"Point","coordinates":[-8.6286861,41.1606277]}},{"type":"Feature","properties":{"station_id":"n6627320514","station_name":"Carolina Michaelis","station_name_local":"Carolina Michaelis","network":"Metro do Porto","network_local":null,"operator":"Metro do Porto","city":"Porto","country":"Portugal","lines":["A","B","C","E","F"],"wikidata":"Q10275632"},"geometry":{"type":"Point","coordinates":[-8.6218958,41.1585585]}},{"type":"Feature","properties":{"station_id":"n6627320515","station_name":"Lapa","station_name_local":"Lapa","network":"Metro do Porto","network_local":null,"operator":"Metro do Porto","city":"Porto","country":"Portugal","lines":["A","B","C","E","F"],"wikidata":"Q10275928"},"geometry":{"type":"Point","coordinates":[-8.6168023,41.1570869]}},{"type":"Feature","properties":{"station_id":"n6627320516","station_name":"Bolhão","station_name_local":"Bolhão","network":"Metro do Porto","network_local":null,"operator":"Metro do Porto","city":"Porto","country":"Portugal","lines":["A","B","C","E","F"],"wikidata":"Q10275605"},"geometry":{"type":"Point","coordinates":[-8.6058293,41.1497738]}},{"type":"Feature","properties":{"station_id":"n6627320517","station_name":"Campo 24 de Agosto","station_name_local":"Campo 24 de Agosto","network":"Metro do Porto","network_local":null,"operator":"Metro do Porto","city":"Porto","country":"Portugal","lines":["A","B","C","E","F"],"wikidata":"Q10275622"},"geometry":{"type":"Point","coordinates":[-8.5986934,41.1487494]}},{"type":"Feature","properties":{"station_id":"n6627320518","station_name":"Heroísmo","station_name_local":"Heroísmo","network":"Metro do Porto","network_local":null,"operator":"Metro do Porto","city":"Porto","country":"Portugal","lines":["A","B","C","E","F"],"wikidata":"Q10275856"},"geometry":{"type":"Point","coordinates":[-8.5930447,41.1465197]}},{"type":"Feature","properties":{"station_id":"n6627320519","station_name":"Dragon Stadium","station_name_local":"Estádio do Dragão","network":"Metro do Porto","network_local":null,"operator":"Metro do Porto","city":"Porto","country":"Portugal","lines":["F"],"wikidata":"Q10275748"},"geometry":{"type":"Point","coordinates":[-8.582045,41.1605034]}},{"type":"Feature","properties":{"station_id":"n6627320524","station_name":"Nau Vitória","station_name_local":"Nau Vitória","network":"Andante","network_local":"Andante","operator":"Metro do Porto","city":"Porto","country":"Portugal","lines":["F"],"wikidata":"Q10276004"},"geometry":{"type":"Point","coordinates":[-8.5738216,41.1736853]}},{"type":"Feature","properties":{"station_id":"n6630342112","station_name":"Santo Ovídio","station_name_local":"Santo Ovídio","network":"Metro do Porto","network_local":"Metro do Porto","operator":"Metro do Porto","city":"Porto","country":"Portugal","lines":["D"],"wikidata":"Q10276303"},"geometry":{"type":"Point","coordinates":[-8.606615,41.115502]}},{"type":"Feature","properties":{"station_id":"n6630342113","station_name":"Hospital São João","station_name_local":"Hospital São João","network":"Metro do Porto","network_local":null,"operator":"Metro do Porto","city":"Porto","country":"Portugal","lines":["D"],"wikidata":"Q10275861"},"geometry":{"type":"Point","coordinates":[-8.6022748,41.1832328]}},{"type":"Feature","properties":{"station_id":"n6630342114","station_name":"IPO","station_name_local":"IPO","network":"Metro do Porto","network_local":null,"operator":"Metro do Porto","city":"Porto","country":"Portugal","lines":["D"],"wikidata":"Q10275864"},"geometry":{"type":"Point","coordinates":[-8.6045603,41.1812132]}},{"type":"Feature","properties":{"station_id":"n6630378103","station_name":"Campanhã","station_name_local":"Campanhã","network":"Metro do Porto","network_local":null,"operator":"Metro do Porto","city":"Porto","country":"Portugal","lines":["A","B","C","E","F"],"wikidata":"Q801328"},"geometry":{"type":"Point","coordinates":[-8.585639,41.150734]}},{"type":"Feature","properties":{"station_id":"n6632372465","station_name":"Dom João II","station_name_local":"Dom João II","network":"Metro do Porto","network_local":null,"operator":"Metro do Porto","city":"Porto","country":"Portugal","lines":["D"],"wikidata":"Q10275683"},"geometry":{"type":"Point","coordinates":[-8.6062277,41.1195282]}},{"type":"Feature","properties":{"station_id":"n6632372466","station_name":"João de Deus","station_name_local":"João de Deus","network":"Metro do Porto","network_local":null,"operator":"Metro do Porto","city":"Porto","country":"Portugal","lines":["D"],"wikidata":"Q10275903"},"geometry":{"type":"Point","coordinates":[-8.6056608,41.1260954]}},{"type":"Feature","properties":{"station_id":"n6632372467","station_name":"Câmara Gaia","station_name_local":"Câmara Gaia","network":"Metro do Porto","network_local":null,"operator":"Metro do Porto","city":"Porto","country":"Portugal","lines":["D"],"wikidata":"Q10275681"},"geometry":{"type":"Point","coordinates":[-8.6061716,41.1296625]}},{"type":"Feature","properties":{"station_id":"n6632372468","station_name":"General Torres","station_name_local":"General Torres","network":"Metro do Porto","network_local":null,"operator":"Metro do Porto","city":"Porto","country":"Portugal","lines":["D"],"wikidata":"Q10275823"},"geometry":{"type":"Point","coordinates":[-8.6075288,41.1339305]}},{"type":"Feature","properties":{"station_id":"n6632372469","station_name":"Jardim do Morro","station_name_local":"Jardim do Morro","network":"Metro do Porto","network_local":"Metro do Porto","operator":"Metro do Porto","city":"Porto","country":"Portugal","lines":["D"],"wikidata":"Q10275895"},"geometry":{"type":"Point","coordinates":[-8.6087066,41.137615]}},{"type":"Feature","properties":{"station_id":"n6632372470","station_name":"São Bento","station_name_local":"São Bento","network":"Metro do Porto","network_local":null,"operator":"Metro do Porto","city":"Porto","country":"Portugal","lines":["D"],"wikidata":"Q10276156"},"geometry":{"type":"Point","coordinates":[-8.6108165,41.1447883]}},{"type":"Feature","properties":{"station_id":"n6632372471","station_name":"Aliados","station_name_local":"Aliados","network":"Metro do Porto","network_local":null,"operator":"Metro do Porto","city":"Porto","country":"Portugal","lines":["D"],"wikidata":"Q10275561"},"geometry":{"type":"Point","coordinates":[-8.6109746,41.1485925]}},{"type":"Feature","properties":{"station_id":"n6632372472","station_name":"Faria Guimarães","station_name_local":"Faria Guimarães","network":"Metro do Porto","network_local":null,"operator":"Metro do Porto","city":"Porto","country":"Portugal","lines":["D"],"wikidata":"Q10275755"},"geometry":{"type":"Point","coordinates":[-8.6092828,41.1572283]}},{"type":"Feature","properties":{"station_id":"n6632372473","station_name":"Marquês","station_name_local":"Marquês","network":"Metro do Porto","network_local":null,"operator":"Metro do Porto","city":"Porto","country":"Portugal","lines":["D"],"wikidata":"Q10275965"},"geometry":{"type":"Point","coordinates":[-8.604297,41.1611709]}},{"type":"Feature","properties":{"station_id":"n6632372474","station_name":"Pólo Universitário","station_name_local":"Pólo Universitário","network":"Metro do Porto","network_local":null,"operator":"Metro do Porto","city":"Porto","country":"Portugal","lines":["D"],"wikidata":"Q10276077"},"geometry":{"type":"Point","coordinates":[-8.6036568,41.1746021]}},{"type":"Feature","properties":{"station_id":"n6632372475","station_name":"Combatentes","station_name_local":"Combatentes","network":"Metro do Porto","network_local":null,"operator":"Metro do Porto","city":"Porto","country":"Portugal","lines":["D"],"wikidata":"Q10275660"},"geometry":{"type":"Point","coordinates":[-8.5988953,41.1650814]}},{"type":"Feature","properties":{"station_id":"n6632372476","station_name":"Salgueiros","station_name_local":"Salgueiros","network":"Metro do Porto","network_local":null,"operator":"Metro do Porto","city":"Porto","country":"Portugal","lines":["D"],"wikidata":"Q10276121"},"geometry":{"type":"Point","coordinates":[-8.5986615,41.1692975]}},{"type":"Feature","properties":{"station_id":"n6632407681","station_name":"Cândido dos Reis","station_name_local":"Cândido dos Reis","network":"Metro do Porto","network_local":null,"operator":"Metro do Porto","city":"Porto","country":"Portugal","lines":["C"],"wikidata":"Q10275684"},"geometry":{"type":"Point","coordinates":[-8.6497476,41.2006924]}},{"type":"Feature","properties":{"station_id":"n6632407682","station_name":"Pias","station_name_local":"Pias","network":"Metro do Porto","network_local":null,"operator":"Metro do Porto","city":"Porto","country":"Portugal","lines":["C"],"wikidata":"Q10276054"},"geometry":{"type":"Point","coordinates":[-8.6471545,41.208208]}},{"type":"Feature","properties":{"station_id":"n6632407683","station_name":"Araújo","station_name_local":"Araújo","network":"Metro do Porto","network_local":null,"operator":"Metro do Porto","city":"Porto","country":"Portugal","lines":["C"],"wikidata":"Q10275573"},"geometry":{"type":"Point","coordinates":[-8.6410331,41.2168863]}},{"type":"Feature","properties":{"station_id":"n6632407684","station_name":"Custió","station_name_local":"Custió","network":"Metro do Porto","network_local":null,"operator":"Metro do Porto","city":"Porto","country":"Portugal","lines":["C"],"wikidata":"Q10275679"},"geometry":{"type":"Point","coordinates":[-8.6389966,41.2223074]}},{"type":"Feature","properties":{"station_id":"n6632410573","station_name":"Aeroporto","station_name_local":"Aeroporto","network":"Metro do Porto","network_local":null,"operator":"Metro do Porto","city":"Porto","country":"Portugal","lines":["E"],"wikidata":"Q10275549"},"geometry":{"type":"Point","coordinates":[-8.6695989,41.2371203]}},{"type":"Feature","properties":{"station_id":"n6632410574","station_name":"Botica","station_name_local":"Botica","network":"Metro do Porto","network_local":null,"operator":"Metro do Porto","city":"Porto","country":"Portugal","lines":["E"],"wikidata":"Q10275608"},"geometry":{"type":"Point","coordinates":[-8.6652403,41.2375167]}},{"type":"Feature","properties":{"station_id":"n6632462985","station_name":"Parque Maia","station_name_local":"Parque Maia","network":"Metro do Porto","network_local":null,"operator":"Metro do Porto","city":"Porto","country":"Portugal","lines":["C"],"wikidata":null},"geometry":{"type":"Point","coordinates":[-8.6265827,41.2291295]}},{"type":"Feature","properties":{"station_id":"n6632462988","station_name":"Mandim","station_name_local":"Mandim","network":"Metro do Porto","network_local":null,"operator":"Metro do Porto","city":"Porto","country":"Portugal","lines":["C"],"wikidata":"Q10275947"},"geometry":{"type":"Point","coordinates":[-8.628371,41.2535507]}},{"type":"Feature","properties":{"station_id":"n6634498459","station_name":"Matosinhos Sul","station_name_local":"Matosinhos Sul","network":"Andante","network_local":"Andante","operator":"Metro do Porto","city":"Porto","country":"Portugal","lines":["A","F"],"wikidata":"Q10275971"},"geometry":{"type":"Point","coordinates":[-8.6885901,41.1801219]}},{"type":"Feature","properties":{"station_id":"n6634498460","station_name":"Brito Capelo","station_name_local":"Brito Capelo","network":"Metro do Porto","network_local":null,"operator":"Metro do Porto","city":"Porto","country":"Portugal","lines":["A","F"],"wikidata":"Q10275611"},"geometry":{"type":"Point","coordinates":[-8.6915104,41.1838829]}},{"type":"Feature","properties":{"station_id":"n6634498461","station_name":"Mercado","station_name_local":"Mercado","network":"Metro do Porto","network_local":null,"operator":"Metro do Porto","city":"Porto","country":"Portugal","lines":["A","F"],"wikidata":"Q10275978"},"geometry":{"type":"Point","coordinates":[-8.6933925,41.1874755]}},{"type":"Feature","properties":{"station_id":"n6634498462","station_name":"Câmara de Matosinhos","station_name_local":"Câmara de Matosinhos","network":"Metro do Porto","network_local":null,"operator":"Metro do Porto","city":"Porto","country":"Portugal","lines":["A","F"],"wikidata":"Q10275682"},"geometry":{"type":"Point","coordinates":[-8.6812528,41.180651]}},{"type":"Feature","properties":{"station_id":"n6634498463","station_name":"Parque de Real","station_name_local":"Parque de Real","network":"Metro do Porto","network_local":null,"operator":"Metro do Porto","city":"Porto","country":"Portugal","lines":["A","F"],"wikidata":"Q10276041"},"geometry":{"type":"Point","coordinates":[-8.6735709,41.1790724]}},{"type":"Feature","properties":{"station_id":"n6634498464","station_name":"Pedro Hispano","station_name_local":"Pedro Hispano","network":"Metro do Porto","network_local":null,"operator":"Metro do Porto","city":"Porto","country":"Portugal","lines":["A","F"],"wikidata":"Q10276048"},"geometry":{"type":"Point","coordinates":[-8.6662452,41.1803391]}},{"type":"Feature","properties":{"station_id":"n6634498465","station_name":"Estádio do Mar","station_name_local":"Estádio do Mar","network":"Metro do Porto","network_local":null,"operator":"Metro do Porto","city":"Porto","country":"Portugal","lines":["A","F"],"wikidata":"Q10275749"},"geometry":{"type":"Point","coordinates":[-8.6612234,41.1857421]}},{"type":"Feature","properties":{"station_id":"n6634498466","station_name":"Vasco da Gama","station_name_local":"Vasco da Gama","network":"Metro do Porto","network_local":null,"operator":"Metro do Porto","city":"Porto","country":"Portugal","lines":["A","F"],"wikidata":"Q10276210"},"geometry":{"type":"Point","coordinates":[-8.6610276,41.1903039]}},{"type":"Feature","properties":{"station_id":"n6634498467","station_name":"Senhor de Matosinhos","station_name_local":"Senhor de Matosinhos","network":"Metro do Porto","network_local":null,"operator":"Metro do Porto","city":"Porto","country":"Portugal","lines":["A","F"],"wikidata":"Q10276144"},"geometry":{"type":"Point","coordinates":[-8.6852027,41.188188]}},{"type":"Feature","properties":{"station_id":"n7203041550","station_name":"Casa da Música II","station_name_local":"Casa da Música II","network":"Unknown","network_local":null,"operator":null,"city":"Porto","country":"Portugal","lines":["A","B","C","E","F"],"wikidata":null},"geometry":{"type":"Point","coordinates":[-8.6291053,41.1600209]}},{"type":"Feature","properties":{"station_id":"n11963220651","station_name":"Manuel Leão","station_name_local":"Manuel Leão","network":"Metro do Porto","network_local":"Metro do Porto","operator":"Metro do Porto","city":"Porto","country":"Portugal","lines":["D"],"wikidata":null},"geometry":{"type":"Point","coordinates":[-8.6000347,41.1106373]}},{"type":"Feature","properties":{"station_id":"n11963220652","station_name":"Hospital Santos Silva","station_name_local":"Hospital Santos Silva","network":"Metro do Porto","network_local":"Metro do Porto","operator":"Metro do Porto","city":"Porto","country":"Portugal","lines":["D"],"wikidata":null},"geometry":{"type":"Point","coordinates":[-8.5911477,41.1058226]}},{"type":"Feature","properties":{"station_id":"n11963220653","station_name":"Vila D'Este","station_name_local":"Vila D'Este","network":"Metro do Porto","network_local":"Metro do Porto","operator":"Metro do Porto","city":"Porto","country":"Portugal","lines":["D"],"wikidata":null},"geometry":{"type":"Point","coordinates":[-8.5885066,41.0985989]}},{"type":"Feature","properties":{"station_id":"n558217937","station_name":"Fânzeres","station_name_local":"Fânzeres","network":"Andante","network_local":"Andante","operator":"Metro do Porto","city":"Porto","country":"Portugal","lines":["F"],"wikidata":"Q10276274"},"geometry":{"type":"Point","coordinates":[-8.5427789,41.1712712]}},{"type":"Feature","properties":{"station_id":"n558217979","station_name":"Venda Nova","station_name_local":"Venda Nova","network":"Andante","network_local":"Andante","operator":"Metro do Porto","city":"Porto","country":"Portugal","lines":["F"],"wikidata":"Q10276245"},"geometry":{"type":"Point","coordinates":[-8.541884,41.1750684]}},{"type":"Feature","properties":{"station_id":"n558223912","station_name":"Carreira","station_name_local":"Carreira","network":"Andante","network_local":"Andante","operator":"Metro do Porto","city":"Porto","country":"Portugal","lines":["F"],"wikidata":"Q10276266"},"geometry":{"type":"Point","coordinates":[-8.5435101,41.1798359]}},{"type":"Feature","properties":{"station_id":"n558231370","station_name":"Baguim","station_name_local":"Baguim","network":"Andante","network_local":"Andante","operator":"Metro do Porto","city":"Porto","country":"Portugal","lines":["F"],"wikidata":"Q10276254"},"geometry":{"type":"Point","coordinates":[-8.545846,41.1855238]}},{"type":"Feature","properties":{"station_id":"n558232959","station_name":"Campainha","station_name_local":"Campainha","network":"Andante","network_local":"Andante","operator":"Metro do Porto","city":"Porto","country":"Portugal","lines":["F"],"wikidata":"Q10276262"},"geometry":{"type":"Point","coordinates":[-8.5538589,41.1833685]}},{"type":"Feature","properties":{"station_id":"n558234599","station_name":"Rio Tinto","station_name_local":"Rio Tinto","network":"Andante","network_local":"Andante","operator":"Metro do Porto","city":"Porto","country":"Portugal","lines":["F"],"wikidata":"Q10276297"},"geometry":{"type":"Point","coordinates":[-8.5602212,41.1793674]}},{"type":"Feature","properties":{"station_id":"n558241557","station_name":"Levada","station_name_local":"Levada","network":"Andante","network_local":"Andante","operator":"Metro do Porto","city":"Porto","country":"Portugal","lines":["F"],"wikidata":"Q10276241"},"geometry":{"type":"Point","coordinates":[-8.5621821,41.1757365]}},{"type":"Feature","properties":{"station_id":"n558241570","station_name":"Nasoni","station_name_local":"Nasoni","network":"Andante","network_local":"Andante","operator":"Metro do Porto","city":"Porto","country":"Portugal","lines":["F"],"wikidata":"Q10276002"},"geometry":{"type":"Point","coordinates":[-8.5772718,41.1706259]}},{"type":"Feature","properties":{"station_id":"n558243287","station_name":"Contumil","station_name_local":"Contumil","network":"Andante","network_local":"Andante","operator":"Metro do Porto","city":"Porto","country":"Portugal","lines":["F"],"wikidata":"Q10276268"},"geometry":{"type":"Point","coordinates":[-8.5786763,41.165693]}},{"type":"Feature","properties":{"station_id":"n686277312","station_name":"Póvoa de Varzim","station_name_local":"Póvoa de Varzim","network":"Andante","network_local":"Andante","operator":"Metro do Porto","city":"Porto","country":"Portugal","lines":["B"],"wikidata":"Q10276079"},"geometry":{"type":"Point","coordinates":[-8.7583351,41.3779003]}},{"type":"Feature","properties":{"station_id":"n686277330","station_name":"São Brás","station_name_local":"São Brás","network":"Andante","network_local":"Andante","operator":"Metro do Porto","city":"Porto","country":"Portugal","lines":["B"],"wikidata":"Q10276160"},"geometry":{"type":"Point","coordinates":[-8.7538042,41.3731808]}},{"type":"Feature","properties":{"station_id":"n686285774","station_name":"Portas Fronhas","station_name_local":"Portas Fronhas","network":"Andante","network_local":"Andante","operator":"Metro do Porto","city":"Porto","country":"Portugal","lines":["B"],"wikidata":"Q10276061"},"geometry":{"type":"Point","coordinates":[-8.7496496,41.3692291]}},{"type":"Feature","properties":{"station_id":"n686315103","station_name":"Alto de Pega","station_name_local":"Alto de Pega","network":"Andante","network_local":"Andante","operator":"Metro do Porto","city":"Porto","country":"Portugal","lines":["B"],"wikidata":"Q10275563"},"geometry":{"type":"Point","coordinates":[-8.7449227,41.3643522]}},{"type":"Feature","properties":{"station_id":"n686315122","station_name":"Vila do Conde","station_name_local":"Vila do Conde","network":"Andante","network_local":"Andante","operator":"Metro do Porto","city":"Porto","country":"Portugal","lines":["B"],"wikidata":"Q10276223"},"geometry":{"type":"Point","coordinates":[-8.7398529,41.3590594]}},{"type":"Feature","properties":{"station_id":"n686315131","station_name":"Santa Clara","station_name_local":"Santa Clara","network":"Andante","network_local":"Andante","operator":"Metro do Porto","city":"Porto","country":"Portugal","lines":["B"],"wikidata":"Q10276129"},"geometry":{"type":"Point","coordinates":[-8.7356374,41.3539215]}},{"type":"Feature","properties":{"station_id":"n686320143","station_name":"Azurara","station_name_local":"Azurara","network":"Andante","network_local":"Andante","operator":"Metro do Porto","city":"Porto","country":"Portugal","lines":["B"],"wikidata":"Q10275587"},"geometry":{"type":"Point","coordinates":[-8.7280737,41.3459475]}},{"type":"Feature","properties":{"station_id":"n686320150","station_name":"Árvore","station_name_local":"Árvore","network":"Andante","network_local":"Andante","operator":"Metro do Porto","city":"Porto","country":"Portugal","lines":["B"],"wikidata":"Q10276330"},"geometry":{"type":"Point","coordinates":[-8.7255283,41.3403379]}},{"type":"Feature","properties":{"station_id":"n686320154","station_name":"Varziela","station_name_local":"Varziela","network":"Andante","network_local":"Andante","operator":"Metro do Porto","city":"Porto","country":"Portugal","lines":["B"],"wikidata":"Q10276209"},"geometry":{"type":"Point","coordinates":[-8.7206675,41.3342052]}},{"type":"Feature","properties":{"station_id":"n686320159","station_name":"Espaço Natureza","station_name_local":"Espaço Natureza","network":"Andante","network_local":"Andante","operator":"Metro do Porto","city":"Porto","country":"Portugal","lines":["B"],"wikidata":"Q10275740"},"geometry":{"type":"Point","coordinates":[-8.7186763,41.3211763]}},{"type":"Feature","properties":{"station_id":"n686320168","station_name":"Mindelo","station_name_local":"Mindelo","network":"Andante","network_local":"Andante","operator":"Metro do Porto","city":"Porto","country":"Portugal","lines":["B"],"wikidata":"Q10275985"},"geometry":{"type":"Point","coordinates":[-8.7142163,41.3150643]}},{"type":"Feature","properties":{"station_id":"n686325065","station_name":"VC Fashion Outlet / Modivas","station_name_local":"VC Fashion Outlet / Modivas","network":"Andante","network_local":"Andante","operator":"Metro do Porto","city":"Porto","country":"Portugal","lines":["B"],"wikidata":"Q48863046"},"geometry":{"type":"Point","coordinates":[-8.7039815,41.3004758]}},{"type":"Feature","properties":{"station_id":"n686325077","station_name":"Modivas Centro","station_name_local":"Modivas Centro","network":"Andante","network_local":"Andante","operator":"Metro do Porto","city":"Porto","country":"Portugal","lines":["B"],"wikidata":"Q10275987"},"geometry":{"type":"Point","coordinates":[-8.6992747,41.2936581]}},{"type":"Feature","properties":{"station_id":"n686325086","station_name":"Modivas Sul","station_name_local":"Modivas Sul","network":"Metro do Porto","network_local":"Metro do Porto","operator":"Metro do Porto","city":"Porto","country":"Portugal","lines":["B"],"wikidata":"Q10275989"},"geometry":{"type":"Point","coordinates":[-8.6935598,41.2852312]}},{"type":"Feature","properties":{"station_id":"n686337099","station_name":"Vilar do Pinheiro","station_name_local":"Vilar do Pinheiro","network":"Andante","network_local":"Andante","operator":"Metro do Porto","city":"Porto","country":"Portugal","lines":["B"],"wikidata":"Q10276224"},"geometry":{"type":"Point","coordinates":[-8.6795511,41.2702685]}},{"type":"Feature","properties":{"station_id":"n686337108","station_name":"Lidador","station_name_local":"Lidador","network":"Andante","network_local":"Andante","operator":"Metro do Porto","city":"Porto","country":"Portugal","lines":["B"],"wikidata":"Q10275939"},"geometry":{"type":"Point","coordinates":[-8.6680491,41.2549321]}},{"type":"Feature","properties":{"station_id":"n686337118","station_name":"Pedras Rubras","station_name_local":"Pedras Rubras","network":"Andante","network_local":"Andante","operator":"Metro do Porto","city":"Porto","country":"Portugal","lines":["B"],"wikidata":"Q10276046"},"geometry":{"type":"Point","coordinates":[-8.6618466,41.2463556]}},{"type":"Feature","properties":{"station_id":"n686427778","station_name":"Verdes","station_name_local":"Verdes","network":"Andante","network_local":"Andante","operator":"Metro do Porto","city":"Porto","country":"Portugal","lines":["B"],"wikidata":"Q10276216"},"geometry":{"type":"Point","coordinates":[-8.6582339,41.238424]}},{"type":"Feature","properties":{"station_id":"n686427796","station_name":"Crestins","station_name_local":"Crestins","network":"Andante","network_local":"Andante","operator":"Metro do Porto","city":"Porto","country":"Portugal","lines":["B","E"],"wikidata":"Q10275673"},"geometry":{"type":"Point","coordinates":[-8.6566282,41.2330014]}},{"type":"Feature","properties":{"station_id":"n686427803","station_name":"Esposade","station_name_local":"Esposade","network":"Andante","network_local":"Andante","operator":"Metro do Porto","city":"Porto","country":"Portugal","lines":["B","E"],"wikidata":"Q10275742"},"geometry":{"type":"Point","coordinates":[-8.6545615,41.2160346]}},{"type":"Feature","properties":{"station_id":"n686427804","station_name":"Custóias","station_name_local":"Custóias","network":"Andante","network_local":"Andante","operator":"Metro do Porto","city":"Porto","country":"Portugal","lines":["B","E"],"wikidata":"Q10275680"},"geometry":{"type":"Point","coordinates":[-8.6555838,41.2002944]}},{"type":"Feature","properties":{"station_id":"n686427805","station_name":"Fonte do Cuco","station_name_local":"Fonte do Cuco","network":"Metro do Porto","network_local":"Metro do Porto","operator":"Metro do Porto","city":"Porto","country":"Portugal","lines":["C"],"wikidata":"Q10275811"},"geometry":{"type":"Point","coordinates":[-8.6557811,41.1941544]}},{"type":"Feature","properties":{"station_id":"n1312129732","station_name":"ISMAI","station_name_local":"ISMAI","network":"Metro do Porto","network_local":null,"operator":"Metro do Porto","city":"Porto","country":"Portugal","lines":["C"],"wikidata":null},"geometry":{"type":"Point","coordinates":[-8.6154335,41.268849]}},{"type":"Feature","properties":{"station_id":"n1346512187","station_name":"Fórum Maia","station_name_local":"Fórum Maia","network":"Metro do Porto","network_local":null,"operator":"Metro do Porto","city":"Porto","country":"Portugal","lines":["C"],"wikidata":"Q10275819"},"geometry":{"type":"Point","coordinates":[-8.6239581,41.2343303]}},{"type":"Feature","properties":{"station_id":"n1347175587","station_name":"Zona Industrial","station_name_local":"Zona Industrial","network":"Andante","network_local":"Andante","operator":"Metro do Porto","city":"Porto","country":"Portugal","lines":["C"],"wikidata":null},"geometry":{"type":"Point","coordinates":[-8.6285398,41.243865]}},{"type":"Feature","properties":{"station_id":"n1492412352","station_name":"Castêlo da Maia","station_name_local":"Castêlo da Maia","network":"Metro do Porto","network_local":null,"operator":"Metro do Porto","city":"Porto","country":"Portugal","lines":["C"],"wikidata":"Q10275634"},"geometry":{"type":"Point","coordinates":[-8.6169942,41.2627301]}}]}