{"type":"FeatureCollection","metro_system":{"continent":"europe","country":"Spain","city":"Granada","osm_networks":["Metro de Granada"],"operator":"Metro de Granada","official_website":"https://metropolitanogranada.es","official_map":"https://es.wikipedia.org/wiki/Línea_1_(Metro_de_Granada)","wikidata":"Q29634861","line_count":1,"station_count":26,"audit":{"strategies_tried":[],"passed":true,"checks":[{"id":"has_lines","ok":true,"detail":"1 lines","level":"error"},{"id":"has_stations","ok":true,"detail":"26 stations","level":"error"},{"id":"stations_have_lines","ok":true,"detail":"26/26 站皆有所屬路線","level":"error"},{"id":"stations_named","ok":true,"detail":"26/26 站有名稱","level":"warn"},{"id":"station_order","ok":true,"detail":"所有線路站序合理","level":"warn"}],"reasons":[],"warnings":[],"audited_at":"2026-07-10T07:57:11.119Z"}},"features":[{"type":"Feature","properties":{"route_id":"rm7183555","route_name":"L1 - Metro de Granada","route_name_local":"L1 - Metro de Granada","route_ref":"L1","route_color":"#c00b31","network":"Metro de Granada","network_local":"Metro de Granada","operator":"Metro de Granada","city":"Granada","country":"Spain","wikidata":"Q29634861","wikipedia":"es:Línea 1 (Metro de Granada)","osm_route_ids":[6776360,7183554]},"geometry":{"type":"MultiLineString","coordinates":[[[-3.6533981,37.2280876],[-3.6457506,37.222395],[-3.6371518,37.2142685],[-3.6341747,37.2110023],[-3.6304072,37.2071251],[-3.6244322,37.2015154],[-3.6172702,37.2041124],[-3.6132396,37.1999774],[-3.6155132,37.1958575],[-3.6150576,37.1920074],[-3.614715,37.1887857],[-3.6090387,37.1863934],[-3.608337,37.1832526],[-3.6085962,37.1808452],[-3.6098448,37.1765717],[-3.6059284,37.1701311],[-3.6024949,37.1644679],[-3.5965451,37.1607131],[-3.5954597,37.1581707],[-3.592823,37.1541901],[-3.5961758,37.1511627],[-3.6009338,37.1492355],[-3.6069179,37.1490197],[-3.6140344,37.1440082],[-3.6208614,37.1475183],[-3.6271543,37.1437574]]]}},{"type":"Feature","properties":{"station_id":"n12847119977","station_name":"Armilla","station_name_local":"Armilla","network":"Metro de Granada","network_local":"Metro de Granada","operator":"Metro de Granada","city":"Granada","country":"Spain","lines":["L1"],"wikidata":null},"geometry":{"type":"Point","coordinates":[-3.627145,37.1437237]}},{"type":"Feature","properties":{"station_id":"n12847119978","station_name":"Fernando de los Ríos","station_name_local":"Fernando de los Ríos","network":"Metro de Granada","network_local":"Metro de Granada","operator":"Metro de Granada","city":"Granada","country":"Spain","lines":["L1"],"wikidata":null},"geometry":{"type":"Point","coordinates":[-3.6208496,37.1475035]}},{"type":"Feature","properties":{"station_id":"n12847119979","station_name":"Sierra Nevada","station_name_local":"Sierra Nevada","network":"Metro de Granada","network_local":"Metro de Granada","operator":"Metro de Granada","city":"Granada","country":"Spain","lines":["L1"],"wikidata":null},"geometry":{"type":"Point","coordinates":[-3.6140432,37.1439913]}},{"type":"Feature","properties":{"station_id":"n12847119980","station_name":"Parque Tecnológico","station_name_local":"Parque Tecnológico","network":"Metro de Granada","network_local":"Metro de Granada","operator":"Metro de Granada","city":"Granada","country":"Spain","lines":["L1"],"wikidata":null},"geometry":{"type":"Point","coordinates":[-3.6068967,37.1490139]}},{"type":"Feature","properties":{"station_id":"n12847119981","station_name":"Dílar","station_name_local":"Dílar","network":"Metro de Granada","network_local":"Metro de Granada","operator":"Metro de Granada","city":"Granada","country":"Spain","lines":["L1"],"wikidata":null},"geometry":{"type":"Point","coordinates":[-3.6009345,37.1492186]}},{"type":"Feature","properties":{"station_id":"n12847119982","station_name":"Nuevo Los Cármenes","station_name_local":"Nuevo Los Cármenes","network":"Metro de Granada","network_local":"Metro de Granada","operator":"Metro de Granada","city":"Granada","country":"Spain","lines":["L1"],"wikidata":null},"geometry":{"type":"Point","coordinates":[-3.5961628,37.1511441]}},{"type":"Feature","properties":{"station_id":"n12847119983","station_name":"Palacio Deportes","station_name_local":"Palacio Deportes","network":"Metro de Granada","network_local":"Metro de Granada","operator":"Metro de Granada","city":"Granada","country":"Spain","lines":["L1"],"wikidata":null},"geometry":{"type":"Point","coordinates":[-3.5928031,37.1541985]}},{"type":"Feature","properties":{"station_id":"n12847119984","station_name":"Andrés Segovia","station_name_local":"Andrés Segovia","network":"Metro de Granada","network_local":"Metro de Granada","operator":"Metro de Granada","city":"Granada","country":"Spain","lines":["L1"],"wikidata":null},"geometry":{"type":"Point","coordinates":[-3.5954377,37.1581693]}},{"type":"Feature","properties":{"station_id":"n12847119986","station_name":"Hípica","station_name_local":"Hípica","network":"Metro de Granada","network_local":"Metro de Granada","operator":"Metro de Granada","city":"Granada","country":"Spain","lines":["L1"],"wikidata":null},"geometry":{"type":"Point","coordinates":[-3.5965429,37.160728]}},{"type":"Feature","properties":{"station_id":"n12847119991","station_name":"Alcázar Genil","station_name_local":"Alcázar Genil","network":"Metro de Granada","network_local":"Metro de Granada","operator":"Metro de Granada","city":"Granada","country":"Spain","lines":["L1"],"wikidata":null},"geometry":{"type":"Point","coordinates":[-3.6024393,37.1644942]}},{"type":"Feature","properties":{"station_id":"n12847119992","station_name":"Recogidas","station_name_local":"Recogidas","network":"Metro de Granada","network_local":"Metro de Granada","operator":"Metro de Granada","city":"Granada","country":"Spain","lines":["L1"],"wikidata":null},"geometry":{"type":"Point","coordinates":[-3.6058663,37.1701453]}},{"type":"Feature","properties":{"station_id":"n12847119993","station_name":"Méndez Núñez","station_name_local":"Méndez Núñez","network":"Metro de Granada","network_local":"Metro de Granada","operator":"Metro de Granada","city":"Granada","country":"Spain","lines":["L1"],"wikidata":null},"geometry":{"type":"Point","coordinates":[-3.6097845,37.1765925]}},{"type":"Feature","properties":{"station_id":"n12847119994","station_name":"Universidad","station_name_local":"Universidad","network":"Metro de Granada","network_local":"Metro de Granada","operator":"Metro de Granada","city":"Granada","country":"Spain","lines":["L1"],"wikidata":null},"geometry":{"type":"Point","coordinates":[-3.6085801,37.1808537]}},{"type":"Feature","properties":{"station_id":"n12847119995","station_name":"Estación Ferrocarril","station_name_local":"Estación Ferrocarril","network":"Metro de Granada","network_local":"Metro de Granada","operator":"Metro de Granada","city":"Granada","country":"Spain","lines":["L1"],"wikidata":null},"geometry":{"type":"Point","coordinates":[-3.60832,37.183249]}},{"type":"Feature","properties":{"station_id":"n12847119996","station_name":"Caleta","station_name_local":"Caleta","network":"Metro de Granada","network_local":"Metro de Granada","operator":"Metro de Granada","city":"Granada","country":"Spain","lines":["L1"],"wikidata":null},"geometry":{"type":"Point","coordinates":[-3.6090293,37.186409]}},{"type":"Feature","properties":{"station_id":"n12847119997","station_name":"Villarejo","station_name_local":"Villarejo","network":"Metro de Granada","network_local":"Metro de Granada","operator":"Metro de Granada","city":"Granada","country":"Spain","lines":["L1"],"wikidata":null},"geometry":{"type":"Point","coordinates":[-3.6146889,37.1887808]}},{"type":"Feature","properties":{"station_id":"n12847119998","station_name":"Luis Amador","station_name_local":"Luis Amador","network":"Metro de Granada","network_local":"Metro de Granada","operator":"Metro de Granada","city":"Granada","country":"Spain","lines":["L1"],"wikidata":null},"geometry":{"type":"Point","coordinates":[-3.6150375,37.1920068]}},{"type":"Feature","properties":{"station_id":"n12847119999","station_name":"Argentinita","station_name_local":"Argentinita","network":"Metro de Granada","network_local":"Metro de Granada","operator":"Metro de Granada","city":"Granada","country":"Spain","lines":["L1"],"wikidata":null},"geometry":{"type":"Point","coordinates":[-3.615492,37.1958566]}},{"type":"Feature","properties":{"station_id":"n12847120000","station_name":"Estación Autobuses","station_name_local":"Estación Autobuses","network":"Metro de Granada","network_local":"Metro de Granada","operator":"Metro de Granada","city":"Granada","country":"Spain","lines":["L1"],"wikidata":null},"geometry":{"type":"Point","coordinates":[-3.6132216,37.1999862]}},{"type":"Feature","properties":{"station_id":"n12847159901","station_name":"Jaén","station_name_local":"Jaén","network":"Metro de Granada","network_local":"Metro de Granada","operator":"Metro de Granada","city":"Granada","country":"Spain","lines":["L1"],"wikidata":null},"geometry":{"type":"Point","coordinates":[-3.6172491,37.2041202]}},{"type":"Feature","properties":{"station_id":"n12847159902","station_name":"Cerrillo Maracena","station_name_local":"Cerrillo Maracena","network":"Metro de Granada","network_local":"Metro de Granada","operator":"Metro de Granada","city":"Granada","country":"Spain","lines":["L1"],"wikidata":null},"geometry":{"type":"Point","coordinates":[-3.6244134,37.2015207]}},{"type":"Feature","properties":{"station_id":"n12847160074","station_name":"Anfiteatro","station_name_local":"Anfiteatro","network":"Metro de Granada","network_local":"Metro de Granada","operator":"Metro de Granada","city":"Granada","country":"Spain","lines":["L1"],"wikidata":null},"geometry":{"type":"Point","coordinates":[-3.6341608,37.2110126]}},{"type":"Feature","properties":{"station_id":"n12847160079","station_name":"Maracena","station_name_local":"Maracena","network":"Metro de Granada","network_local":"Metro de Granada","operator":"Metro de Granada","city":"Granada","country":"Spain","lines":["L1"],"wikidata":null},"geometry":{"type":"Point","coordinates":[-3.6303937,37.2071349]}},{"type":"Feature","properties":{"station_id":"n12847160080","station_name":"Vicuña","station_name_local":"Vicuña","network":"Metro de Granada","network_local":"Metro de Granada","operator":"Metro de Granada","city":"Granada","country":"Spain","lines":["L1"],"wikidata":null},"geometry":{"type":"Point","coordinates":[-3.6371355,37.2142763]}},{"type":"Feature","properties":{"station_id":"n12847160081","station_name":"Juncaril","station_name_local":"Juncaril","network":"Metro de Granada","network_local":"Metro de Granada","operator":"Metro de Granada","city":"Granada","country":"Spain","lines":["L1"],"wikidata":null},"geometry":{"type":"Point","coordinates":[-3.6457297,37.2224044]}},{"type":"Feature","properties":{"station_id":"n12847160082","station_name":"Albolote","station_name_local":"Albolote","network":"Metro de Granada","network_local":"Metro de Granada","operator":"Metro de Granada","city":"Granada","country":"Spain","lines":["L1"],"wikidata":null},"geometry":{"type":"Point","coordinates":[-3.6533794,37.2281139]}}]}