{"type":"FeatureCollection","metro_system":{"continent":"asia","country":"Malaysia","city":"Kuala Lumpur","osm_networks":["Kajang Line","Kajang Line;Putrajaya Line","Kelana Jaya Line","Putrajaya Line","Rapid KL","Sungai Buloh-Kajang Line","Sungai Buloh-Serdang-Putrajaya Line"],"operator":"Rapid Rail","official_website":null,"official_map":"https://en.wikipedia.org/wiki/Kajang_line","wikidata":"Q6717618","line_count":2,"station_count":69},"features":[{"type":"Feature","properties":{"route_id":"rm8000326","route_name":"Kajang Line","route_name_local":"Laluan Kajang","route_ref":"9","route_color":"#008000","network":"Rapid KL","network_local":"Rapid KL","operator":"Rapid Rail","city":"Kuala Lumpur","country":"Malaysia","wikidata":"Q6717618","wikipedia":"en:Kajang line","osm_route_ids":[5690837,8000325]},"geometry":{"type":"MultiLineString","coordinates":[[[101.5724013,3.1764498],[101.5648656,3.1698609],[101.5786958,3.1502287],[101.5936568,3.14967],[101.6087346,3.1552117],[101.6187845,3.1467141],[101.6307966,3.1360801],[101.6429535,3.1293318],[101.6623266,3.1433046],[101.6653074,3.1509828],[101.6873589,3.137188],[101.6963621,3.1424869],[101.7022688,3.1421759],[101.7109772,3.1465033],[101.7198785,3.1428622],[101.7231513,3.132384],[101.7272353,3.1246694],[101.7293427,3.1126489],[101.7322944,3.1043689],[101.7403451,3.0913923],[101.745144,3.0792142],[101.7635488,3.0716636],[101.7729934,3.0621901],[101.77504,3.0483736],[101.7734006,3.0413221],[101.7711275,3.0264532],[101.7841294,3.0008213],[101.786258,2.9940951],[101.7903903,2.9831462]]]}},{"type":"Feature","properties":{"route_id":"rm8298259","route_name":"Putrajaya Line","route_name_local":"Laluan Putrajaya","route_ref":"12","route_color":"#ffcc00","network":"Rapid KL","network_local":"Rapid KL","operator":"Rapid Rail","city":"Kuala Lumpur","country":"Malaysia","wikidata":"Q17053935","wikipedia":"en:Putrajaya line","osm_route_ids":[11313577,11313578]},"geometry":{"type":"MultiLineString","coordinates":[[[101.671383,2.9314012],[101.665598,2.9388527],[101.6574277,2.9492091],[101.6547969,2.9652512],[101.6605458,2.9831751],[101.672542,2.9894052],[101.7053919,3.0085773],[101.7088815,3.021537],[101.707449,3.028431],[101.7048624,3.0417215],[101.7083805,3.0638443],[101.6994826,3.0777006],[101.694011,3.0895945],[101.7164935,3.1283712],[101.7200268,3.1429072],[101.718367,3.1506171],[101.7182203,3.1568044],[101.7180072,3.1617412],[101.7109317,3.167797],[101.7017019,3.1738933],[101.6964317,3.1745613],[101.685171,3.1787123],[101.6810403,3.1893934],[101.6796178,3.1953293],[101.6752146,3.2057868],[101.6655589,3.207121],[101.6559236,3.2094755],[101.6481367,3.2116171],[101.6403969,3.2144521],[101.6286753,3.2075902],[101.6211453,3.1985415],[101.608413,3.1981606],[101.5928857,3.199691],[101.5817233,3.2062285],[101.578433,3.1971535],[101.572394,3.1762843]],[[101.5724098,3.1762262],[101.5783791,3.1971674],[101.5817709,3.2063793],[101.5929229,3.1998294],[101.6084026,3.1982976],[101.6211352,3.1985883],[101.6285337,3.207665],[101.6403808,3.2145991],[101.6482091,3.2117442],[101.6559176,3.2096165],[101.6656119,3.2072532],[101.6753371,3.205889],[101.6796622,3.1953316],[101.681171,3.1894372],[101.6852328,3.1788143],[101.696394,3.1746912],[101.701762,3.1741536],[101.7109297,3.1679366],[101.7180106,3.1617428],[101.7182239,3.1568033],[101.7184784,3.1506598],[101.7200311,3.1429063],[101.7166324,3.1282865],[101.6941916,3.0895853],[101.6996047,3.0777471],[101.7084244,3.0638445],[101.7050072,3.0416997],[101.7075689,3.02852],[101.7090047,3.0215373],[101.7053906,3.0084403],[101.6726434,2.9892972],[101.6606113,2.9830473],[101.6549353,2.9652492],[101.657568,2.9492412],[101.6657303,2.938934],[101.671549,2.9313738]]]}},{"type":"Feature","properties":{"station_id":"n5391966854","station_name":"KLCC","station_name_local":"KJ10 KLCC","network":"Kelana Jaya Line","network_local":"Kelana Jaya Line","operator":"Rapid KL","city":"Kuala Lumpur","country":"Malaysia","lines":null,"wikidata":"Q1054307"},"geometry":{"type":"Point","coordinates":[101.7133662,3.1592469]}},{"type":"Feature","properties":{"station_id":"n24375068","station_name":"Universiti","station_name_local":"KJ19 Universiti","network":"Rapid KL","network_local":"Rapid KL","operator":"Rapid Rail","city":"Kuala Lumpur","country":"Malaysia","lines":null,"wikidata":"Q6131847"},"geometry":{"type":"Point","coordinates":[101.6617021,3.1145476]}},{"type":"Feature","properties":{"station_id":"n24375079","station_name":"Bukit Nanas","station_name_local":"MR8 Bukit Nanas","network":"Rapid KL","network_local":"Rapid KL","operator":"Rapid Rail","city":"Kuala Lumpur","country":"Malaysia","lines":null,"wikidata":"Q31320"},"geometry":{"type":"Point","coordinates":[101.7048611,3.1561131]}},{"type":"Feature","properties":{"station_id":"n28224155","station_name":"Pasar Seni","station_name_local":"KG16 Pasar Seni","network":"Kajang Line","network_local":"Kajang Line","operator":"Rapid KL","city":"Kuala Lumpur","country":"Malaysia","lines":["9"],"wikidata":"Q1057429"},"geometry":{"type":"Point","coordinates":[101.6962895,3.1424176]}},{"type":"Feature","properties":{"station_id":"n424884270","station_name":"Glenmarie","station_name_local":"KJ27 Glenmarie","network":"Rapid KL","network_local":"Rapid KL","operator":"Rapid Rail","city":"Kuala Lumpur","country":"Malaysia","lines":null,"wikidata":"Q24944303"},"geometry":{"type":"Point","coordinates":[101.5902722,3.095923]}},{"type":"Feature","properties":{"station_id":"n457131104","station_name":"Sungai Buloh (MRT)","station_name_local":"PY04 Sungai Buloh","network":"Putrajaya Line","network_local":"Putrajaya Line","operator":"Rapid KL","city":"Kuala Lumpur","country":"Malaysia","lines":["12"],"wikidata":"Q6131722"},"geometry":{"type":"Point","coordinates":[101.5818412,3.2062652]}},{"type":"Feature","properties":{"station_id":"n457131106","station_name":"Kampung Selamat","station_name_local":"PY03 Kampung Selamat","network":"Putrajaya Line","network_local":"Putrajaya Line","operator":"Rapid KL","city":"Kuala Lumpur","country":"Malaysia","lines":["12"],"wikidata":"Q22087852"},"geometry":{"type":"Point","coordinates":[101.5784104,3.1971698]}},{"type":"Feature","properties":{"station_id":"n457131687","station_name":"Surian","station_name_local":"KG07 Surian","network":"Kajang Line","network_local":"Kajang Line","operator":"Rapid KL","city":"Kuala Lumpur","country":"Malaysia","lines":["9"],"wikidata":"Q22087875"},"geometry":{"type":"Point","coordinates":[101.5937078,3.1495987]}},{"type":"Feature","properties":{"station_id":"n457857873","station_name":"Mutiara Damansara","station_name_local":"KG08 Mutiara Damansara","network":"Kajang Line","network_local":"Kajang Line","operator":"Rapid KL","city":"Kuala Lumpur","country":"Malaysia","lines":["9"],"wikidata":"Q22087863"},"geometry":{"type":"Point","coordinates":[101.6088243,3.1551901]}},{"type":"Feature","properties":{"station_id":"n457857875","station_name":"Bandar Utama","station_name_local":"KG09 Bandar Utama","network":"Kajang Line","network_local":"Kajang Line","operator":"Rapid KL","city":"Kuala Lumpur","country":"Malaysia","lines":["9"],"wikidata":"Q22087845"},"geometry":{"type":"Point","coordinates":[101.6188097,3.1466484]}},{"type":"Feature","properties":{"station_id":"n457857876","station_name":"Taman Tun Dr Ismail","station_name_local":"KG10 Taman Tun Dr Ismail","network":"Sungai Buloh-Kajang Line","network_local":"Sungai Buloh-Kajang Line","operator":"Rapid KL","city":"Kuala Lumpur","country":"Malaysia","lines":["9"],"wikidata":"Q22087883"},"geometry":{"type":"Point","coordinates":[101.6308574,3.1360288]}},{"type":"Feature","properties":{"station_id":"n457857877","station_name":"Phileo Damansara","station_name_local":"KG12 Phileo Damansara","network":"Kajang Line","network_local":"Kajang Line","operator":"Rapid KL","city":"Kuala Lumpur","country":"Malaysia","lines":["9"],"wikidata":"Q22087868"},"geometry":{"type":"Point","coordinates":[101.6429562,3.1292146]}},{"type":"Feature","properties":{"station_id":"n457857880","station_name":"Pusat Bandar Damansara","station_name_local":"KG13 Pusat Bandar Damansara","network":"Kajang Line","network_local":"Kajang Line","operator":"Rapid KL","city":"Kuala Lumpur","country":"Malaysia","lines":["9"],"wikidata":"Q22087870"},"geometry":{"type":"Point","coordinates":[101.6623778,3.1432776]}},{"type":"Feature","properties":{"station_id":"n457857881","station_name":"Semantan","station_name_local":"KG14 Semantan","network":"Kajang Line","network_local":"Kajang Line","operator":"Rapid KL","city":"Kuala Lumpur","country":"Malaysia","lines":["9"],"wikidata":"Q22087871"},"geometry":{"type":"Point","coordinates":[101.6653576,3.1509609]}},{"type":"Feature","properties":{"station_id":"n460387856","station_name":"Kwasa Damansara","station_name_local":"KG04 PY01 Kwasa Damansara","network":"Kajang Line;Putrajaya Line","network_local":"Kajang Line;Putrajaya Line","operator":"Rapid KL","city":"Kuala Lumpur","country":"Malaysia","lines":["12"],"wikidata":"Q22087857"},"geometry":{"type":"Point","coordinates":[101.5723992,3.1763094]}},{"type":"Feature","properties":{"station_id":"n460389010","station_name":"Kwasa Sentral","station_name_local":"KG05 Kwasa Sentral","network":"Kajang Line","network_local":"Kajang Line","operator":"Rapid KL","city":"Kuala Lumpur","country":"Malaysia","lines":["9"],"wikidata":"Q22087858"},"geometry":{"type":"Point","coordinates":[101.5648383,3.1698329]}},{"type":"Feature","properties":{"station_id":"n460440400","station_name":"Kota Damansara","station_name_local":"KG06 Kota Damansara","network":"Sungai Buloh-Kajang Line","network_local":"Sungai Buloh-Kajang Line","operator":"Rapid KL","city":"Kuala Lumpur","country":"Malaysia","lines":["9"],"wikidata":"Q22087856"},"geometry":{"type":"Point","coordinates":[101.5787352,3.1501787]}},{"type":"Feature","properties":{"station_id":"n471963795","station_name":"Merdeka","station_name_local":"KG17 Merdeka","network":"Kajang Line","network_local":"Kajang Line","operator":"Rapid KL","city":"Kuala Lumpur","country":"Malaysia","lines":["9"],"wikidata":"Q22087862"},"geometry":{"type":"Point","coordinates":[101.7021933,3.1429034]}},{"type":"Feature","properties":{"station_id":"n505249624","station_name":"Taman Pertama","station_name_local":"KG23 Taman Pertama","network":"Kajang Line","network_local":"Kajang Line","operator":"Rapid KL","city":"Kuala Lumpur","country":"Malaysia","lines":["9"],"wikidata":"Q22087881"},"geometry":{"type":"Point","coordinates":[101.7293032,3.112639]}},{"type":"Feature","properties":{"station_id":"n505249629","station_name":"Taman Midah","station_name_local":"KG24 Taman Midah","network":"Kajang Line","network_local":"Kajang Line","operator":"Rapid KL","city":"Kuala Lumpur","country":"Malaysia","lines":["9"],"wikidata":"Q22087879"},"geometry":{"type":"Point","coordinates":[101.7322409,3.1044287]}},{"type":"Feature","properties":{"station_id":"n505250274","station_name":"Taman Mutiara","station_name_local":"KG25 Taman Mutiara","network":"Kajang Line","network_local":"Kajang Line","operator":"Rapid KL","city":"Kuala Lumpur","country":"Malaysia","lines":["9"],"wikidata":"Q22087880"},"geometry":{"type":"Point","coordinates":[101.7403909,3.0913032]}},{"type":"Feature","properties":{"station_id":"n505251359","station_name":"Taman Connaught","station_name_local":"KG26 Taman Connaught","network":"Kajang Line","network_local":"Kajang Line","operator":"Rapid KL","city":"Kuala Lumpur","country":"Malaysia","lines":["9"],"wikidata":"Q22087877"},"geometry":{"type":"Point","coordinates":[101.7451397,3.0791861]}},{"type":"Feature","properties":{"station_id":"n505251360","station_name":"Taman Suntex","station_name_local":"KG27 Taman Suntex","network":"Kajang Line","network_local":"Kajang Line","operator":"Rapid KL","city":"Kuala Lumpur","country":"Malaysia","lines":["9"],"wikidata":"Q22087882"},"geometry":{"type":"Point","coordinates":[101.7634796,3.0716075]}},{"type":"Feature","properties":{"station_id":"n505251362","station_name":"Sri Raya","station_name_local":"KG28 Sri Raya","network":"Kajang Line","network_local":"Kajang Line","operator":"Rapid KL","city":"Kuala Lumpur","country":"Malaysia","lines":["9"],"wikidata":"Q22087872"},"geometry":{"type":"Point","coordinates":[101.7729998,3.0621768]}},{"type":"Feature","properties":{"station_id":"n505251364","station_name":"Bandar Tun Hussein Onn","station_name_local":"KG29 Bandar Tun Hussein Onn","network":"Kajang Line","network_local":"Kajang Line","operator":"Rapid KL","city":"Kuala Lumpur","country":"Malaysia","lines":["9"],"wikidata":"Q22087844"},"geometry":{"type":"Point","coordinates":[101.7750126,3.0483592]}},{"type":"Feature","properties":{"station_id":"n505751823","station_name":"Batu 11 Cheras","station_name_local":"KG30 Batu 11 Cheras","network":"Kajang Line","network_local":"Kajang Line","operator":"Rapid KL","city":"Kuala Lumpur","country":"Malaysia","lines":["9"],"wikidata":"Q22087846"},"geometry":{"type":"Point","coordinates":[101.7733437,3.0413042]}},{"type":"Feature","properties":{"station_id":"n505751824","station_name":"Bukit Dukung","station_name_local":"KG31 Bukit Dukung","network":"Kajang Line","network_local":"Kajang Line","operator":"Rapid KL","city":"Kuala Lumpur","country":"Malaysia","lines":["9"],"wikidata":"Q22087848"},"geometry":{"type":"Point","coordinates":[101.7710937,3.0263872]}},{"type":"Feature","properties":{"station_id":"n505751844","station_name":"Sungai Jernih","station_name_local":"KG33 Sungai Jernih","network":"Kajang Line","network_local":"Kajang Line","operator":"Rapid KL","city":"Kuala Lumpur","country":"Malaysia","lines":["9"],"wikidata":"Q22087874"},"geometry":{"type":"Point","coordinates":[101.7841249,3.0008386]}},{"type":"Feature","properties":{"station_id":"n505751845","station_name":"Stadium Kajang","station_name_local":"KG34 Stadium Kajang","network":"Kajang Line","network_local":"Kajang Line","operator":"Rapid KL","city":"Kuala Lumpur","country":"Malaysia","lines":["9"],"wikidata":"Q22087873"},"geometry":{"type":"Point","coordinates":[101.7861989,2.9940559]}},{"type":"Feature","properties":{"station_id":"n505751846","station_name":"Kajang","station_name_local":"KG35 Kajang","network":"Kajang Line","network_local":"Kajang Line","operator":"Rapid KL","city":"Kuala Lumpur","country":"Malaysia","lines":["9"],"wikidata":"Q6131737"},"geometry":{"type":"Point","coordinates":[101.7903287,2.9831036]}},{"type":"Feature","properties":{"station_id":"n570883634","station_name":"Bukit Bintang","station_name_local":"KG18A Bukit Bintang","network":"Kajang Line","network_local":"Kajang Line","operator":"Rapid KL","city":"Kuala Lumpur","country":"Malaysia","lines":["9"],"wikidata":"Q22087847"},"geometry":{"type":"Point","coordinates":[101.7108953,3.1464426]}},{"type":"Feature","properties":{"station_id":"n570883663","station_name":"Maluri","station_name_local":"KG22 Maluri","network":"Kajang Line","network_local":"Kajang Line","operator":"Rapid KL","city":"Kuala Lumpur","country":"Malaysia","lines":["9"],"wikidata":"Q6744979"},"geometry":{"type":"Point","coordinates":[101.7272139,3.1245331]}},{"type":"Feature","properties":{"station_id":"n588168488","station_name":"National Museum","station_name_local":"KG15 Muzium Negara","network":"Kajang Line","network_local":"Kajang Line","operator":"Rapid KL","city":"Kuala Lumpur","country":"Malaysia","lines":["9"],"wikidata":"Q22087864"},"geometry":{"type":"Point","coordinates":[101.687336,3.1371348]}},{"type":"Feature","properties":{"station_id":"n760247735","station_name":"Cochrane","station_name_local":"KG21 Cochrane","network":"Kajang Line","network_local":"Kajang Line","operator":"Rapid KL","city":"Kuala Lumpur","country":"Malaysia","lines":["9"],"wikidata":"Q22087849"},"geometry":{"type":"Point","coordinates":[101.7230028,3.1324788]}},{"type":"Feature","properties":{"station_id":"n760247737","station_name":"Tun Razak Exchange","station_name_local":"KG20 PY23 Tun Razak Exchange","network":"Kajang Line;Putrajaya Line","network_local":"Kajang Line;Putrajaya Line","operator":"Rapid KL","city":"Kuala Lumpur","country":"Malaysia","lines":["9"],"wikidata":"Q22087884"},"geometry":{"type":"Point","coordinates":[101.7199624,3.1428078]}},{"type":"Feature","properties":{"station_id":"n769009409","station_name":"Kentonmen","station_name_local":"PY14 Kentonmen","network":"Putrajaya Line","network_local":"Putrajaya Line","operator":null,"city":"Kuala Lumpur","country":"Malaysia","lines":["12"],"wikidata":"Q24884399"},"geometry":{"type":"Point","coordinates":[101.6796063,3.195486]}},{"type":"Feature","properties":{"station_id":"n769009410","station_name":"Kampung Batu","station_name_local":"PY13 Kampung Batu","network":"Putrajaya Line","network_local":"Putrajaya Line","operator":"Rapid KL","city":"Kuala Lumpur","country":"Malaysia","lines":["12"],"wikidata":"Q6359403"},"geometry":{"type":"Point","coordinates":[101.6751322,3.2059992]}},{"type":"Feature","properties":{"station_id":"n769009411","station_name":"Sri Delima","station_name_local":"PY12 Sri Delima","network":"Putrajaya Line","network_local":"Putrajaya Line","operator":"Rapid KL","city":"Kuala Lumpur","country":"Malaysia","lines":["12"],"wikidata":null},"geometry":{"type":"Point","coordinates":[101.6655647,3.2072098]}},{"type":"Feature","properties":{"station_id":"n769009412","station_name":"Jinjang","station_name_local":"PY11 Jinjang","network":"Putrajaya Line","network_local":"Putrajaya Line","operator":"Rapid KL","city":"Kuala Lumpur","country":"Malaysia","lines":["12"],"wikidata":"Q24884377"},"geometry":{"type":"Point","coordinates":[101.655804,3.2095233]}},{"type":"Feature","properties":{"station_id":"n769009413","station_name":"Kepong Baru","station_name_local":"PY10 Kepong Baru","network":"Putrajaya Line","network_local":"Putrajaya Line","operator":"Rapid KL","city":"Kuala Lumpur","country":"Malaysia","lines":["12"],"wikidata":"Q24884373"},"geometry":{"type":"Point","coordinates":[101.6481916,3.2116797]}},{"type":"Feature","properties":{"station_id":"n769009414","station_name":"Metro Prima","station_name_local":"PY09 Metro Prima","network":"Putrajaya Line","network_local":"Putrajaya Line","operator":"Rapid KL","city":"Kuala Lumpur","country":"Malaysia","lines":["12"],"wikidata":"Q24884356"},"geometry":{"type":"Point","coordinates":[101.6403908,3.2145079]}},{"type":"Feature","properties":{"station_id":"n769009415","station_name":"Sri Damansara Timur","station_name_local":"PY08 Sri Damansara Timur","network":"Putrajaya Line","network_local":"Putrajaya Line","operator":"Rapid KL","city":"Kuala Lumpur","country":"Malaysia","lines":["12"],"wikidata":"Q108887917"},"geometry":{"type":"Point","coordinates":[101.6286151,3.2076245]}},{"type":"Feature","properties":{"station_id":"n769009416","station_name":"Sri Damansara Sentral","station_name_local":"PY07 Sri Damansara Sentral","network":"Putrajaya Line","network_local":"Putrajaya Line","operator":"Rapid KL","city":"Kuala Lumpur","country":"Malaysia","lines":["12"],"wikidata":"Q24884352"},"geometry":{"type":"Point","coordinates":[101.6211334,3.1985406]}},{"type":"Feature","properties":{"station_id":"n769009417","station_name":"Sri Damansara Barat","station_name_local":"PY06 Sri Damansara Barat","network":"Putrajaya Line","network_local":"Putrajaya Line","operator":"Rapid KL","city":"Kuala Lumpur","country":"Malaysia","lines":["12"],"wikidata":"Q24884334"},"geometry":{"type":"Point","coordinates":[101.6084105,3.1982289]}},{"type":"Feature","properties":{"station_id":"n769009418","station_name":"Damansara Damai","station_name_local":"PY05 Damansara Damai","network":"Putrajaya Line","network_local":"Putrajaya Line","operator":"Rapid KL","city":"Kuala Lumpur","country":"Malaysia","lines":["12"],"wikidata":"Q24884313"},"geometry":{"type":"Point","coordinates":[101.5929025,3.1997539]}},{"type":"Feature","properties":{"station_id":"n769010742","station_name":"Sentul West","station_name_local":"PY16 Sentul Barat","network":"Putrajaya Line","network_local":"Putrajaya Line","operator":null,"city":"Kuala Lumpur","country":"Malaysia","lines":["12"],"wikidata":"Q24884421"},"geometry":{"type":"Point","coordinates":[101.6851548,3.178947]}},{"type":"Feature","properties":{"station_id":"n769010743","station_name":"Jalan Ipoh","station_name_local":"PY15 Jalan Ipoh","network":"Putrajaya Line","network_local":"Putrajaya Line","operator":null,"city":"Kuala Lumpur","country":"Malaysia","lines":["12"],"wikidata":"Q24884414"},"geometry":{"type":"Point","coordinates":[101.6811225,3.1894108]}},{"type":"Feature","properties":{"station_id":"n793248731","station_name":"16 Sierra","station_name_local":"PY38 16 Sierra","network":"Putrajaya Line","network_local":"Putrajaya Line","operator":"Rapid KL","city":"Kuala Lumpur","country":"Malaysia","lines":["12"],"wikidata":"Q24884590"},"geometry":{"type":"Point","coordinates":[101.6548662,2.9652866]}},{"type":"Feature","properties":{"station_id":"n793248732","station_name":"Cyberjaya Utara","station_name_local":"PY39 Cyberjaya Utara","network":"Putrajaya Line","network_local":"Putrajaya Line","operator":"Rapid KL","city":"Kuala Lumpur","country":"Malaysia","lines":["12"],"wikidata":"Q24884593"},"geometry":{"type":"Point","coordinates":[101.6574916,2.9492344]}},{"type":"Feature","properties":{"station_id":"n944292856","station_name":"Cyberjaya City Centre","station_name_local":"PY40 Cyberjaya City Centre","network":"Putrajaya Line","network_local":"Putrajaya Line","operator":"Rapid KL","city":"Kuala Lumpur","country":"Malaysia","lines":["12"],"wikidata":"Q24884606"},"geometry":{"type":"Point","coordinates":[101.6656104,2.9389661]}},{"type":"Feature","properties":{"station_id":"n961422433","station_name":"Putrajaya Sentral","station_name_local":"PY41 Putrajaya Sentral","network":"Putrajaya Line","network_local":"Putrajaya Line","operator":"Rapid KL","city":"Kuala Lumpur","country":"Malaysia","lines":["12"],"wikidata":"Q4207481"},"geometry":{"type":"Point","coordinates":[101.6714742,2.931411]}},{"type":"Feature","properties":{"station_id":"n967252386","station_name":"Sungai Besi","station_name_local":"PY29 Sungai Besi","network":"Putrajaya Line","network_local":"Putrajaya Line","operator":"Rapid KL","city":"Kuala Lumpur","country":"Malaysia","lines":["12"],"wikidata":"Q7640133"},"geometry":{"type":"Point","coordinates":[101.708413,3.0638667]}},{"type":"Feature","properties":{"station_id":"n968011786","station_name":"UPM","station_name_local":"PY34 UPM","network":"Putrajaya Line","network_local":"Putrajaya Line","operator":"Rapid KL","city":"Kuala Lumpur","country":"Malaysia","lines":["12"],"wikidata":"Q24884536"},"geometry":{"type":"Point","coordinates":[101.705391,3.0084876]}},{"type":"Feature","properties":{"station_id":"n1009988054","station_name":"Taman Naga Emas","station_name_local":"PY28 Taman Naga Emas","network":"Putrajaya Line","network_local":"Putrajaya Line","operator":"Rapid KL","city":"Kuala Lumpur","country":"Malaysia","lines":["12"],"wikidata":"Q24884488"},"geometry":{"type":"Point","coordinates":[101.6995333,3.0777184]}},{"type":"Feature","properties":{"station_id":"n1015718345","station_name":"Serdang Raya South","station_name_local":"PY32 Serdang Raya Selatan","network":"Putrajaya Line","network_local":"Putrajaya Line","operator":"Rapid KL","city":"Kuala Lumpur","country":"Malaysia","lines":["12"],"wikidata":"Q24884520"},"geometry":{"type":"Point","coordinates":[101.7074978,3.0284811]}},{"type":"Feature","properties":{"station_id":"n1015718346","station_name":"Serdang Raya North","station_name_local":"PY31 Serdang Raya Utara","network":"Putrajaya Line","network_local":"Putrajaya Line","operator":"Rapid KL","city":"Kuala Lumpur","country":"Malaysia","lines":["12"],"wikidata":"Q24884511"},"geometry":{"type":"Point","coordinates":[101.7049109,3.041714]}},{"type":"Feature","properties":{"station_id":"n1017278295","station_name":"Serdang Jaya","station_name_local":"PY33 Serdang Jaya","network":"Putrajaya Line","network_local":"Putrajaya Line","operator":"Rapid KL","city":"Kuala Lumpur","country":"Malaysia","lines":["12"],"wikidata":"Q24884531"},"geometry":{"type":"Point","coordinates":[101.7089376,3.0215527]}},{"type":"Feature","properties":{"station_id":"n1029907179","station_name":"Kuchai","station_name_local":"PY27 Kuchai","network":"Putrajaya Line","network_local":"Putrajaya Line","operator":"Rapid KL","city":"Kuala Lumpur","country":"Malaysia","lines":["12"],"wikidata":"Q24884487"},"geometry":{"type":"Point","coordinates":[101.6940983,3.0895795]}},{"type":"Feature","properties":{"station_id":"n1030590791","station_name":"Dang Wangi","station_name_local":"KJ12 Dang Wangi","network":"Kelana Jaya Line","network_local":"Kelana Jaya Line","operator":"Rapid KL","city":"Kuala Lumpur","country":"Malaysia","lines":null,"wikidata":"Q1055068"},"geometry":{"type":"Point","coordinates":[101.7020271,3.1567089]}},{"type":"Feature","properties":{"station_id":"n1069157296","station_name":"Equine Park","station_name_local":"PY36 Taman Equine","network":"Putrajaya Line","network_local":"Putrajaya Line","operator":"Rapid KL","city":"Kuala Lumpur","country":"Malaysia","lines":["12"],"wikidata":"Q24884554"},"geometry":{"type":"Point","coordinates":[101.6725847,2.9893421]}},{"type":"Feature","properties":{"station_id":"n1069157299","station_name":"Putra Permai","station_name_local":"PY37 Putra Permai","network":"Putrajaya Line","network_local":"Putrajaya Line","operator":"Rapid KL","city":"Kuala Lumpur","country":"Malaysia","lines":["12"],"wikidata":null},"geometry":{"type":"Point","coordinates":[101.6605775,2.9831113]}},{"type":"Feature","properties":{"station_id":"n1154972661","station_name":"Ampang Park","station_name_local":"PY20 Ampang Park","network":"Sungai Buloh-Serdang-Putrajaya Line","network_local":"Sungai Buloh-Serdang-Putrajaya Line","operator":"Rapid KL","city":"Kuala Lumpur","country":"Malaysia","lines":["12"],"wikidata":"Q1054301"},"geometry":{"type":"Point","coordinates":[101.7179786,3.1617374]}},{"type":"Feature","properties":{"station_id":"n1154972677","station_name":"Persiaran KLCC","station_name_local":"PY21 Persiaran KLCC","network":"Putrajaya Line","network_local":"Putrajaya Line","operator":"Rapid KL","city":"Kuala Lumpur","country":"Malaysia","lines":["12"],"wikidata":"Q24884444"},"geometry":{"type":"Point","coordinates":[101.7180695,3.156847]}},{"type":"Feature","properties":{"station_id":"n1155023167","station_name":"Titiwangsa (MRT)","station_name_local":"PY17 Titiwangsa","network":"Putrajaya Line","network_local":"Putrajaya Line","operator":"Rapid KL","city":"Kuala Lumpur","country":"Malaysia","lines":["12"],"wikidata":"Q27144"},"geometry":{"type":"Point","coordinates":[101.6963008,3.1744534]}},{"type":"Feature","properties":{"station_id":"n1155023168","station_name":"Kuala Lumpur Hospital","station_name_local":"PY18 Hospital Kuala Lumpur","network":"Putrajaya Line","network_local":"Putrajaya Line","operator":"Rapid KL","city":"Kuala Lumpur","country":"Malaysia","lines":["12"],"wikidata":"Q24884423"},"geometry":{"type":"Point","coordinates":[101.7015271,3.1737807]}},{"type":"Feature","properties":{"station_id":"n1155023169","station_name":"Raja Uda","station_name_local":"PY19 Raja Uda","network":"Putrajaya Line","network_local":"Putrajaya Line","operator":"Rapid KL","city":"Kuala Lumpur","country":"Malaysia","lines":["12"],"wikidata":"Q24884430"},"geometry":{"type":"Point","coordinates":[101.711138,3.16785]}},{"type":"Feature","properties":{"station_id":"n1155023170","station_name":"Conlay","station_name_local":"PY22 Conlay","network":"Putrajaya Line","network_local":"Putrajaya Line","operator":"Rapid KL","city":"Kuala Lumpur","country":"Malaysia","lines":["12"],"wikidata":"Q24884457"},"geometry":{"type":"Point","coordinates":[101.7184028,3.150907]}},{"type":"Feature","properties":{"station_id":"n1155023171","station_name":"Chan Sow Lin","station_name_local":"PY24 Chan Sow Lin","network":"Putrajaya Line","network_local":"Putrajaya Line","operator":"Rapid KL","city":"Kuala Lumpur","country":"Malaysia","lines":["12"],"wikidata":"Q5070372"},"geometry":{"type":"Point","coordinates":[101.7165932,3.1283747]}},{"type":"Feature","properties":{"station_id":"n1190358768","station_name":"Ampang Park","station_name_local":"KJ9 Ampang Park","network":"Kelana Jaya Line","network_local":"Kelana Jaya Line","operator":"Rapid KL","city":"Kuala Lumpur","country":"Malaysia","lines":["12"],"wikidata":"Q1054301"},"geometry":{"type":"Point","coordinates":[101.7190662,3.1601062]}}]}