{"type":"FeatureCollection","metro_system":{"continent":"asia","country":"Malaysia","city":"Kuala Lumpur","osm_networks":["Ampang Line","Ampang Line (Sri Petaling Line)","Ampang Line;Sri Petaling Line","Kajang Line","Kajang Line;Putrajaya Line","Kelana Jaya Line","Putrajaya Line","Rapid KL","Shah Alam Line","Sri Petaling Line","Sri Petaling Line;Kelana Jaya Line","Sungai Buloh-Kajang Line","Sungai Buloh-Serdang-Putrajaya Line","Unknown"],"operator":"Rapid Rail","official_website":"https://myrapid.com.my/bus-train/rapid-kl/shah-alam-line/","official_map":"https://en.wikipedia.org/wiki/Kelana_Jaya_line","wikidata":"Q248445","line_count":6,"station_count":149,"audit":{"strategies_tried":[],"passed":true,"checks":[{"id":"system_exists","ok":true,"detail":"matched OSM system systems/asia/malaysia/asia-malaysia-kuala-lumpur.geojson","level":"error"},{"id":"has_lines","ok":true,"detail":"6 lines","level":"error"},{"id":"has_stations","ok":true,"detail":"149 stations","level":"error"},{"id":"station_ratio","ok":true,"detail":"OSM 149 vs Wikipedia 156（比值 0.96）","level":"error"},{"id":"stations_have_lines","ok":true,"detail":"149/149 站皆有所屬路線","level":"error"},{"id":"stations_named","ok":true,"detail":"149/149 站有名稱","level":"warn"},{"id":"station_order","ok":true,"detail":"所有線路站序合理","level":"warn"}],"reasons":[],"warnings":[],"audited_at":"2026-07-10T07:56:59.747Z"}},"features":[{"type":"Feature","properties":{"route_id":"rm8000461","route_name":"Kelana Jaya Line","route_name_local":"Kelana Jaya Line","route_ref":"KJ","route_color":"#e0115f","network":"Rapid KL","network_local":"Rapid KL","operator":"Rapid Rail","city":"Kuala Lumpur","country":"Malaysia","wikidata":"Q248445","wikipedia":"en:Kelana Jaya line","osm_route_ids":[1895592,8000438]},"geometry":{"type":"MultiLineString","coordinates":[[[101.7243612,3.2312221],[101.7218971,3.2195523],[101.7319177,3.2058319],[101.7373096,3.1991449],[101.7359468,3.1757346],[101.7353251,3.1673172],[101.7318741,3.1650344],[101.7243673,3.1644073],[101.7191422,3.1600053],[101.7133606,3.1591628],[101.7067986,3.1612696],[101.7019645,3.156852],[101.697003,3.1499051],[101.6953712,3.1425189],[101.6865338,3.1340967],[101.6790964,3.1275364],[101.6729455,3.118749],[101.6685112,3.1154543],[101.6617123,3.1144858],[101.6452957,3.1040426],[101.637763,3.1043006],[101.6231638,3.104684],[101.6127123,3.1106788],[101.6044811,3.1123941],[101.5913205,3.111935],[101.5867154,3.108388],[101.5904941,3.0959571],[101.5872954,3.0848338],[101.5862183,3.0756919],[101.5862296,3.067125],[101.5920557,3.0548356],[101.5902112,3.0478201],[101.5881378,3.0350348],[101.5817948,3.0297129],[101.5721019,3.0230705],[101.5721901,3.009704],[101.5756171,2.9961172]]]}},{"type":"Feature","properties":{"route_id":"rm8000405","route_name":"Sri Petaling Line (Sentul Timur → Putra Heights)","route_name_local":"Sri Petaling Line","route_ref":"SP","route_color":"#721422","network":"Rapid KL","network_local":"Rapid KL","operator":"Rapid Rail","city":"Kuala Lumpur","country":"Malaysia","wikidata":"Q113297920","wikipedia":"en:Ampang and Sri Petaling lines","osm_route_ids":[3374384,8000387]},"geometry":{"type":"MultiLineString","coordinates":[[[101.6953265,3.1858318],[101.6955056,3.1785862],[101.6952529,3.173587],[101.6935944,3.1665629],[101.6941266,3.1611848],[101.6944464,3.1555465],[101.6964028,3.1494677],[101.7017917,3.1445541],[101.7061576,3.1398734],[101.7120511,3.1349483],[101.7156571,3.1277484],[101.7143246,3.1127356],[101.7063205,3.1020725],[101.7124347,3.089635],[101.7113108,3.0760669],[101.7080538,3.0639307],[101.6921982,3.0581261],[101.6870879,3.0614989],[101.6706523,3.0620141],[101.6626026,3.0619158],[101.6565354,3.0546486],[101.6442614,3.0504501],[101.6210567,3.0480491],[101.6161136,3.0332361],[101.6135476,3.0227149],[101.6129946,3.0169277],[101.6052771,3.0078119],[101.5968165,2.9998789],[101.5755396,2.995961]]]}},{"type":"Feature","properties":{"route_id":"rm8000298","route_name":"Ampang Line (Sentul Timur → Ampang)","route_name_local":"Ampang Line","route_ref":"AG","route_color":"#fe8e10","network":"Rapid KL","network_local":"Rapid KL","operator":"Rapid Rail","city":"Kuala Lumpur","country":"Malaysia","wikidata":"Q113297999","wikipedia":null,"osm_route_ids":[4466552,8000297]},"geometry":{"type":"MultiLineString","coordinates":[[[101.6953265,3.1858318],[101.6955056,3.1785862],[101.6952529,3.173587],[101.6935944,3.1665629],[101.6941266,3.1611848],[101.6944464,3.1555465],[101.6964028,3.1494677],[101.7017917,3.1445541],[101.7061576,3.1398734],[101.7120511,3.1349483],[101.7156571,3.1277484],[101.7178694,3.1209623],[101.7269337,3.1232922],[101.7389808,3.1302694],[101.7466721,3.1347854],[101.7530437,3.1384959],[101.7565977,3.1406583],[101.7601684,3.1505103]]]}},{"type":"Feature","properties":{"route_id":"rm8000326","route_name":"Kajang Line","route_name_local":"Laluan Kajang","route_ref":"9","route_color":"#008000","network":"Rapid KL","network_local":"Rapid KL","operator":"Rapid Rail","city":"Kuala Lumpur","country":"Malaysia","wikidata":"Q6717618","wikipedia":"en:Kajang line","osm_route_ids":[5690837,8000325]},"geometry":{"type":"MultiLineString","coordinates":[[[101.5724013,3.1764498],[101.5648656,3.1698609],[101.5786958,3.1502287],[101.5936568,3.14967],[101.6087346,3.1552117],[101.6187845,3.1467141],[101.6307966,3.1360801],[101.6429535,3.1293318],[101.6623266,3.1433046],[101.6653074,3.1509828],[101.6873589,3.137188],[101.6963621,3.1424869],[101.7022688,3.1421759],[101.7109772,3.1465033],[101.7198785,3.1428622],[101.7231513,3.132384],[101.7272353,3.1246694],[101.7293427,3.1126489],[101.7322944,3.1043689],[101.7403451,3.0913923],[101.745144,3.0792142],[101.7635488,3.0716636],[101.7729934,3.0621901],[101.77504,3.0483736],[101.7734006,3.0413221],[101.7711275,3.0264532],[101.7841294,3.0008213],[101.786258,2.9940951],[101.7903903,2.9831462]]]}},{"type":"Feature","properties":{"route_id":"rm15406024","route_name":"Shah Alam Line","route_name_local":"Shah Alam Line","route_ref":"11","route_color":"#87cefa","network":"Rapid KL","network_local":"Rapid KL","operator":"Rapid Rail","city":"Kuala Lumpur","country":"Malaysia","wikidata":"Q17055821","wikipedia":"en:Shah Alam line","osm_route_ids":[8394085,15406023]},"geometry":{"type":"MultiLineString","coordinates":[[[101.4593038,2.9763664],[101.4459616,2.9931685],[101.4418774,3.0054418],[101.4407261,3.016073],[101.4423378,3.0268463],[101.4475044,3.0474368],[101.4520384,3.0590888],[101.4508251,3.0679254],[101.4659324,3.0627503],[101.4870126,3.0674826],[101.5012334,3.06284],[101.5211638,3.0699254],[101.5491075,3.0800237],[101.5619677,3.0823475],[101.5888179,3.0953491],[101.5911356,3.1060902],[101.5942001,3.1227629],[101.6046809,3.133503],[101.6167342,3.1349127],[101.6188601,3.1449108]]]}},{"type":"Feature","properties":{"route_id":"rm8298259","route_name":"Putrajaya Line","route_name_local":"Laluan Putrajaya","route_ref":"12","route_color":"#ffcc00","network":"Rapid KL","network_local":"Rapid KL","operator":"Rapid Rail","city":"Kuala Lumpur","country":"Malaysia","wikidata":"Q17053935","wikipedia":"en:Putrajaya line","osm_route_ids":[11313577,11313578]},"geometry":{"type":"MultiLineString","coordinates":[[[101.671383,2.9314012],[101.665598,2.9388527],[101.6574277,2.9492091],[101.6547969,2.9652512],[101.6605458,2.9831751],[101.672542,2.9894052],[101.7053919,3.0085773],[101.7088815,3.021537],[101.707449,3.028431],[101.7048624,3.0417215],[101.7083805,3.0638443],[101.6994826,3.0777006],[101.694011,3.0895945],[101.7164935,3.1283712],[101.7200268,3.1429072],[101.718367,3.1506171],[101.7182203,3.1568044],[101.7180072,3.1617412],[101.7109317,3.167797],[101.7017019,3.1738933],[101.6964317,3.1745613],[101.685171,3.1787123],[101.6810403,3.1893934],[101.6796178,3.1953293],[101.6752146,3.2057868],[101.6655589,3.207121],[101.6559236,3.2094755],[101.6481367,3.2116171],[101.6403969,3.2144521],[101.6286753,3.2075902],[101.6211453,3.1985415],[101.608413,3.1981606],[101.5928857,3.199691],[101.5817233,3.2062285],[101.578433,3.1971535],[101.572394,3.1762843]],[[101.5724098,3.1762262],[101.5783791,3.1971674],[101.5817709,3.2063793],[101.5929229,3.1998294],[101.6084026,3.1982976],[101.6211352,3.1985883],[101.6285337,3.207665],[101.6403808,3.2145991],[101.6482091,3.2117442],[101.6559176,3.2096165],[101.6656119,3.2072532],[101.6753371,3.205889],[101.6796622,3.1953316],[101.681171,3.1894372],[101.6852328,3.1788143],[101.696394,3.1746912],[101.701762,3.1741536],[101.7109297,3.1679366],[101.7180106,3.1617428],[101.7182239,3.1568033],[101.7184784,3.1506598],[101.7200311,3.1429063],[101.7166324,3.1282865],[101.6941916,3.0895853],[101.6996047,3.0777471],[101.7084244,3.0638445],[101.7050072,3.0416997],[101.7075689,3.02852],[101.7090047,3.0215373],[101.7053906,3.0084403],[101.6726434,2.9892972],[101.6606113,2.9830473],[101.6549353,2.9652492],[101.657568,2.9492412],[101.6657303,2.938934],[101.671549,2.9313738]]]}},{"type":"Feature","properties":{"station_id":"n2576906197","station_name":"Masjid Jamek (AG SP)","station_name_local":"Masjid Jamek (AG SP)","network":"Unknown","network_local":null,"operator":null,"city":"Kuala Lumpur","country":"Malaysia","lines":["AG","SP"],"wikidata":"Q1055044","merged_from":2},"geometry":{"type":"Point","coordinates":[101.69639699999999,3.1494611]}},{"type":"Feature","properties":{"station_id":"n4036400202","station_name":"Chan Sow Lin","station_name_local":"Chan Sow Lin","network":"Unknown","network_local":null,"operator":null,"city":"Kuala Lumpur","country":"Malaysia","lines":["12","AG","SP"],"wikidata":null,"merged_from":5},"geometry":{"type":"Point","coordinates":[101.71577549999999,3.12788424]}},{"type":"Feature","properties":{"station_id":"n5391767170","station_name":"KL Sentral","station_name_local":"KJ15 KL Sentral","network":"Unknown","network_local":null,"operator":null,"city":"Kuala Lumpur","country":"Malaysia","lines":["KJ"],"wikidata":"Q801042"},"geometry":{"type":"Point","coordinates":[101.6865153,3.1341106]}},{"type":"Feature","properties":{"station_id":"n5391966854","station_name":"KLCC","station_name_local":"KJ10 KLCC","network":"Kelana Jaya Line","network_local":"Kelana Jaya Line","operator":"Rapid KL","city":"Kuala Lumpur","country":"Malaysia","lines":["KJ"],"wikidata":"Q1054307"},"geometry":{"type":"Point","coordinates":[101.7133662,3.1592469]}},{"type":"Feature","properties":{"station_id":"n6502502981","station_name":"Masjid Jamek","station_name_local":"AG7 SP7 KJ13 Masjid Jamek","network":"Rapid KL","network_local":null,"operator":"Rapid KL","city":"Kuala Lumpur","country":"Malaysia","lines":["AG","SP"],"wikidata":"Q1055044"},"geometry":{"type":"Point","coordinates":[101.696461,3.1494076]}},{"type":"Feature","properties":{"station_id":"n24375031","station_name":"Cheras","station_name_local":"SP12 Cheras","network":"Sri Petaling Line","network_local":"Sri Petaling Line","operator":"Rapid KL","city":"Kuala Lumpur","country":"Malaysia","lines":["SP"],"wikidata":"Q567251"},"geometry":{"type":"Point","coordinates":[101.7143008,3.1126982]}},{"type":"Feature","properties":{"station_id":"n24375035","station_name":"Pudu","station_name_local":"AG10 SP10 Pudu","network":"Ampang Line;Sri Petaling Line","network_local":"Ampang Line;Sri Petaling Line","operator":"Rapid KL","city":"Kuala Lumpur","country":"Malaysia","lines":["AG","SP"],"wikidata":"Q6150815"},"geometry":{"type":"Point","coordinates":[101.7120169,3.1349395]}},{"type":"Feature","properties":{"station_id":"n24375037","station_name":"Maluri","station_name_local":"AG13 Maluri","network":"Ampang Line","network_local":"Ampang Line","operator":"Rapid KL","city":"Kuala Lumpur","country":"Malaysia","lines":["9","AG"],"wikidata":"Q6744979","merged_from":2},"geometry":{"type":"Point","coordinates":[101.7270789,3.1239004]}},{"type":"Feature","properties":{"station_id":"n24375041","station_name":"Miharja","station_name_local":"AG12 Miharja","network":"Ampang Line","network_local":"Ampang Line","operator":"Rapid KL","city":"Kuala Lumpur","country":"Malaysia","lines":["AG"],"wikidata":"Q6845255"},"geometry":{"type":"Point","coordinates":[101.7178353,3.1209691]}},{"type":"Feature","properties":{"station_id":"n24375042","station_name":"Hang Tuah","station_name_local":"AG9 SP9 Hang Tuah","network":"Ampang Line;Sri Petaling Line","network_local":"Ampang Line;Sri Petaling Line","operator":"Rapid KL","city":"Kuala Lumpur","country":"Malaysia","lines":["AG","SP"],"wikidata":"Q27142"},"geometry":{"type":"Point","coordinates":[101.7062998,3.1398832]}},{"type":"Feature","properties":{"station_id":"n24375043","station_name":"Titiwangsa","station_name_local":"AG3 SP3 Titiwangsa","network":"Ampang Line;Sri Petaling Line","network_local":"Ampang Line;Sri Petaling Line","operator":"Rapid KL","city":"Kuala Lumpur","country":"Malaysia","lines":["AG","SP"],"wikidata":"Q27144"},"geometry":{"type":"Point","coordinates":[101.6952467,3.1735561]}},{"type":"Feature","properties":{"station_id":"n24375044","station_name":"Bandar Tun Razak","station_name_local":"SP14 Bandar Tun Razak","network":"Sri Petaling Line","network_local":"Sri Petaling Line","operator":"Rapid KL","city":"Kuala Lumpur","country":"Malaysia","lines":["SP"],"wikidata":"Q20460980"},"geometry":{"type":"Point","coordinates":[101.712446,3.0896364]}},{"type":"Feature","properties":{"station_id":"n24375049","station_name":"Kerinchi","station_name_local":"KJ18 Kerinchi","network":"Kelana Jaya Line","network_local":"Kelana Jaya Line","operator":"Rapid KL","city":"Kuala Lumpur","country":"Malaysia","lines":["KJ"],"wikidata":"Q6131677"},"geometry":{"type":"Point","coordinates":[101.668495,3.1154894]}},{"type":"Feature","properties":{"station_id":"n24375050","station_name":"Sultan Ismail","station_name_local":"AG5 SP5 Sultan Ismail","network":"Ampang Line;Sri Petaling Line","network_local":"Ampang Line;Sri Petaling Line","operator":"Rapid KL","city":"Kuala Lumpur","country":"Malaysia","lines":["AG","SP"],"wikidata":"Q6150771"},"geometry":{"type":"Point","coordinates":[101.6941256,3.1612044]}},{"type":"Feature","properties":{"station_id":"n24375051","station_name":"Plaza Rakyat","station_name_local":"AG8 SP8 Plaza Rakyat","network":"Ampang Line;Sri Petaling Line","network_local":"Ampang Line;Sri Petaling Line","operator":"Rapid KL","city":"Kuala Lumpur","country":"Malaysia","lines":["AG","SP"],"wikidata":"Q6150701"},"geometry":{"type":"Point","coordinates":[101.7020879,3.144247]}},{"type":"Feature","properties":{"station_id":"n24375056","station_name":"Sentul East","station_name_local":"AG1 SP1 Sentul Timur","network":"Ampang Line;Sri Petaling Line","network_local":"Ampang Line;Sri Petaling Line","operator":"Rapid KL","city":"Kuala Lumpur","country":"Malaysia","lines":["AG","SP"],"wikidata":"Q27146"},"geometry":{"type":"Point","coordinates":[101.6953081,3.1859133]}},{"type":"Feature","properties":{"station_id":"n24375057","station_name":"Sri Petaling","station_name_local":"SP18 Sri Petaling","network":"Sri Petaling Line","network_local":"Sri Petaling Line","operator":"Rapid KL","city":"Kuala Lumpur","country":"Malaysia","lines":["SP"],"wikidata":"Q7586185"},"geometry":{"type":"Point","coordinates":[101.6870728,3.0614029]}},{"type":"Feature","properties":{"station_id":"n24375058","station_name":"Sri Rampai","station_name_local":"KJ4 Sri Rampai","network":"Kelana Jaya Line","network_local":"Kelana Jaya Line","operator":"Rapid KL","city":"Kuala Lumpur","country":"Malaysia","lines":["KJ"],"wikidata":"Q7586225"},"geometry":{"type":"Point","coordinates":[101.7373493,3.1990889]}},{"type":"Feature","properties":{"station_id":"n24375061","station_name":"Damai","station_name_local":"KJ8 Damai","network":"Kelana Jaya Line","network_local":"Kelana Jaya Line","operator":"Rapid KL","city":"Kuala Lumpur","country":"Malaysia","lines":["KJ"],"wikidata":"Q5211926"},"geometry":{"type":"Point","coordinates":[101.724408,3.1644733]}},{"type":"Feature","properties":{"station_id":"n24375063","station_name":"PWTC","station_name_local":"AG4 SP4 PWTC","network":"Ampang Line;Sri Petaling Line","network_local":"Ampang Line;Sri Petaling Line","operator":"Rapid KL","city":"Kuala Lumpur","country":"Malaysia","lines":["AG","SP"],"wikidata":"Q4383723"},"geometry":{"type":"Point","coordinates":[101.6935889,3.1665656]}},{"type":"Feature","properties":{"station_id":"n24375064","station_name":"Bangsar","station_name_local":"KJ16 Bangsar","network":"Kelana Jaya Line","network_local":"Kelana Jaya Line","operator":"Rapid KL","city":"Kuala Lumpur","country":"Malaysia","lines":["KJ"],"wikidata":"Q4855626"},"geometry":{"type":"Point","coordinates":[101.6790186,3.1274505]}},{"type":"Feature","properties":{"station_id":"n24375068","station_name":"Universiti","station_name_local":"KJ19 Universiti","network":"Rapid KL","network_local":"Rapid KL","operator":"Rapid Rail","city":"Kuala Lumpur","country":"Malaysia","lines":["KJ"],"wikidata":"Q6131847"},"geometry":{"type":"Point","coordinates":[101.6617021,3.1145476]}},{"type":"Feature","properties":{"station_id":"n24375069","station_name":"Abdullah Hukum (LRT)","station_name_local":"KJ17 Abdullah Hukum","network":"Kelana Jaya Line","network_local":"Kelana Jaya Line","operator":"Rapid KL","city":"Kuala Lumpur","country":"Malaysia","lines":["KJ"],"wikidata":"Q4666008"},"geometry":{"type":"Point","coordinates":[101.6729333,3.1187406]}},{"type":"Feature","properties":{"station_id":"n24375074","station_name":"Bukit Jalil","station_name_local":"SP17 Bukit Jalil","network":"Ampang Line (Sri Petaling Line)","network_local":"Ampang Line (Sri Petaling Line)","operator":"Rapid KL","city":"Kuala Lumpur","country":"Malaysia","lines":["SP"],"wikidata":"Q4986903"},"geometry":{"type":"Point","coordinates":[101.6922071,3.0581376]}},{"type":"Feature","properties":{"station_id":"n24375079","station_name":"Bukit Nanas","station_name_local":"MR8 Bukit Nanas","network":"Rapid KL","network_local":"Rapid KL","operator":"Rapid Rail","city":"Kuala Lumpur","country":"Malaysia","lines":["KJ"],"wikidata":"Q31320"},"geometry":{"type":"Point","coordinates":[101.7048611,3.1561131]}},{"type":"Feature","properties":{"station_id":"n24375081","station_name":"Salak Selatan","station_name_local":"SP13 Salak Selatan","network":"Sri Petaling Line","network_local":"Sri Petaling Line","operator":"Rapid KL","city":"Kuala Lumpur","country":"Malaysia","lines":["SP"],"wikidata":"Q7403493"},"geometry":{"type":"Point","coordinates":[101.7062893,3.1020955]}},{"type":"Feature","properties":{"station_id":"n24375092","station_name":"Pandan Jaya","station_name_local":"AG14 Pandan Jaya","network":"Ampang Line","network_local":"Ampang Line","operator":"Rapid KL","city":"Kuala Lumpur","country":"Malaysia","lines":["AG"],"wikidata":"Q7130491"},"geometry":{"type":"Point","coordinates":[101.7389625,3.1302179]}},{"type":"Feature","properties":{"station_id":"n24375103","station_name":"Wangsa Maju","station_name_local":"KJ3 Wangsa Maju","network":"Kelana Jaya Line","network_local":"Kelana Jaya Line","operator":"Rapid KL","city":"Kuala Lumpur","country":"Malaysia","lines":["KJ"],"wikidata":"Q1054313"},"geometry":{"type":"Point","coordinates":[101.7319088,3.2057525]}},{"type":"Feature","properties":{"station_id":"n24375110","station_name":"Bandar Tasik Selatan","station_name_local":"SP15 Bandar Tasik Selatan","network":"Sri Petaling Line","network_local":"Sri Petaling Line","operator":"Rapid KL","city":"Kuala Lumpur","country":"Malaysia","lines":["SP"],"wikidata":"Q4854431"},"geometry":{"type":"Point","coordinates":[101.711333,3.0760965]}},{"type":"Feature","properties":{"station_id":"n24375111","station_name":"City Hall","station_name_local":"AG6 SP6 Bandaraya","network":"Ampang Line;Sri Petaling Line","network_local":"Ampang Line;Sri Petaling Line","operator":"Rapid KL","city":"Kuala Lumpur","country":"Malaysia","lines":["AG","SP"],"wikidata":"Q4854452"},"geometry":{"type":"Point","coordinates":[101.694423,3.1555152]}},{"type":"Feature","properties":{"station_id":"n24375113","station_name":"Sungai Besi","station_name_local":"SP16 Sungai Besi","network":"Sri Petaling Line","network_local":"Sri Petaling Line","operator":"Rapid KL","city":"Kuala Lumpur","country":"Malaysia","lines":["12","SP"],"wikidata":null,"merged_from":2},"geometry":{"type":"Point","coordinates":[101.70821215,3.0639021]}},{"type":"Feature","properties":{"station_id":"n28224155","station_name":"Pasar Seni","station_name_local":"KG16 Pasar Seni","network":"Kajang Line","network_local":"Kajang Line","operator":"Rapid KL","city":"Kuala Lumpur","country":"Malaysia","lines":["9","KJ"],"wikidata":"Q1057429","merged_from":2},"geometry":{"type":"Point","coordinates":[101.695798,3.1424274]}},{"type":"Feature","properties":{"station_id":"n42756504","station_name":"Asia Jaya","station_name_local":"KJ21 Asia Jaya","network":"Kelana Jaya Line","network_local":"Kelana Jaya Line","operator":"Rapid KL","city":"Kuala Lumpur","country":"Malaysia","lines":["KJ"],"wikidata":"Q1057409"},"geometry":{"type":"Point","coordinates":[101.6377344,3.1043547]}},{"type":"Feature","properties":{"station_id":"n42756585","station_name":"Taman Bahagia","station_name_local":"KJ23 Taman Bahagia","network":"Kelana Jaya Line","network_local":"Kelana Jaya Line","operator":"Rapid KL","city":"Kuala Lumpur","country":"Malaysia","lines":["KJ"],"wikidata":"Q986438"},"geometry":{"type":"Point","coordinates":[101.6127159,3.1106931]}},{"type":"Feature","properties":{"station_id":"n42756638","station_name":"Kelana Jaya","station_name_local":"KJ24 Kelana Jaya","network":"Kelana Jaya Line","network_local":"Kelana Jaya Line","operator":"Rapid KL","city":"Kuala Lumpur","country":"Malaysia","lines":["KJ"],"wikidata":"Q986580"},"geometry":{"type":"Point","coordinates":[101.6044979,3.1124539]}},{"type":"Feature","properties":{"station_id":"n139349758","station_name":"Taman Jaya","station_name_local":"KJ20 Taman Jaya","network":"Kelana Jaya Line","network_local":"Kelana Jaya Line","operator":"Rapid KL","city":"Kuala Lumpur","country":"Malaysia","lines":["KJ"],"wikidata":"Q7680629"},"geometry":{"type":"Point","coordinates":[101.6453155,3.1040588]}},{"type":"Feature","properties":{"station_id":"n140908242","station_name":"Taman Melati","station_name_local":"KJ2 Taman Melati","network":"Kelana Jaya Line","network_local":"Kelana Jaya Line","operator":"Rapid KL","city":"Kuala Lumpur","country":"Malaysia","lines":["KJ"],"wikidata":"Q7680637"},"geometry":{"type":"Point","coordinates":[101.7218671,3.2195267]}},{"type":"Feature","properties":{"station_id":"n140908243","station_name":"Gombak","station_name_local":"KJ1 Gombak","network":"Kelana Jaya Line","network_local":"Kelana Jaya Line","operator":"Rapid KL","city":"Kuala Lumpur","country":"Malaysia","lines":["KJ"],"wikidata":"Q800063"},"geometry":{"type":"Point","coordinates":[101.7244253,3.2312175]}},{"type":"Feature","properties":{"station_id":"n141465684","station_name":"Jelatek","station_name_local":"KJ6 Jelatek","network":"Kelana Jaya Line","network_local":"Kelana Jaya Line","operator":"Rapid KL","city":"Kuala Lumpur","country":"Malaysia","lines":["KJ"],"wikidata":"Q6176623"},"geometry":{"type":"Point","coordinates":[101.7353159,3.1672507]}},{"type":"Feature","properties":{"station_id":"n141465686","station_name":"Setiawangsa","station_name_local":"KJ5 Setiawangsa","network":"Kelana Jaya Line","network_local":"Kelana Jaya Line","operator":"Rapid KL","city":"Kuala Lumpur","country":"Malaysia","lines":["KJ"],"wikidata":"Q7456705"},"geometry":{"type":"Point","coordinates":[101.735886,3.1757386]}},{"type":"Feature","properties":{"station_id":"n141466518","station_name":"Dato' Keramat","station_name_local":"KJ7 Dato' Keramat","network":"Kelana Jaya Line","network_local":"Kelana Jaya Line","operator":"Rapid KL","city":"Kuala Lumpur","country":"Malaysia","lines":["KJ"],"wikidata":"Q5227689"},"geometry":{"type":"Point","coordinates":[101.7318554,3.1650625]}},{"type":"Feature","properties":{"station_id":"n141466822","station_name":"Taman Paramount","station_name_local":"KJ22 Taman Paramount","network":"Kelana Jaya Line","network_local":"Kelana Jaya Line","operator":"Rapid KL","city":"Kuala Lumpur","country":"Malaysia","lines":["KJ"],"wikidata":"Q1057419"},"geometry":{"type":"Point","coordinates":[101.623181,3.1047017]}},{"type":"Feature","properties":{"station_id":"n162935229","station_name":"Pandan Indah","station_name_local":"AG15 Pandan Indah","network":"Ampang Line","network_local":"Ampang Line","operator":"Rapid KL","city":"Kuala Lumpur","country":"Malaysia","lines":["AG"],"wikidata":"Q7130483"},"geometry":{"type":"Point","coordinates":[101.7466946,3.1347603]}},{"type":"Feature","properties":{"station_id":"n251290716","station_name":"Sentul","station_name_local":"AG2 SP2 Sentul","network":"Ampang Line;Sri Petaling Line","network_local":"Ampang Line;Sri Petaling Line","operator":"Rapid KL","city":"Kuala Lumpur","country":"Malaysia","lines":["AG","SP"],"wikidata":"Q27140"},"geometry":{"type":"Point","coordinates":[101.6954871,3.1785674]}},{"type":"Feature","properties":{"station_id":"n379708415","station_name":"Cempaka","station_name_local":"AG16 Cempaka","network":"Ampang Line","network_local":"Ampang Line","operator":"Rapid KL","city":"Kuala Lumpur","country":"Malaysia","lines":["AG"],"wikidata":"Q12709672"},"geometry":{"type":"Point","coordinates":[101.7530302,3.1384763]}},{"type":"Feature","properties":{"station_id":"n379708416","station_name":"Cahaya","station_name_local":"AG17 Cahaya","network":"Ampang Line","network_local":"Ampang Line","operator":"Rapid KL","city":"Kuala Lumpur","country":"Malaysia","lines":["AG"],"wikidata":"Q5017395"},"geometry":{"type":"Point","coordinates":[101.7565915,3.1406139]}},{"type":"Feature","properties":{"station_id":"n379708417","station_name":"Ampang","station_name_local":"AG18 Ampang","network":"Ampang Line","network_local":"Ampang Line","operator":"Rapid KL","city":"Kuala Lumpur","country":"Malaysia","lines":["AG"],"wikidata":"Q4748041"},"geometry":{"type":"Point","coordinates":[101.7602159,3.1503538]}},{"type":"Feature","properties":{"station_id":"n379709358","station_name":"Kinrara BK 5","station_name_local":"SP22 Kinrara BK 5","network":"Sri Petaling Line","network_local":"Sri Petaling Line","operator":"Rapid KL","city":"Kuala Lumpur","country":"Malaysia","lines":["SP"],"wikidata":"Q25038320"},"geometry":{"type":"Point","coordinates":[101.6442677,3.0504472]}},{"type":"Feature","properties":{"station_id":"n379709614","station_name":"Muhibbah","station_name_local":"SP20 Muhibbah","network":"Sri Petaling Line","network_local":"Sri Petaling Line","operator":"Rapid KL","city":"Kuala Lumpur","country":"Malaysia","lines":["SP"],"wikidata":"Q25109920"},"geometry":{"type":"Point","coordinates":[101.6626027,3.0619303]}},{"type":"Feature","properties":{"station_id":"n379709713","station_name":"Awan Besar","station_name_local":"SP19 Awan Besar","network":"Sri Petaling Line","network_local":"Sri Petaling Line","operator":"Rapid KL","city":"Kuala Lumpur","country":"Malaysia","lines":["SP"],"wikidata":"Q21005945"},"geometry":{"type":"Point","coordinates":[101.6706318,3.0620838]}},{"type":"Feature","properties":{"station_id":"n401169425","station_name":"Putra Heights","station_name_local":"SP31 KJ37 Putra Heights","network":"Sri Petaling Line;Kelana Jaya Line","network_local":"Sri Petaling Line;Kelana Jaya Line","operator":"Rapid KL","city":"Kuala Lumpur","country":"Malaysia","lines":["KJ"],"wikidata":"Q7262397"},"geometry":{"type":"Point","coordinates":[101.5755793,2.996048]}},{"type":"Feature","properties":{"station_id":"n401185518","station_name":"Alam Sutera","station_name_local":"SP21 Alam Sutera","network":"Sri Petaling Line","network_local":"Sri Petaling Line","operator":"Rapid KL","city":"Kuala Lumpur","country":"Malaysia","lines":["SP"],"wikidata":"Q23763025"},"geometry":{"type":"Point","coordinates":[101.6565436,3.0546596]}},{"type":"Feature","properties":{"station_id":"n407156818","station_name":"IOI Puchong Jaya","station_name_local":"SP24 IOI Puchong Jaya","network":"Sri Petaling Line","network_local":"Sri Petaling Line","operator":"Rapid KL","city":"Kuala Lumpur","country":"Malaysia","lines":["SP"],"wikidata":"Q24806750"},"geometry":{"type":"Point","coordinates":[101.621076,3.0481329]}},{"type":"Feature","properties":{"station_id":"n407156819","station_name":"Pusat Bandar Puchong","station_name_local":"SP25 Pusat Bandar Puchong","network":"Ampang Line","network_local":"Ampang Line","operator":"Rapid KL","city":"Kuala Lumpur","country":"Malaysia","lines":["SP"],"wikidata":"Q25110769"},"geometry":{"type":"Point","coordinates":[101.6160905,3.033231]}},{"type":"Feature","properties":{"station_id":"n407156821","station_name":"Taman Perindustrian Puchong","station_name_local":"SP26 Taman Perindustrian Puchong","network":"Sri Petaling Line","network_local":"Sri Petaling Line","operator":"Rapid KL","city":"Kuala Lumpur","country":"Malaysia","lines":["SP"],"wikidata":"Q22674240"},"geometry":{"type":"Point","coordinates":[101.6135362,3.0227201]}},{"type":"Feature","properties":{"station_id":"n407156825","station_name":"Bandar Puteri","station_name_local":"SP27 Bandar Puteri","network":"Sri Petaling Line","network_local":"Sri Petaling Line","operator":"Rapid KL","city":"Kuala Lumpur","country":"Malaysia","lines":["SP"],"wikidata":"Q23647028"},"geometry":{"type":"Point","coordinates":[101.6129338,3.0169474]}},{"type":"Feature","properties":{"station_id":"n407156827","station_name":"Puchong Prima","station_name_local":"SP29 Puchong Prima","network":"Sri Petaling Line","network_local":"Sri Petaling Line","operator":"Rapid KL","city":"Kuala Lumpur","country":"Malaysia","lines":["SP"],"wikidata":"Q25110771"},"geometry":{"type":"Point","coordinates":[101.5966629,2.9999055]}},{"type":"Feature","properties":{"station_id":"n407156831","station_name":"Alam Megah","station_name_local":"KJ35 Alam Megah","network":"Kelana Jaya Line","network_local":"Kelana Jaya Line","operator":"Rapid KL","city":"Kuala Lumpur","country":"Malaysia","lines":["KJ"],"wikidata":"Q23057832"},"geometry":{"type":"Point","coordinates":[101.5721068,3.0230244]}},{"type":"Feature","properties":{"station_id":"n407156832","station_name":"USJ21","station_name_local":"KJ34 USJ21","network":"Kelana Jaya Line","network_local":"Kelana Jaya Line","operator":"Rapid KL","city":"Kuala Lumpur","country":"Malaysia","lines":["KJ"],"wikidata":"Q23058762"},"geometry":{"type":"Point","coordinates":[101.5818089,3.0297333]}},{"type":"Feature","properties":{"station_id":"n407156833","station_name":"Wawasan","station_name_local":"KJ33 Wawasan","network":"Kelana Jaya Line","network_local":"Kelana Jaya Line","operator":"Rapid KL","city":"Kuala Lumpur","country":"Malaysia","lines":["KJ"],"wikidata":"Q24088908"},"geometry":{"type":"Point","coordinates":[101.5881042,3.0350524]}},{"type":"Feature","properties":{"station_id":"n407156835","station_name":"Taipan","station_name_local":"KJ32 Taipan","network":"Kelana Jaya Line","network_local":"Kelana Jaya Line","operator":"Rapid KL","city":"Kuala Lumpur","country":"Malaysia","lines":["KJ"],"wikidata":"Q23058714"},"geometry":{"type":"Point","coordinates":[101.5901534,3.0478392]}},{"type":"Feature","properties":{"station_id":"n407156837","station_name":"SS15","station_name_local":"KJ29 SS15","network":"Kelana Jaya Line","network_local":"Kelana Jaya Line","operator":"Rapid KL","city":"Kuala Lumpur","country":"Malaysia","lines":["KJ"],"wikidata":"Q23058698"},"geometry":{"type":"Point","coordinates":[101.5861786,3.0756959]}},{"type":"Feature","properties":{"station_id":"n424882040","station_name":"Puchong Perdana","station_name_local":"SP28 Puchong Perdana","network":"Sri Petaling Line","network_local":"Sri Petaling Line","operator":"Rapid KL","city":"Kuala Lumpur","country":"Malaysia","lines":["SP"],"wikidata":"Q25110770"},"geometry":{"type":"Point","coordinates":[101.6052792,3.0078283]}},{"type":"Feature","properties":{"station_id":"n424882052","station_name":"Subang Alam","station_name_local":"KJ36 Subang Alam","network":"Kelana Jaya Line","network_local":"Kelana Jaya Line","operator":"Rapid KL","city":"Kuala Lumpur","country":"Malaysia","lines":["KJ"],"wikidata":"Q23058703"},"geometry":{"type":"Point","coordinates":[101.5721183,3.0096033]}},{"type":"Feature","properties":{"station_id":"n424882056","station_name":"USJ7","station_name_local":"KJ31 USJ7","network":"Kelana Jaya Line","network_local":"Kelana Jaya Line","operator":"Rapid KL","city":"Kuala Lumpur","country":"Malaysia","lines":["KJ"],"wikidata":"Q23058763"},"geometry":{"type":"Point","coordinates":[101.5919787,3.0548079]}},{"type":"Feature","properties":{"station_id":"n424882059","station_name":"SS18","station_name_local":"KJ30 SS18","network":"Kelana Jaya Line","network_local":"Kelana Jaya Line","operator":"Rapid KL","city":"Kuala Lumpur","country":"Malaysia","lines":["KJ"],"wikidata":"Q23058699"},"geometry":{"type":"Point","coordinates":[101.5861891,3.0670274]}},{"type":"Feature","properties":{"station_id":"n424883116","station_name":"LRT Subang Jaya","station_name_local":"KJ28 Subang Jaya","network":"Kelana Jaya Line","network_local":"Kelana Jaya Line","operator":"Rapid KL","city":"Kuala Lumpur","country":"Malaysia","lines":["KJ"],"wikidata":"Q7630760"},"geometry":{"type":"Point","coordinates":[101.5872851,3.0848857]}},{"type":"Feature","properties":{"station_id":"n424883117","station_name":"Ara Damansara","station_name_local":"KJ26 Ara Damansara","network":"Kelana Jaya Line","network_local":"Kelana Jaya Line","operator":"Rapid KL","city":"Kuala Lumpur","country":"Malaysia","lines":["KJ"],"wikidata":"Q24088904"},"geometry":{"type":"Point","coordinates":[101.5865847,3.1084319]}},{"type":"Feature","properties":{"station_id":"n424884270","station_name":"Glenmarie","station_name_local":"KJ27 Glenmarie","network":"Rapid KL","network_local":"Rapid KL","operator":"Rapid Rail","city":"Kuala Lumpur","country":"Malaysia","lines":["KJ"],"wikidata":"Q24944303"},"geometry":{"type":"Point","coordinates":[101.5902722,3.095923]}},{"type":"Feature","properties":{"station_id":"n424884271","station_name":"Lembah Subang","station_name_local":"KJ25 Lembah Subang","network":"Kelana Jaya Line","network_local":"Kelana Jaya Line","operator":"Rapid KL","city":"Kuala Lumpur","country":"Malaysia","lines":["KJ"],"wikidata":"Q25110772"},"geometry":{"type":"Point","coordinates":[101.5913035,3.1120647]}},{"type":"Feature","properties":{"station_id":"n457131104","station_name":"Sungai Buloh (MRT)","station_name_local":"PY04 Sungai Buloh","network":"Putrajaya Line","network_local":"Putrajaya Line","operator":"Rapid KL","city":"Kuala Lumpur","country":"Malaysia","lines":["12"],"wikidata":"Q6131722"},"geometry":{"type":"Point","coordinates":[101.5818412,3.2062652]}},{"type":"Feature","properties":{"station_id":"n457131106","station_name":"Kampung Selamat","station_name_local":"PY03 Kampung Selamat","network":"Putrajaya Line","network_local":"Putrajaya Line","operator":"Rapid KL","city":"Kuala Lumpur","country":"Malaysia","lines":["12"],"wikidata":"Q22087852"},"geometry":{"type":"Point","coordinates":[101.5784104,3.1971698]}},{"type":"Feature","properties":{"station_id":"n457131687","station_name":"Surian","station_name_local":"KG07 Surian","network":"Kajang Line","network_local":"Kajang Line","operator":"Rapid KL","city":"Kuala Lumpur","country":"Malaysia","lines":["9"],"wikidata":"Q22087875"},"geometry":{"type":"Point","coordinates":[101.5937078,3.1495987]}},{"type":"Feature","properties":{"station_id":"n457857873","station_name":"Mutiara Damansara","station_name_local":"KG08 Mutiara Damansara","network":"Kajang Line","network_local":"Kajang Line","operator":"Rapid KL","city":"Kuala Lumpur","country":"Malaysia","lines":["9"],"wikidata":"Q22087863"},"geometry":{"type":"Point","coordinates":[101.6088243,3.1551901]}},{"type":"Feature","properties":{"station_id":"n457857875","station_name":"Bandar Utama","station_name_local":"KG09 Bandar Utama","network":"Kajang Line","network_local":"Kajang Line","operator":"Rapid KL","city":"Kuala Lumpur","country":"Malaysia","lines":["11","9"],"wikidata":"Q22087845","merged_from":2},"geometry":{"type":"Point","coordinates":[101.61891055000001,3.14578345]}},{"type":"Feature","properties":{"station_id":"n457857876","station_name":"Taman Tun Dr Ismail","station_name_local":"KG10 Taman Tun Dr Ismail","network":"Sungai Buloh-Kajang Line","network_local":"Sungai Buloh-Kajang Line","operator":"Rapid KL","city":"Kuala Lumpur","country":"Malaysia","lines":["9"],"wikidata":"Q22087883"},"geometry":{"type":"Point","coordinates":[101.6308574,3.1360288]}},{"type":"Feature","properties":{"station_id":"n457857877","station_name":"Phileo Damansara","station_name_local":"KG12 Phileo Damansara","network":"Kajang Line","network_local":"Kajang Line","operator":"Rapid KL","city":"Kuala Lumpur","country":"Malaysia","lines":["9"],"wikidata":"Q22087868"},"geometry":{"type":"Point","coordinates":[101.6429562,3.1292146]}},{"type":"Feature","properties":{"station_id":"n457857880","station_name":"Pusat Bandar Damansara","station_name_local":"KG13 Pusat Bandar Damansara","network":"Kajang Line","network_local":"Kajang Line","operator":"Rapid KL","city":"Kuala Lumpur","country":"Malaysia","lines":["9"],"wikidata":"Q22087870"},"geometry":{"type":"Point","coordinates":[101.6623778,3.1432776]}},{"type":"Feature","properties":{"station_id":"n457857881","station_name":"Semantan","station_name_local":"KG14 Semantan","network":"Kajang Line","network_local":"Kajang Line","operator":"Rapid KL","city":"Kuala Lumpur","country":"Malaysia","lines":["9"],"wikidata":"Q22087871"},"geometry":{"type":"Point","coordinates":[101.6653576,3.1509609]}},{"type":"Feature","properties":{"station_id":"n460387856","station_name":"Kwasa Damansara","station_name_local":"KG04 PY01 Kwasa Damansara","network":"Kajang Line;Putrajaya Line","network_local":"Kajang Line;Putrajaya Line","operator":"Rapid KL","city":"Kuala Lumpur","country":"Malaysia","lines":["12"],"wikidata":"Q22087857"},"geometry":{"type":"Point","coordinates":[101.5723992,3.1763094]}},{"type":"Feature","properties":{"station_id":"n460389010","station_name":"Kwasa Sentral","station_name_local":"KG05 Kwasa Sentral","network":"Kajang Line","network_local":"Kajang Line","operator":"Rapid KL","city":"Kuala Lumpur","country":"Malaysia","lines":["9"],"wikidata":"Q22087858"},"geometry":{"type":"Point","coordinates":[101.5648383,3.1698329]}},{"type":"Feature","properties":{"station_id":"n460440400","station_name":"Kota Damansara","station_name_local":"KG06 Kota Damansara","network":"Sungai Buloh-Kajang Line","network_local":"Sungai Buloh-Kajang Line","operator":"Rapid KL","city":"Kuala Lumpur","country":"Malaysia","lines":["9"],"wikidata":"Q22087856"},"geometry":{"type":"Point","coordinates":[101.5787352,3.1501787]}},{"type":"Feature","properties":{"station_id":"n471963795","station_name":"Merdeka","station_name_local":"KG17 Merdeka","network":"Kajang Line","network_local":"Kajang Line","operator":"Rapid KL","city":"Kuala Lumpur","country":"Malaysia","lines":["9"],"wikidata":"Q22087862"},"geometry":{"type":"Point","coordinates":[101.7021933,3.1429034]}},{"type":"Feature","properties":{"station_id":"n505249624","station_name":"Taman Pertama","station_name_local":"KG23 Taman Pertama","network":"Kajang Line","network_local":"Kajang Line","operator":"Rapid KL","city":"Kuala Lumpur","country":"Malaysia","lines":["9"],"wikidata":"Q22087881"},"geometry":{"type":"Point","coordinates":[101.7293032,3.112639]}},{"type":"Feature","properties":{"station_id":"n505249629","station_name":"Taman Midah","station_name_local":"KG24 Taman Midah","network":"Kajang Line","network_local":"Kajang Line","operator":"Rapid KL","city":"Kuala Lumpur","country":"Malaysia","lines":["9"],"wikidata":"Q22087879"},"geometry":{"type":"Point","coordinates":[101.7322409,3.1044287]}},{"type":"Feature","properties":{"station_id":"n505250274","station_name":"Taman Mutiara","station_name_local":"KG25 Taman Mutiara","network":"Kajang Line","network_local":"Kajang Line","operator":"Rapid KL","city":"Kuala Lumpur","country":"Malaysia","lines":["9"],"wikidata":"Q22087880"},"geometry":{"type":"Point","coordinates":[101.7403909,3.0913032]}},{"type":"Feature","properties":{"station_id":"n505251359","station_name":"Taman Connaught","station_name_local":"KG26 Taman Connaught","network":"Kajang Line","network_local":"Kajang Line","operator":"Rapid KL","city":"Kuala Lumpur","country":"Malaysia","lines":["9"],"wikidata":"Q22087877"},"geometry":{"type":"Point","coordinates":[101.7451397,3.0791861]}},{"type":"Feature","properties":{"station_id":"n505251360","station_name":"Taman Suntex","station_name_local":"KG27 Taman Suntex","network":"Kajang Line","network_local":"Kajang Line","operator":"Rapid KL","city":"Kuala Lumpur","country":"Malaysia","lines":["9"],"wikidata":"Q22087882"},"geometry":{"type":"Point","coordinates":[101.7634796,3.0716075]}},{"type":"Feature","properties":{"station_id":"n505251362","station_name":"Sri Raya","station_name_local":"KG28 Sri Raya","network":"Kajang Line","network_local":"Kajang Line","operator":"Rapid KL","city":"Kuala Lumpur","country":"Malaysia","lines":["9"],"wikidata":"Q22087872"},"geometry":{"type":"Point","coordinates":[101.7729998,3.0621768]}},{"type":"Feature","properties":{"station_id":"n505251364","station_name":"Bandar Tun Hussein Onn","station_name_local":"KG29 Bandar Tun Hussein Onn","network":"Kajang Line","network_local":"Kajang Line","operator":"Rapid KL","city":"Kuala Lumpur","country":"Malaysia","lines":["9"],"wikidata":"Q22087844"},"geometry":{"type":"Point","coordinates":[101.7750126,3.0483592]}},{"type":"Feature","properties":{"station_id":"n505751823","station_name":"Batu 11 Cheras","station_name_local":"KG30 Batu 11 Cheras","network":"Kajang Line","network_local":"Kajang Line","operator":"Rapid KL","city":"Kuala Lumpur","country":"Malaysia","lines":["9"],"wikidata":"Q22087846"},"geometry":{"type":"Point","coordinates":[101.7733437,3.0413042]}},{"type":"Feature","properties":{"station_id":"n505751824","station_name":"Bukit Dukung","station_name_local":"KG31 Bukit Dukung","network":"Kajang Line","network_local":"Kajang Line","operator":"Rapid KL","city":"Kuala Lumpur","country":"Malaysia","lines":["9"],"wikidata":"Q22087848"},"geometry":{"type":"Point","coordinates":[101.7710937,3.0263872]}},{"type":"Feature","properties":{"station_id":"n505751844","station_name":"Sungai Jernih","station_name_local":"KG33 Sungai Jernih","network":"Kajang Line","network_local":"Kajang Line","operator":"Rapid KL","city":"Kuala Lumpur","country":"Malaysia","lines":["9"],"wikidata":"Q22087874"},"geometry":{"type":"Point","coordinates":[101.7841249,3.0008386]}},{"type":"Feature","properties":{"station_id":"n505751845","station_name":"Stadium Kajang","station_name_local":"KG34 Stadium Kajang","network":"Kajang Line","network_local":"Kajang Line","operator":"Rapid KL","city":"Kuala Lumpur","country":"Malaysia","lines":["9"],"wikidata":"Q22087873"},"geometry":{"type":"Point","coordinates":[101.7861989,2.9940559]}},{"type":"Feature","properties":{"station_id":"n505751846","station_name":"Kajang","station_name_local":"KG35 Kajang","network":"Kajang Line","network_local":"Kajang Line","operator":"Rapid KL","city":"Kuala Lumpur","country":"Malaysia","lines":["9"],"wikidata":"Q6131737"},"geometry":{"type":"Point","coordinates":[101.7903287,2.9831036]}},{"type":"Feature","properties":{"station_id":"n570883634","station_name":"Bukit Bintang","station_name_local":"KG18A Bukit Bintang","network":"Kajang Line","network_local":"Kajang Line","operator":"Rapid KL","city":"Kuala Lumpur","country":"Malaysia","lines":["9"],"wikidata":"Q22087847"},"geometry":{"type":"Point","coordinates":[101.7108953,3.1464426]}},{"type":"Feature","properties":{"station_id":"n588168488","station_name":"National Museum","station_name_local":"KG15 Muzium Negara","network":"Kajang Line","network_local":"Kajang Line","operator":"Rapid KL","city":"Kuala Lumpur","country":"Malaysia","lines":["9"],"wikidata":"Q22087864"},"geometry":{"type":"Point","coordinates":[101.687336,3.1371348]}},{"type":"Feature","properties":{"station_id":"n760247735","station_name":"Cochrane","station_name_local":"KG21 Cochrane","network":"Kajang Line","network_local":"Kajang Line","operator":"Rapid KL","city":"Kuala Lumpur","country":"Malaysia","lines":["9"],"wikidata":"Q22087849"},"geometry":{"type":"Point","coordinates":[101.7230028,3.1324788]}},{"type":"Feature","properties":{"station_id":"n760247737","station_name":"Tun Razak Exchange","station_name_local":"KG20 PY23 Tun Razak Exchange","network":"Kajang Line;Putrajaya Line","network_local":"Kajang Line;Putrajaya Line","operator":"Rapid KL","city":"Kuala Lumpur","country":"Malaysia","lines":["9"],"wikidata":"Q22087884"},"geometry":{"type":"Point","coordinates":[101.7199624,3.1428078]}},{"type":"Feature","properties":{"station_id":"n769009409","station_name":"Kentonmen","station_name_local":"PY14 Kentonmen","network":"Putrajaya Line","network_local":"Putrajaya Line","operator":null,"city":"Kuala Lumpur","country":"Malaysia","lines":["12"],"wikidata":"Q24884399"},"geometry":{"type":"Point","coordinates":[101.6796063,3.195486]}},{"type":"Feature","properties":{"station_id":"n769009410","station_name":"Kampung Batu","station_name_local":"PY13 Kampung Batu","network":"Putrajaya Line","network_local":"Putrajaya Line","operator":"Rapid KL","city":"Kuala Lumpur","country":"Malaysia","lines":["12"],"wikidata":"Q6359403"},"geometry":{"type":"Point","coordinates":[101.6751322,3.2059992]}},{"type":"Feature","properties":{"station_id":"n769009411","station_name":"Sri Delima","station_name_local":"PY12 Sri Delima","network":"Putrajaya Line","network_local":"Putrajaya Line","operator":"Rapid KL","city":"Kuala Lumpur","country":"Malaysia","lines":["12"],"wikidata":null},"geometry":{"type":"Point","coordinates":[101.6655647,3.2072098]}},{"type":"Feature","properties":{"station_id":"n769009412","station_name":"Jinjang","station_name_local":"PY11 Jinjang","network":"Putrajaya Line","network_local":"Putrajaya Line","operator":"Rapid KL","city":"Kuala Lumpur","country":"Malaysia","lines":["12"],"wikidata":"Q24884377"},"geometry":{"type":"Point","coordinates":[101.655804,3.2095233]}},{"type":"Feature","properties":{"station_id":"n769009413","station_name":"Kepong Baru","station_name_local":"PY10 Kepong Baru","network":"Putrajaya Line","network_local":"Putrajaya Line","operator":"Rapid KL","city":"Kuala Lumpur","country":"Malaysia","lines":["12"],"wikidata":"Q24884373"},"geometry":{"type":"Point","coordinates":[101.6481916,3.2116797]}},{"type":"Feature","properties":{"station_id":"n769009414","station_name":"Metro Prima","station_name_local":"PY09 Metro Prima","network":"Putrajaya Line","network_local":"Putrajaya Line","operator":"Rapid KL","city":"Kuala Lumpur","country":"Malaysia","lines":["12"],"wikidata":"Q24884356"},"geometry":{"type":"Point","coordinates":[101.6403908,3.2145079]}},{"type":"Feature","properties":{"station_id":"n769009415","station_name":"Sri Damansara Timur","station_name_local":"PY08 Sri Damansara Timur","network":"Putrajaya Line","network_local":"Putrajaya Line","operator":"Rapid KL","city":"Kuala Lumpur","country":"Malaysia","lines":["12"],"wikidata":"Q108887917"},"geometry":{"type":"Point","coordinates":[101.6286151,3.2076245]}},{"type":"Feature","properties":{"station_id":"n769009416","station_name":"Sri Damansara Sentral","station_name_local":"PY07 Sri Damansara Sentral","network":"Putrajaya Line","network_local":"Putrajaya Line","operator":"Rapid KL","city":"Kuala Lumpur","country":"Malaysia","lines":["12"],"wikidata":"Q24884352"},"geometry":{"type":"Point","coordinates":[101.6211334,3.1985406]}},{"type":"Feature","properties":{"station_id":"n769009417","station_name":"Sri Damansara Barat","station_name_local":"PY06 Sri Damansara Barat","network":"Putrajaya Line","network_local":"Putrajaya Line","operator":"Rapid KL","city":"Kuala Lumpur","country":"Malaysia","lines":["12"],"wikidata":"Q24884334"},"geometry":{"type":"Point","coordinates":[101.6084105,3.1982289]}},{"type":"Feature","properties":{"station_id":"n769009418","station_name":"Damansara Damai","station_name_local":"PY05 Damansara Damai","network":"Putrajaya Line","network_local":"Putrajaya Line","operator":"Rapid KL","city":"Kuala Lumpur","country":"Malaysia","lines":["12"],"wikidata":"Q24884313"},"geometry":{"type":"Point","coordinates":[101.5929025,3.1997539]}},{"type":"Feature","properties":{"station_id":"n769010742","station_name":"Sentul West","station_name_local":"PY16 Sentul Barat","network":"Putrajaya Line","network_local":"Putrajaya Line","operator":null,"city":"Kuala Lumpur","country":"Malaysia","lines":["12"],"wikidata":"Q24884421"},"geometry":{"type":"Point","coordinates":[101.6851548,3.178947]}},{"type":"Feature","properties":{"station_id":"n769010743","station_name":"Jalan Ipoh","station_name_local":"PY15 Jalan Ipoh","network":"Putrajaya Line","network_local":"Putrajaya Line","operator":null,"city":"Kuala Lumpur","country":"Malaysia","lines":["12"],"wikidata":"Q24884414"},"geometry":{"type":"Point","coordinates":[101.6811225,3.1894108]}},{"type":"Feature","properties":{"station_id":"n793248731","station_name":"16 Sierra","station_name_local":"PY38 16 Sierra","network":"Putrajaya Line","network_local":"Putrajaya Line","operator":"Rapid KL","city":"Kuala Lumpur","country":"Malaysia","lines":["12"],"wikidata":"Q24884590"},"geometry":{"type":"Point","coordinates":[101.6548662,2.9652866]}},{"type":"Feature","properties":{"station_id":"n793248732","station_name":"Cyberjaya Utara","station_name_local":"PY39 Cyberjaya Utara","network":"Putrajaya Line","network_local":"Putrajaya Line","operator":"Rapid KL","city":"Kuala Lumpur","country":"Malaysia","lines":["12"],"wikidata":"Q24884593"},"geometry":{"type":"Point","coordinates":[101.6574916,2.9492344]}},{"type":"Feature","properties":{"station_id":"n944292856","station_name":"Cyberjaya City Centre","station_name_local":"PY40 Cyberjaya City Centre","network":"Putrajaya Line","network_local":"Putrajaya Line","operator":"Rapid KL","city":"Kuala Lumpur","country":"Malaysia","lines":["12"],"wikidata":"Q24884606"},"geometry":{"type":"Point","coordinates":[101.6656104,2.9389661]}},{"type":"Feature","properties":{"station_id":"n961422433","station_name":"Putrajaya Sentral","station_name_local":"PY41 Putrajaya Sentral","network":"Putrajaya Line","network_local":"Putrajaya Line","operator":"Rapid KL","city":"Kuala Lumpur","country":"Malaysia","lines":["12"],"wikidata":"Q4207481"},"geometry":{"type":"Point","coordinates":[101.6714742,2.931411]}},{"type":"Feature","properties":{"station_id":"n968011786","station_name":"UPM","station_name_local":"PY34 UPM","network":"Putrajaya Line","network_local":"Putrajaya Line","operator":"Rapid KL","city":"Kuala Lumpur","country":"Malaysia","lines":["12"],"wikidata":"Q24884536"},"geometry":{"type":"Point","coordinates":[101.705391,3.0084876]}},{"type":"Feature","properties":{"station_id":"n1009988054","station_name":"Taman Naga Emas","station_name_local":"PY28 Taman Naga Emas","network":"Putrajaya Line","network_local":"Putrajaya Line","operator":"Rapid KL","city":"Kuala Lumpur","country":"Malaysia","lines":["12"],"wikidata":"Q24884488"},"geometry":{"type":"Point","coordinates":[101.6995333,3.0777184]}},{"type":"Feature","properties":{"station_id":"n1015718345","station_name":"Serdang Raya South","station_name_local":"PY32 Serdang Raya Selatan","network":"Putrajaya Line","network_local":"Putrajaya Line","operator":"Rapid KL","city":"Kuala Lumpur","country":"Malaysia","lines":["12"],"wikidata":"Q24884520"},"geometry":{"type":"Point","coordinates":[101.7074978,3.0284811]}},{"type":"Feature","properties":{"station_id":"n1015718346","station_name":"Serdang Raya North","station_name_local":"PY31 Serdang Raya Utara","network":"Putrajaya Line","network_local":"Putrajaya Line","operator":"Rapid KL","city":"Kuala Lumpur","country":"Malaysia","lines":["12"],"wikidata":"Q24884511"},"geometry":{"type":"Point","coordinates":[101.7049109,3.041714]}},{"type":"Feature","properties":{"station_id":"n1017278295","station_name":"Serdang Jaya","station_name_local":"PY33 Serdang Jaya","network":"Putrajaya Line","network_local":"Putrajaya Line","operator":"Rapid KL","city":"Kuala Lumpur","country":"Malaysia","lines":["12"],"wikidata":"Q24884531"},"geometry":{"type":"Point","coordinates":[101.7089376,3.0215527]}},{"type":"Feature","properties":{"station_id":"n1029907179","station_name":"Kuchai","station_name_local":"PY27 Kuchai","network":"Putrajaya Line","network_local":"Putrajaya Line","operator":"Rapid KL","city":"Kuala Lumpur","country":"Malaysia","lines":["12"],"wikidata":"Q24884487"},"geometry":{"type":"Point","coordinates":[101.6940983,3.0895795]}},{"type":"Feature","properties":{"station_id":"n1030590791","station_name":"Dang Wangi","station_name_local":"KJ12 Dang Wangi","network":"Kelana Jaya Line","network_local":"Kelana Jaya Line","operator":"Rapid KL","city":"Kuala Lumpur","country":"Malaysia","lines":["KJ"],"wikidata":"Q1055068"},"geometry":{"type":"Point","coordinates":[101.7020271,3.1567089]}},{"type":"Feature","properties":{"station_id":"n1032033210","station_name":"Jambatan Kota","station_name_local":"Jambatan Kota","network":"Unknown","network_local":null,"operator":null,"city":"Kuala Lumpur","country":"Malaysia","lines":["11"],"wikidata":"Q108044319"},"geometry":{"type":"Point","coordinates":[101.4475905,3.0474967]}},{"type":"Feature","properties":{"station_id":"n1042089153","station_name":"Jalan Meru","station_name_local":"Jalan Meru","network":"Unknown","network_local":null,"operator":null,"city":"Kuala Lumpur","country":"Malaysia","lines":["11"],"wikidata":"Q64216418"},"geometry":{"type":"Point","coordinates":[101.4520586,3.0590562]}},{"type":"Feature","properties":{"station_id":"n1042089154","station_name":"Pasar Klang","station_name_local":"Pasar Klang","network":"Unknown","network_local":null,"operator":null,"city":"Kuala Lumpur","country":"Malaysia","lines":["11"],"wikidata":"Q108208093"},"geometry":{"type":"Point","coordinates":[101.4508514,3.0679426]}},{"type":"Feature","properties":{"station_id":"n1042091068","station_name":"Taman Selatan","station_name_local":"Taman Selatan","network":"Unknown","network_local":null,"operator":null,"city":"Kuala Lumpur","country":"Malaysia","lines":["11"],"wikidata":"Q108208191"},"geometry":{"type":"Point","coordinates":[101.4424127,3.0268489]}},{"type":"Feature","properties":{"station_id":"n1042094226","station_name":"Seri Andalas","station_name_local":"Seri Andalas","network":"Unknown","network_local":null,"operator":null,"city":"Kuala Lumpur","country":"Malaysia","lines":["11"],"wikidata":"Q64216419"},"geometry":{"type":"Point","coordinates":[101.4407521,3.0160406]}},{"type":"Feature","properties":{"station_id":"n1042094228","station_name":"Klang Jaya","station_name_local":"Klang Jaya","network":"Unknown","network_local":null,"operator":null,"city":"Kuala Lumpur","country":"Malaysia","lines":["11"],"wikidata":"Q21006103"},"geometry":{"type":"Point","coordinates":[101.4418385,3.0054382]}},{"type":"Feature","properties":{"station_id":"n1042094231","station_name":"Bandar Bukit Tinggi","station_name_local":"Bandar Bukit Tinggi","network":"Unknown","network_local":null,"operator":null,"city":"Kuala Lumpur","country":"Malaysia","lines":["11"],"wikidata":"Q20312414"},"geometry":{"type":"Point","coordinates":[101.4459257,2.9932582]}},{"type":"Feature","properties":{"station_id":"n1042094233","station_name":"Johan Setia","station_name_local":"Johan Setia","network":"Unknown","network_local":null,"operator":null,"city":"Kuala Lumpur","country":"Malaysia","lines":["11"],"wikidata":"Q20020437"},"geometry":{"type":"Point","coordinates":[101.4593532,2.9764189]}},{"type":"Feature","properties":{"station_id":"n1042094234","station_name":"Bandar Baru Klang","station_name_local":"Bandar Baru Klang","network":"Unknown","network_local":null,"operator":null,"city":"Kuala Lumpur","country":"Malaysia","lines":["11"],"wikidata":"Q108208197"},"geometry":{"type":"Point","coordinates":[101.4659295,3.0626799]}},{"type":"Feature","properties":{"station_id":"n1042094235","station_name":"Seksyen 7 Shah Alam","station_name_local":"Seksyen 7 Shah Alam","network":"Unknown","network_local":null,"operator":null,"city":"Kuala Lumpur","country":"Malaysia","lines":["11"],"wikidata":"Q30591651"},"geometry":{"type":"Point","coordinates":[101.4869681,3.0674606]}},{"type":"Feature","properties":{"station_id":"n1044627091","station_name":"UiTM Shah Alam","station_name_local":"UiTM Shah Alam","network":"Unknown","network_local":null,"operator":null,"city":"Kuala Lumpur","country":"Malaysia","lines":["11"],"wikidata":"Q27962728"},"geometry":{"type":"Point","coordinates":[101.5011692,3.0627923]}},{"type":"Feature","properties":{"station_id":"n1069157296","station_name":"Equine Park","station_name_local":"PY36 Taman Equine","network":"Putrajaya Line","network_local":"Putrajaya Line","operator":"Rapid KL","city":"Kuala Lumpur","country":"Malaysia","lines":["12"],"wikidata":"Q24884554"},"geometry":{"type":"Point","coordinates":[101.6725847,2.9893421]}},{"type":"Feature","properties":{"station_id":"n1069157299","station_name":"Putra Permai","station_name_local":"PY37 Putra Permai","network":"Putrajaya Line","network_local":"Putrajaya Line","operator":"Rapid KL","city":"Kuala Lumpur","country":"Malaysia","lines":["12"],"wikidata":null},"geometry":{"type":"Point","coordinates":[101.6605775,2.9831113]}},{"type":"Feature","properties":{"station_id":"n1119899987","station_name":"BU 11 (Bandar Utama 11)","station_name_local":"BU 11 (Bandar Utama 11)","network":"Unknown","network_local":null,"operator":null,"city":"Kuala Lumpur","country":"Malaysia","lines":["11"],"wikidata":null},"geometry":{"type":"Point","coordinates":[101.6046666,3.133444]}},{"type":"Feature","properties":{"station_id":"n1119899988","station_name":"Damansara Idaman","station_name_local":"Damansara Idaman","network":"Shah Alam Line","network_local":"Shah Alam Line","operator":"Rapid KL","city":"Kuala Lumpur","country":"Malaysia","lines":["11"],"wikidata":"Q24886573"},"geometry":{"type":"Point","coordinates":[101.5942514,3.1228459]}},{"type":"Feature","properties":{"station_id":"n1132948170","station_name":"Dato' Menteri","station_name_local":"Dato' Menteri","network":"Unknown","network_local":null,"operator":null,"city":"Kuala Lumpur","country":"Malaysia","lines":["11"],"wikidata":null},"geometry":{"type":"Point","coordinates":[101.5211731,3.0699341]}},{"type":"Feature","properties":{"station_id":"n1137540571","station_name":"Kayu Ara","station_name_local":"Kayu Ara","network":"Unknown","network_local":null,"operator":null,"city":"Kuala Lumpur","country":"Malaysia","lines":["11"],"wikidata":null},"geometry":{"type":"Point","coordinates":[101.6168038,3.1349122]}},{"type":"Feature","properties":{"station_id":"n1137540572","station_name":"Subang","station_name_local":"Subang","network":"Unknown","network_local":null,"operator":null,"city":"Kuala Lumpur","country":"Malaysia","lines":["11"],"wikidata":null},"geometry":{"type":"Point","coordinates":[101.5912411,3.1062359]}},{"type":"Feature","properties":{"station_id":"n1137540573","station_name":"Glenmarie 2","station_name_local":"Glenmarie 2","network":"Unknown","network_local":null,"operator":null,"city":"Kuala Lumpur","country":"Malaysia","lines":["11"],"wikidata":null},"geometry":{"type":"Point","coordinates":[101.5888022,3.0953344]}},{"type":"Feature","properties":{"station_id":"n1137540574","station_name":"Kerjaya","station_name_local":"Kerjaya","network":"Unknown","network_local":null,"operator":null,"city":"Kuala Lumpur","country":"Malaysia","lines":["11"],"wikidata":null},"geometry":{"type":"Point","coordinates":[101.5619748,3.0822888]}},{"type":"Feature","properties":{"station_id":"n1137540575","station_name":"Stadium Shah Alam","station_name_local":"Stadium Shah Alam","network":"Unknown","network_local":null,"operator":null,"city":"Kuala Lumpur","country":"Malaysia","lines":["11"],"wikidata":null},"geometry":{"type":"Point","coordinates":[101.5491189,3.0799569]}},{"type":"Feature","properties":{"station_id":"n1154972661","station_name":"Ampang Park","station_name_local":"PY20 Ampang Park","network":"Sungai Buloh-Serdang-Putrajaya Line","network_local":"Sungai Buloh-Serdang-Putrajaya Line","operator":"Rapid KL","city":"Kuala Lumpur","country":"Malaysia","lines":["12","KJ"],"wikidata":"Q1054301","merged_from":2},"geometry":{"type":"Point","coordinates":[101.7185224,3.1609217999999997]}},{"type":"Feature","properties":{"station_id":"n1154972677","station_name":"Persiaran KLCC","station_name_local":"PY21 Persiaran KLCC","network":"Putrajaya Line","network_local":"Putrajaya Line","operator":"Rapid KL","city":"Kuala Lumpur","country":"Malaysia","lines":["12"],"wikidata":"Q24884444"},"geometry":{"type":"Point","coordinates":[101.7180695,3.156847]}},{"type":"Feature","properties":{"station_id":"n1155023167","station_name":"Titiwangsa (MRT)","station_name_local":"PY17 Titiwangsa","network":"Putrajaya Line","network_local":"Putrajaya Line","operator":"Rapid KL","city":"Kuala Lumpur","country":"Malaysia","lines":["12"],"wikidata":"Q27144"},"geometry":{"type":"Point","coordinates":[101.6963008,3.1744534]}},{"type":"Feature","properties":{"station_id":"n1155023168","station_name":"Kuala Lumpur Hospital","station_name_local":"PY18 Hospital Kuala Lumpur","network":"Putrajaya Line","network_local":"Putrajaya Line","operator":"Rapid KL","city":"Kuala Lumpur","country":"Malaysia","lines":["12"],"wikidata":"Q24884423"},"geometry":{"type":"Point","coordinates":[101.7015271,3.1737807]}},{"type":"Feature","properties":{"station_id":"n1155023169","station_name":"Raja Uda","station_name_local":"PY19 Raja Uda","network":"Putrajaya Line","network_local":"Putrajaya Line","operator":"Rapid KL","city":"Kuala Lumpur","country":"Malaysia","lines":["12"],"wikidata":"Q24884430"},"geometry":{"type":"Point","coordinates":[101.711138,3.16785]}},{"type":"Feature","properties":{"station_id":"n1155023170","station_name":"Conlay","station_name_local":"PY22 Conlay","network":"Putrajaya Line","network_local":"Putrajaya Line","operator":"Rapid KL","city":"Kuala Lumpur","country":"Malaysia","lines":["12"],"wikidata":"Q24884457"},"geometry":{"type":"Point","coordinates":[101.7184028,3.150907]}}]}