{"type":"FeatureCollection","metro_system":{"continent":"asia","country":"Pakistan","city":"Lahore","osm_networks":["Lahore Metro","Unknown","لاہور میٹرو"],"operator":"Punjab Mass Transit Authority","official_website":null,"official_map":"https://en.wikipedia.org/wiki/Orange_Line_(Lahore_Metro)","wikidata":"Q18385578","line_count":1,"station_count":31},"features":[{"type":"Feature","properties":{"route_id":"rm11803501","route_name":"Orange Line: Ali Town ↔ Dera Gujran","route_name_local":"Orange Line: Ali Town ↔ Dera Gujran","route_ref":"O","route_color":"#f7943a","network":"Lahore Metro","network_local":"Lahore Metro","operator":"Punjab Mass Transit Authority","city":"Lahore","country":"Pakistan","wikidata":"Q18385578","wikipedia":"en:Orange Line (Lahore Metro)","osm_route_ids":[11803498,11803500]},"geometry":{"type":"MultiLineString","coordinates":[[[74.4313048,31.5897164],[74.4228382,31.5888576],[74.4130396,31.5878864],[74.4024323,31.5868398],[74.3892695,31.5853078],[74.3797391,31.5834526],[74.3707709,31.5794381],[74.360731,31.577301],[74.3507497,31.5757812],[74.3361417,31.5723251],[74.3271713,31.5686717],[74.3142438,31.5655383],[74.3093738,31.5624662],[74.3028855,31.5523688],[74.2952107,31.5449656],[74.2927788,31.5398208],[74.2875927,31.5322888],[74.283287,31.5247106],[74.2776103,31.517447],[74.2728156,31.510128],[74.2682636,31.503332],[74.2633224,31.4947145],[74.2583389,31.4863202],[74.2491949,31.4807577],[74.2417501,31.4736209],[74.243851,31.4643168]]]}},{"type":"Feature","properties":{"station_id":"n5752543097","station_name":"Anarkali","station_name_local":"انارکلی","network":"Lahore Metro","network_local":"Lahore Metro","operator":"Lahore Metro","city":"Lahore","country":"Pakistan","lines":["O"],"wikidata":null},"geometry":{"type":"Point","coordinates":[74.3093567,31.56248]}},{"type":"Feature","properties":{"station_id":"n5844879609","station_name":"Gulshan-e-Ravi","station_name_local":"گلشنِ راوی","network":"Lahore Metro","network_local":"Lahore Metro","operator":"Lahore Metro","city":"Lahore","country":"Pakistan","lines":["O"],"wikidata":null},"geometry":{"type":"Point","coordinates":[74.2952995,31.5448979]}},{"type":"Feature","properties":{"station_id":"n5844879610","station_name":"Samanabad","station_name_local":"سمن آباد","network":"Lahore Metro","network_local":"Lahore Metro","operator":"Lahore Metro","city":"Lahore","country":"Pakistan","lines":["O"],"wikidata":null},"geometry":{"type":"Point","coordinates":[74.2928181,31.5397538]}},{"type":"Feature","properties":{"station_id":"n5844879611","station_name":"Bund Road","station_name_local":"بند روڈ","network":"Lahore Metro","network_local":"Lahore Metro","operator":"Lahore Metro","city":"Lahore","country":"Pakistan","lines":["O"],"wikidata":null},"geometry":{"type":"Point","coordinates":[74.287648,31.5322399]}},{"type":"Feature","properties":{"station_id":"n5844883296","station_name":"Mahmood Booti","station_name_local":"محمود بوٹی","network":"Lahore Metro","network_local":"Lahore Metro","operator":"Lahore Metro","city":"Lahore","country":"Pakistan","lines":["O"],"wikidata":null},"geometry":{"type":"Point","coordinates":[74.4024351,31.5868291]}},{"type":"Feature","properties":{"station_id":"n5844883297","station_name":"Salamatpura","station_name_local":"سلامت پورہ","network":"Lahore Metro","network_local":"Lahore Metro","operator":"Lahore Metro","city":"Lahore","country":"Pakistan","lines":["O"],"wikidata":null},"geometry":{"type":"Point","coordinates":[74.4130374,31.587909]}},{"type":"Feature","properties":{"station_id":"n5844883298","station_name":"Islam Park","station_name_local":"اسلام پارک","network":"Lahore Metro","network_local":"Lahore Metro","operator":"Lahore Metro","city":"Lahore","country":"Pakistan","lines":["O"],"wikidata":null},"geometry":{"type":"Point","coordinates":[74.4228338,31.5888788]}},{"type":"Feature","properties":{"station_id":"n5844883299","station_name":"Dera Gujran","station_name_local":"ڈیرہ گجراں","network":"Lahore Metro","network_local":"Lahore Metro","operator":"Lahore Metro","city":"Lahore","country":"Pakistan","lines":["O"],"wikidata":null},"geometry":{"type":"Point","coordinates":[74.4313009,31.5897383]}},{"type":"Feature","properties":{"station_id":"n5844889650","station_name":"Ali Town","station_name_local":"علی ٹاؤن","network":"Lahore Metro","network_local":"Lahore Metro","operator":"Lahore Metro","city":"Lahore","country":"Pakistan","lines":["O"],"wikidata":null},"geometry":{"type":"Point","coordinates":[74.2438263,31.464321]}},{"type":"Feature","properties":{"station_id":"n5844889651","station_name":"Thokar Niaz Baig","station_name_local":"ٹھوکر نیاز بیگ","network":"Lahore Metro","network_local":"Lahore Metro","operator":"Lahore Metro","city":"Lahore","country":"Pakistan","lines":["O"],"wikidata":null},"geometry":{"type":"Point","coordinates":[74.2418249,31.4736422]}},{"type":"Feature","properties":{"station_id":"n5844889652","station_name":"Canal View","station_name_local":"کینال ویو","network":"Lahore Metro","network_local":"Lahore Metro","operator":"Lahore Metro","city":"Lahore","country":"Pakistan","lines":["O"],"wikidata":null},"geometry":{"type":"Point","coordinates":[74.249204,31.4806954]}},{"type":"Feature","properties":{"station_id":"n5844889653","station_name":"Hanjarwal","station_name_local":"ہنجروال","network":"Lahore Metro","network_local":"Lahore Metro","operator":"Lahore Metro","city":"Lahore","country":"Pakistan","lines":["O"],"wikidata":null},"geometry":{"type":"Point","coordinates":[74.2583504,31.4862956]}},{"type":"Feature","properties":{"station_id":"n5844889654","station_name":"Wahdat Road","station_name_local":"وحدت روڈ","network":"Lahore Metro","network_local":"Lahore Metro","operator":"Lahore Metro","city":"Lahore","country":"Pakistan","lines":["O"],"wikidata":null},"geometry":{"type":"Point","coordinates":[74.2633664,31.4946893]}},{"type":"Feature","properties":{"station_id":"n5844889655","station_name":"Awan Town","station_name_local":"اعوان ٹاؤن","network":"Lahore Metro","network_local":"Lahore Metro","operator":"Lahore Metro","city":"Lahore","country":"Pakistan","lines":["O"],"wikidata":null},"geometry":{"type":"Point","coordinates":[74.2682841,31.5033102]}},{"type":"Feature","properties":{"station_id":"n5844889656","station_name":"Sabzazar","station_name_local":"سبزہ زار","network":"Lahore Metro","network_local":"Lahore Metro","operator":"Lahore Metro","city":"Lahore","country":"Pakistan","lines":["O"],"wikidata":null},"geometry":{"type":"Point","coordinates":[74.2728442,31.5101229]}},{"type":"Feature","properties":{"station_id":"n5844889657","station_name":"Shahnoor","station_name_local":"شاہ نور","network":"Lahore Metro","network_local":"Lahore Metro","operator":"Lahore Metro","city":"Lahore","country":"Pakistan","lines":["O"],"wikidata":null},"geometry":{"type":"Point","coordinates":[74.2776467,31.517424]}},{"type":"Feature","properties":{"station_id":"n5844889658","station_name":"Salahudin Road","station_name_local":"صلاح الدین روڈ","network":"Lahore Metro","network_local":"Lahore Metro","operator":"Lahore Metro","city":"Lahore","country":"Pakistan","lines":["O"],"wikidata":null},"geometry":{"type":"Point","coordinates":[74.2833141,31.5245991]}},{"type":"Feature","properties":{"station_id":"n8058806340","station_name":"Baghbanpura","station_name_local":"باغبان پورہ","network":"Lahore Metro","network_local":"Lahore Metro","operator":"Lahore Metro","city":"Lahore","country":"Pakistan","lines":["O"],"wikidata":null},"geometry":{"type":"Point","coordinates":[74.3707828,31.5794163]}},{"type":"Feature","properties":{"station_id":"n8058806348","station_name":"U.E.T","station_name_local":"یو-ای-ٹی","network":"Lahore Metro","network_local":"Lahore Metro","operator":"Lahore Metro","city":"Lahore","country":"Pakistan","lines":["O"],"wikidata":null},"geometry":{"type":"Point","coordinates":[74.3608023,31.5772741]}},{"type":"Feature","properties":{"station_id":"n8058806350","station_name":"Sultanpura","station_name_local":"سلطان پورہ","network":"Lahore Metro","network_local":"Lahore Metro","operator":"Lahore Metro","city":"Lahore","country":"Pakistan","lines":["O"],"wikidata":null},"geometry":{"type":"Point","coordinates":[74.3507937,31.5757716]}},{"type":"Feature","properties":{"station_id":"n8058806356","station_name":"Railway Station","station_name_local":"ریلوے اسٹیشن","network":"Lahore Metro","network_local":"Lahore Metro","operator":"Lahore Metro","city":"Lahore","country":"Pakistan","lines":["O"],"wikidata":"Q107018763"},"geometry":{"type":"Point","coordinates":[74.3361528,31.5722982]}},{"type":"Feature","properties":{"station_id":"n8060376238","station_name":"Pakistan Mint Station","station_name_local":"پاکستان منٹ اسٹیشن","network":"Lahore Metro","network_local":"Lahore Metro","operator":"Lahore Metro","city":"Lahore","country":"Pakistan","lines":["O"],"wikidata":null},"geometry":{"type":"Point","coordinates":[74.3892579,31.5852835]}},{"type":"Feature","properties":{"station_id":"n8060376252","station_name":"Chauburji","station_name_local":"چوبرجی","network":"Lahore Metro","network_local":"Lahore Metro","operator":"Lahore Metro","city":"Lahore","country":"Pakistan","lines":["O"],"wikidata":null},"geometry":{"type":"Point","coordinates":[74.302941,31.5522961]}},{"type":"Feature","properties":{"station_id":"n9564940683","station_name":"Lakshmi","station_name_local":"لکشمی","network":"Lahore Metro","network_local":"Lahore Metro","operator":"Lahore Metro","city":"Lahore","country":"Pakistan","lines":["O"],"wikidata":"Q108689642"},"geometry":{"type":"Point","coordinates":[74.3272129,31.5686121]}},{"type":"Feature","properties":{"station_id":"n9564940684","station_name":"G.P.O","station_name_local":"جی-پی-او","network":"Lahore Metro","network_local":"Lahore Metro","operator":"Lahore Metro","city":"Lahore","country":"Pakistan","lines":["O"],"wikidata":"Q108689645"},"geometry":{"type":"Point","coordinates":[74.314236,31.5655542]}},{"type":"Feature","properties":{"station_id":"n606830411","station_name":"Anarkali Station - North Portal","station_name_local":"Anarkali Station - North Portal","network":"Lahore Metro","network_local":"Lahore Metro","operator":"Lahore Metro","city":"Lahore","country":"Pakistan","lines":["O"],"wikidata":null},"geometry":{"type":"Point","coordinates":[74.3096477,31.5627977]}},{"type":"Feature","properties":{"station_id":"n606830412","station_name":"Anarkali Station - South Portal","station_name_local":"Anarkali Station - South Portal","network":"Lahore Metro","network_local":"Lahore Metro","operator":"Lahore Metro","city":"Lahore","country":"Pakistan","lines":["O"],"wikidata":null},"geometry":{"type":"Point","coordinates":[74.3089905,31.5621574]}},{"type":"Feature","properties":{"station_id":"n611921782","station_name":"GPO","station_name_local":"جی پی او","network":"Unknown","network_local":null,"operator":null,"city":"Lahore","country":"Pakistan","lines":["O"],"wikidata":"Q108689645"},"geometry":{"type":"Point","coordinates":[74.3142457,31.5655549]}},{"type":"Feature","properties":{"station_id":"n611921783","station_name":"Anarkali","station_name_local":"Anarkali","network":"Lahore Metro","network_local":"Lahore Metro","operator":"Lahore Metro","city":"Lahore","country":"Pakistan","lines":["O"],"wikidata":null},"geometry":{"type":"Point","coordinates":[74.309333,31.5624809]}},{"type":"Feature","properties":{"station_id":"n611924568","station_name":"Shalimar Garden Station","station_name_local":"شالا مار باغ اسٹیشن","network":"لاہور میٹرو","network_local":"لاہور میٹرو","operator":"لاہور میٹرو","city":"Lahore","country":"Pakistan","lines":["O"],"wikidata":null},"geometry":{"type":"Point","coordinates":[74.3796995,31.5834603]}},{"type":"Feature","properties":{"station_id":"n611926128","station_name":"Chauburji","station_name_local":"Chauburji","network":"Lahore Metro","network_local":"Lahore Metro","operator":"Lahore Metro","city":"Lahore","country":"Pakistan","lines":["O"],"wikidata":null},"geometry":{"type":"Point","coordinates":[74.302779,31.5523541]}}]}