{"type":"FeatureCollection","metro_system":{"continent":"asia","country":"India","city":"Kanpur","osm_networks":["Kanpur Metro"],"operator":"Uttar Pradesh Metro Rail Corporation","official_website":null,"official_map":"https://en.wikipedia.org/wiki/Orange_Line_(Kanpur_Metro)","wikidata":"Q110419397","line_count":1,"station_count":14,"audit":{"strategies_tried":[],"passed":true,"checks":[{"id":"system_exists","ok":true,"detail":"matched OSM system systems/asia/india/asia-india-kanpur.geojson","level":"error"},{"id":"has_lines","ok":true,"detail":"1 lines","level":"error"},{"id":"has_stations","ok":true,"detail":"14 stations","level":"error"},{"id":"station_ratio","ok":true,"detail":"OSM 14 vs Wikipedia 14（比值 1.00）","level":"error"},{"id":"stations_have_lines","ok":true,"detail":"14/14 站皆有所屬路線","level":"error"},{"id":"stations_named","ok":true,"detail":"14/14 站有名稱","level":"warn"},{"id":"station_order","ok":true,"detail":"所有線路站序合理","level":"warn"}],"reasons":[],"warnings":[],"audited_at":"2026-07-10T07:56:59.699Z"}},"features":[{"type":"Feature","properties":{"route_id":"rm13615315","route_name":"Orange Line","route_name_local":"Orange Line","route_ref":"1","route_color":"#f58231","network":"Kanpur Metro","network_local":"Kanpur Metro","operator":"Uttar Pradesh Metro Rail Corporation","city":"Kanpur","country":"India","wikidata":"Q110419397","wikipedia":"en:Orange Line (Kanpur Metro)","osm_route_ids":[13615304,13615312]},"geometry":{"type":"MultiLineString","coordinates":[[[80.2482917,26.5091987],[80.2525473,26.5037165],[80.2588935,26.4988842],[80.2674265,26.4964288],[80.2843655,26.4915616],[80.292134,26.4869799],[80.3000741,26.4828454],[80.3115654,26.4792518],[80.3178927,26.4791115],[80.3370488,26.4770043],[80.3454375,26.4739966],[80.3523949,26.472671],[80.3594642,26.4641698],[80.3517807,26.4539113]]]}},{"type":"Feature","properties":{"station_id":"n7944298542","station_name":"Gurudev Chauraha","station_name_local":"Gurudev Chauraha","network":"Kanpur Metro","network_local":"Kanpur Metro","operator":"Uttar Pradesh Metro Rail Corporation","city":"Kanpur","country":"India","lines":["1"],"wikidata":"Q110300584"},"geometry":{"type":"Point","coordinates":[80.2843697,26.4915749]}},{"type":"Feature","properties":{"station_id":"n7944298553","station_name":"Bada Chauraha","station_name_local":"Bada Chauraha","network":"Kanpur Metro","network_local":"Kanpur Metro","operator":"Uttar Pradesh Metro Rail Corporation","city":"Kanpur","country":"India","lines":["1"],"wikidata":null},"geometry":{"type":"Point","coordinates":[80.3523972,26.4726897]}},{"type":"Feature","properties":{"station_id":"n7944298554","station_name":"Vishwavidyalaya","station_name_local":"Vishwavidyalaya","network":"Kanpur Metro","network_local":"Kanpur Metro","operator":"Uttar Pradesh Metro Rail Corporation","city":"Kanpur","country":"India","lines":["1"],"wikidata":"Q110300583"},"geometry":{"type":"Point","coordinates":[80.267272,26.496489]}},{"type":"Feature","properties":{"station_id":"n7944298567","station_name":"Rawatpur","station_name_local":"Rawatpur","network":"Kanpur Metro","network_local":"Kanpur Metro","operator":"Uttar Pradesh Metro Rail Corporation","city":"Kanpur","country":"India","lines":["1"],"wikidata":"Q110300586"},"geometry":{"type":"Point","coordinates":[80.3000734,26.4828664]}},{"type":"Feature","properties":{"station_id":"n7944298577","station_name":"Naveen Market","station_name_local":"Naveen Market","network":"Kanpur Metro","network_local":"Kanpur Metro","operator":"Uttar Pradesh Metro Rail Corporation","city":"Kanpur","country":"India","lines":["1"],"wikidata":null},"geometry":{"type":"Point","coordinates":[80.3454472,26.4740673]}},{"type":"Feature","properties":{"station_id":"n7944298578","station_name":"Geeta Nagar","station_name_local":"Geeta Nagar","network":"Kanpur Metro","network_local":"Kanpur Metro","operator":"Uttar Pradesh Metro Rail Corporation","city":"Kanpur","country":"India","lines":["1"],"wikidata":"Q110300585"},"geometry":{"type":"Point","coordinates":[80.2921052,26.4870224]}},{"type":"Feature","properties":{"station_id":"n7944298579","station_name":"SPM Hospital","station_name_local":"SPM Hospital","network":"Kanpur Metro","network_local":"Kanpur Metro","operator":"Uttar Pradesh Metro Rail Corporation","city":"Kanpur","country":"India","lines":["1"],"wikidata":"Q110300582"},"geometry":{"type":"Point","coordinates":[80.2589004,26.4988957]}},{"type":"Feature","properties":{"station_id":"n7944317792","station_name":"IIT Kanpur","station_name_local":"IIT Kanpur","network":"Kanpur Metro","network_local":"Kanpur Metro","operator":"Uttar Pradesh Metro Rail Corporation","city":"Kanpur","country":"India","lines":["1"],"wikidata":"Q110300579"},"geometry":{"type":"Point","coordinates":[80.2483111,26.5092071]}},{"type":"Feature","properties":{"station_id":"n7944317797","station_name":"Chunniganj","station_name_local":"Chunniganj","network":"Kanpur Metro","network_local":"Kanpur Metro","operator":"Uttar Pradesh Metro Rail Corporation","city":"Kanpur","country":"India","lines":["1"],"wikidata":null},"geometry":{"type":"Point","coordinates":[80.3370699,26.4770395]}},{"type":"Feature","properties":{"station_id":"n7944317804","station_name":"Nayaganj","station_name_local":"Nayaganj","network":"Kanpur Metro","network_local":"Kanpur Metro","operator":"Uttar Pradesh Metro Rail Corporation","city":"Kanpur","country":"India","lines":["1"],"wikidata":null},"geometry":{"type":"Point","coordinates":[80.3595041,26.4641599]}},{"type":"Feature","properties":{"station_id":"n7944317805","station_name":"LLR Hospital","station_name_local":"LLR Hospital","network":"Kanpur Metro","network_local":"Kanpur Metro","operator":"Uttar Pradesh Metro Rail Corporation","city":"Kanpur","country":"India","lines":["1"],"wikidata":"Q110300587"},"geometry":{"type":"Point","coordinates":[80.311601,26.4792656]}},{"type":"Feature","properties":{"station_id":"n12893756176","station_name":"Kalyanpur","station_name_local":"Kalyanpur","network":"Kanpur Metro","network_local":"Kanpur Metro","operator":"Uttar Pradesh Metro Rail Corporation","city":"Kanpur","country":"India","lines":["1"],"wikidata":null},"geometry":{"type":"Point","coordinates":[80.2525656,26.5037242]}},{"type":"Feature","properties":{"station_id":"n12893829305","station_name":"Moti Jheel","station_name_local":"Moti Jheel","network":"Kanpur Metro","network_local":"Kanpur Metro","operator":"Uttar Pradesh Metro Rail Corporation","city":"Kanpur","country":"India","lines":["1"],"wikidata":"Q110300588"},"geometry":{"type":"Point","coordinates":[80.3178935,26.4791286]}},{"type":"Feature","properties":{"station_id":"n12893829469","station_name":"Kanpur Central","station_name_local":"Kanpur Central","network":"Kanpur Metro","network_local":"Kanpur Metro","operator":"Uttar Pradesh Metro Rail Corporation","city":"Kanpur","country":"India","lines":["1"],"wikidata":null},"geometry":{"type":"Point","coordinates":[80.3517886,26.4538778]}}]}