{"type":"FeatureCollection","metro_system":{"continent":"asia","country":"India","city":"Bengaluru","osm_networks":["Namma Metro"],"operator":"BMRCL","official_website":null,"official_map":"https://en.wikipedia.org/wiki/Purple_Line_(Namma_Metro)","wikidata":"Q7261433","line_count":3,"station_count":83,"audit":{"strategies_tried":[],"passed":true,"checks":[{"id":"system_exists","ok":true,"detail":"matched OSM system systems/asia/india/asia-india-bengaluru.geojson","level":"error"},{"id":"has_lines","ok":true,"detail":"3 lines","level":"error"},{"id":"has_stations","ok":true,"detail":"83 stations","level":"error"},{"id":"station_ratio","ok":true,"detail":"OSM 83 vs Wikipedia 85（比值 0.98）","level":"error"},{"id":"stations_have_lines","ok":true,"detail":"83/83 站皆有所屬路線","level":"error"},{"id":"stations_named","ok":true,"detail":"83/83 站有名稱","level":"warn"},{"id":"station_order","ok":true,"detail":"所有線路站序合理","level":"warn"}],"reasons":[],"warnings":[],"audited_at":"2026-07-10T07:56:59.693Z"}},"features":[{"type":"Feature","properties":{"route_id":"rm7841332","route_name":"Purple Line (Whitefield (Kadugodi) ⇔ Challaghatta)","route_name_local":"Purple Line (Whitefield (Kadugodi) ⇔ Challaghatta)","route_ref":"Purple","route_color":"#e542de","network":"Namma Metro","network_local":"Namma Metro","operator":"BMRCL","city":"Bengaluru","country":"India","wikidata":"Q7261433","wikipedia":"en:Purple Line (Namma Metro)","osm_route_ids":[1798771,7841331,17038841,17038842]},"geometry":{"type":"MultiLineString","coordinates":[[[77.7578215,12.99519],[77.7538642,12.9872074],[77.7465715,12.9857936],[77.7372451,12.9875935],[77.7274963,12.9807354],[77.7243495,12.9766126],[77.715061,12.9776292],[77.7086129,12.9813697],[77.7118453,12.9891327],[77.7032966,12.9935165],[77.6921457,12.9966967],[77.6778421,12.9998836],[77.6684788,12.996496],[77.652392,12.9906745],[77.6449072,12.9859128],[77.6386592,12.9783079],[77.626705,12.9764915],[77.617013,12.9729953],[77.6062979,12.9756285],[77.597562,12.9808954],[77.5911088,12.9779727],[77.5842326,12.9745014],[77.5728057,12.9756704],[77.5653792,12.9758581],[77.5553564,12.975608],[77.5456189,12.9741737],[77.5374285,12.9709391],[77.5335932,12.9618581],[77.5370399,12.9520466],[77.5300896,12.9466619],[77.525127,12.9416608],[77.5196666,12.9366362],[77.5124194,12.935405],[77.4983713,12.9242399],[77.4878613,12.9146648],[77.4765871,12.9078971],[77.4612476,12.897289]],[[77.4612175,12.8973303],[77.4765748,12.9079284],[77.4878484,12.914711],[77.4983378,12.9242632],[77.5124016,12.9354476],[77.5196587,12.9366736],[77.5251045,12.9416831],[77.5300705,12.9467026],[77.5369961,12.9520333],[77.5335505,12.9618745],[77.5373851,12.9709537],[77.5456182,12.9742184],[77.5553548,12.9756527],[77.5653744,12.9759026],[77.5730887,12.9757512],[77.584209,12.9745398],[77.591831,12.978996],[77.5975758,12.9809794],[77.6072648,12.9754288],[77.6170235,12.9730388],[77.626667,12.9765165],[77.638658,12.9783526],[77.6448902,12.9859543],[77.6523733,12.9907136],[77.6684581,12.9965359],[77.6779104,12.9999402],[77.6930464,12.9964536],[77.7041125,12.9933397],[77.7109265,12.9885448],[77.7088952,12.980531],[77.7160828,12.9775256],[77.7253457,12.9765754],[77.7276627,12.9817149],[77.7383542,12.987637],[77.747537,12.9854806],[77.7539652,12.9875337],[77.7579756,12.9959639]]]}},{"type":"Feature","properties":{"route_id":"rm7842288","route_name":"Green Line (Madavara ⇔ Silk Institute)","route_name_local":"Green Line (Madavara ⇔ Silk Institute)","route_ref":"Green","route_color":"#009933","network":"Namma Metro","network_local":"Namma Metro","operator":"BMRCL","city":"Bengaluru","country":"India","wikidata":"Q17054000","wikipedia":"en:Green Line (Namma Metro)","osm_route_ids":[1798772,7842287,16176489,16176490]},"geometry":{"type":"MultiLineString","coordinates":[[[77.5299083,12.8616919],[77.5383625,12.8714243],[77.544745,12.8775389],[77.552751,12.8846862],[77.5626569,12.8889872],[77.5700982,12.8960662],[77.5731076,12.907476],[77.5735786,12.9152242],[77.5802479,12.9213321],[77.580123,12.9295065],[77.5800349,12.9382617],[77.5799954,12.9465339],[77.5736697,12.9505263],[77.5746404,12.960896],[77.5745314,12.9669249],[77.5728675,12.9759557],[77.5706929,12.9904282],[77.5632993,12.9964948],[77.5568746,12.9984697],[77.5496166,13.0005232],[77.5487834,13.0080774],[77.5539915,13.0147178],[77.5497052,13.0232981],[77.5404372,13.028613],[77.5331801,13.0329814],[77.5254867,13.0362716],[77.5197223,13.0393735],[77.5125345,13.0432196],[77.5001342,13.0479383],[77.4944407,13.0500685],[77.4879101,13.0523412],[77.4728018,13.0574004]]]}},{"type":"Feature","properties":{"route_id":"rm14938553","route_name":"Yellow Line (Rashtreeya Vidyalaya Road ⇔ Delta Electronics Bommasandra)","route_name_local":"Yellow Line (Rashtreeya Vidyalaya Road ⇔ Delta Electronics Bommasandra)","route_ref":"Yellow","route_color":"#ffe119","network":"Namma Metro","network_local":"Namma Metro","operator":"BMRCL","city":"Bengaluru","country":"India","wikidata":"Q39071595","wikipedia":"en:Yellow Line (Namma Metro)","osm_route_ids":[19421927,19421944]},"geometry":{"type":"MultiLineString","coordinates":[[[77.6879957,12.8197552],[77.6812303,12.8294441],[77.6771361,12.839432],[77.6709184,12.8467985],[77.6632379,12.8567984],[77.6575832,12.8642294],[77.6521471,12.8710849],[77.6446126,12.8811794],[77.6389484,12.8903178],[77.6316985,12.9021241],[77.6261256,12.9111955],[77.620117,12.9164026],[77.6076327,12.916573],[77.5997303,12.9167282],[77.5877835,12.9170748],[77.5800478,12.92186]],[[77.5800946,12.9209601],[77.588698,12.9170892],[77.6004425,12.9167643],[77.6086222,12.916598],[77.6210257,12.9167339],[77.6267043,12.910304],[77.6322415,12.9013317],[77.63947,12.8895614],[77.6451067,12.8804315],[77.6527461,12.8703997],[77.6581956,12.8635659],[77.6637352,12.8562795],[77.6714519,12.8460892],[77.6777338,12.8387166],[77.6815497,12.8285866],[77.688657,12.8190878]]]}},{"type":"Feature","properties":{"station_id":"n1576973953","station_name":"Madavara","station_name_local":"Madavara","network":"Namma Metro","network_local":"Namma Metro","operator":"Bangalore Metro Rail Corporation Limited","city":"Bengaluru","country":"India","lines":["Green"],"wikidata":"Q122143705"},"geometry":{"type":"Point","coordinates":[77.4728055,13.0574214]}},{"type":"Feature","properties":{"station_id":"n1576973954","station_name":"Chikkabidarakallu","station_name_local":"Chikkabidarakallu","network":"Namma Metro","network_local":"Namma Metro","operator":"Bangalore Metro Rail Corporation Limited","city":"Bengaluru","country":"India","lines":["Green"],"wikidata":"Q122143708"},"geometry":{"type":"Point","coordinates":[77.4879154,13.0523616]}},{"type":"Feature","properties":{"station_id":"n1576973980","station_name":"Manjunathanagara","station_name_local":"Manjunathanagara","network":"Namma Metro","network_local":"Namma Metro","operator":"Bangalore Metro Rail Corporation Limited","city":"Bengaluru","country":"India","lines":["Green"],"wikidata":"Q122143726"},"geometry":{"type":"Point","coordinates":[77.4944461,13.0500898]}},{"type":"Feature","properties":{"station_id":"n3302642058","station_name":"Jayadeva Hospital","station_name_local":"Jayadeva Hospital","network":"Namma Metro","network_local":"Namma Metro","operator":"Bangalore Metro Rail Corporation Limited","city":"Bengaluru","country":"India","lines":["Yellow"],"wikidata":null},"geometry":{"type":"Point","coordinates":[77.5999663,12.916731]}},{"type":"Feature","properties":{"station_id":"n4548694596","station_name":"Benniganahalli","station_name_local":"Benniganahalli","network":"Namma Metro","network_local":"Namma Metro","operator":"Bangalore Metro Rail Corporation Limited","city":"Bengaluru","country":"India","lines":["Purple"],"wikidata":null,"merged_from":3},"geometry":{"type":"Point","coordinates":[77.66846626666667,12.996515899999999]}},{"type":"Feature","properties":{"station_id":"n5760197744","station_name":"Whitefield (Kadugodi)","station_name_local":"Whitefield (Kadugodi)","network":"Namma Metro","network_local":"Namma Metro","operator":"Bangalore Metro Rail Corporation Limited","city":"Bengaluru","country":"India","lines":["Purple"],"wikidata":"Q112683422"},"geometry":{"type":"Point","coordinates":[77.7579489,12.9957428]}},{"type":"Feature","properties":{"station_id":"n5760197745","station_name":"Hopefarm Channasandra","station_name_local":"Hopefarm Channasandra","network":"Namma Metro","network_local":"Namma Metro","operator":"Bangalore Metro Rail Corporation Limited","city":"Bengaluru","country":"India","lines":["Purple"],"wikidata":null},"geometry":{"type":"Point","coordinates":[77.7538033,12.9873426]}},{"type":"Feature","properties":{"station_id":"n5760197749","station_name":"Pattandur Agrahara","station_name_local":"Pattandur Agrahara","network":"Namma Metro","network_local":"Namma Metro","operator":"Bangalore Metro Rail Corporation Limited","city":"Bengaluru","country":"India","lines":["Purple"],"wikidata":null},"geometry":{"type":"Point","coordinates":[77.7377718,12.9876393]}},{"type":"Feature","properties":{"station_id":"n5760197751","station_name":"Sri Sathya Sai Hospital","station_name_local":"Sri Sathya Sai Hospital","network":"Namma Metro","network_local":"Namma Metro","operator":"Bangalore Metro Rail Corporation Limited","city":"Bengaluru","country":"India","lines":["Purple"],"wikidata":null},"geometry":{"type":"Point","coordinates":[77.7275361,12.9811949]}},{"type":"Feature","properties":{"station_id":"n5760197754","station_name":"Nallurahalli","station_name_local":"Nallurahalli","network":"Namma Metro","network_local":"Namma Metro","operator":"Bangalore Metro Rail Corporation Limited","city":"Bengaluru","country":"India","lines":["Purple"],"wikidata":null},"geometry":{"type":"Point","coordinates":[77.7248845,12.9766408]}},{"type":"Feature","properties":{"station_id":"n5760197755","station_name":"Kundalahalli","station_name_local":"Kundalahalli","network":"Namma Metro","network_local":"Namma Metro","operator":"Bangalore Metro Rail Corporation Limited","city":"Bengaluru","country":"India","lines":["Purple"],"wikidata":null},"geometry":{"type":"Point","coordinates":[77.7155586,12.977594]}},{"type":"Feature","properties":{"station_id":"n5760197757","station_name":"Seetharampalya","station_name_local":"Seetharampalya","network":"Namma Metro","network_local":"Namma Metro","operator":"Bangalore Metro Rail Corporation Limited","city":"Bengaluru","country":"India","lines":["Purple"],"wikidata":null},"geometry":{"type":"Point","coordinates":[77.7087854,12.9808558]}},{"type":"Feature","properties":{"station_id":"n5760197761","station_name":"Hoodi","station_name_local":"Hoodi","network":"Namma Metro","network_local":"Namma Metro","operator":"Bangalore Metro Rail Corporation Limited","city":"Bengaluru","country":"India","lines":["Purple"],"wikidata":null},"geometry":{"type":"Point","coordinates":[77.711326,12.9888029]}},{"type":"Feature","properties":{"station_id":"n5760197762","station_name":"Garudacharpalya","station_name_local":"Garudacharpalya","network":"Namma Metro","network_local":"Namma Metro","operator":"Bangalore Metro Rail Corporation Limited","city":"Bengaluru","country":"India","lines":["Purple"],"wikidata":null},"geometry":{"type":"Point","coordinates":[77.7036768,12.9934505]}},{"type":"Feature","properties":{"station_id":"n5760197764","station_name":"Singayyanapalya","station_name_local":"Singayyanapalya","network":"Namma Metro","network_local":"Namma Metro","operator":"Bangalore Metro Rail Corporation Limited","city":"Bengaluru","country":"India","lines":["Purple"],"wikidata":"Q112683430"},"geometry":{"type":"Point","coordinates":[77.6927176,12.9965445]}},{"type":"Feature","properties":{"station_id":"n5760197765","station_name":"Krishnarajapura","station_name_local":"Krishnarajapura","network":"Namma Metro","network_local":"Namma Metro","operator":"Bangalore Metro Rail Corporation Limited","city":"Bengaluru","country":"India","lines":["Purple"],"wikidata":"Q112683488"},"geometry":{"type":"Point","coordinates":[77.6776703,12.9999024]}},{"type":"Feature","properties":{"station_id":"n5760197806","station_name":"Delta Electronics Bommasandra","station_name_local":"Delta Electronics Bommasandra","network":"Namma Metro","network_local":"Namma Metro","operator":"Bangalore Metro Rail Corporation Limited","city":"Bengaluru","country":"India","lines":["Yellow"],"wikidata":null},"geometry":{"type":"Point","coordinates":[77.6883453,12.8193944]}},{"type":"Feature","properties":{"station_id":"n5760198122","station_name":"Huskur Road","station_name_local":"Huskur Road","network":"Namma Metro","network_local":"Namma Metro","operator":"Bangalore Metro Rail Corporation Limited","city":"Bengaluru","country":"India","lines":["Yellow"],"wikidata":null},"geometry":{"type":"Point","coordinates":[77.6773716,12.8391572]}},{"type":"Feature","properties":{"station_id":"n5760198133","station_name":"Infosys Foundation Konappana Agrahara","station_name_local":"Infosys Foundation Konappana Agrahara","network":"Namma Metro","network_local":"Namma Metro","operator":"Bangalore Metro Rail Corporation Limited","city":"Bengaluru","country":"India","lines":["Yellow"],"wikidata":null},"geometry":{"type":"Point","coordinates":[77.6711655,12.8464134]}},{"type":"Feature","properties":{"station_id":"n5760198145","station_name":"Electronic City","station_name_local":"Electronic City","network":"Namma Metro","network_local":"Namma Metro","operator":"Bangalore Metro Rail Corporation Limited","city":"Bengaluru","country":"India","lines":["Yellow"],"wikidata":null},"geometry":{"type":"Point","coordinates":[77.6635228,12.8565053]}},{"type":"Feature","properties":{"station_id":"n5760198153","station_name":"Beratena Agrahara","station_name_local":"Beratena Agrahara","network":"Namma Metro","network_local":"Namma Metro","operator":"Bangalore Metro Rail Corporation Limited","city":"Bengaluru","country":"India","lines":["Yellow"],"wikidata":null},"geometry":{"type":"Point","coordinates":[77.6578624,12.8638665]}},{"type":"Feature","properties":{"station_id":"n5760198162","station_name":"Hosa Road","station_name_local":"Hosa Road","network":"Namma Metro","network_local":"Namma Metro","operator":"Bangalore Metro Rail Corporation Limited","city":"Bengaluru","country":"India","lines":["Yellow"],"wikidata":null},"geometry":{"type":"Point","coordinates":[77.652447,12.8707491]}},{"type":"Feature","properties":{"station_id":"n5760198182","station_name":"Singasandra","station_name_local":"Singasandra","network":"Namma Metro","network_local":"Namma Metro","operator":"Bangalore Metro Rail Corporation Limited","city":"Bengaluru","country":"India","lines":["Yellow"],"wikidata":null},"geometry":{"type":"Point","coordinates":[77.6448456,12.8808178]}},{"type":"Feature","properties":{"station_id":"n5760198187","station_name":"Kudlu Gate","station_name_local":"Kudlu Gate","network":"Namma Metro","network_local":"Namma Metro","operator":"Bangalore Metro Rail Corporation Limited","city":"Bengaluru","country":"India","lines":["Yellow"],"wikidata":null},"geometry":{"type":"Point","coordinates":[77.6392156,12.8899259]}},{"type":"Feature","properties":{"station_id":"n5760198198","station_name":"Hongasandra","station_name_local":"Hongasandra","network":"Namma Metro","network_local":"Namma Metro","operator":"Bangalore Metro Rail Corporation Limited","city":"Bengaluru","country":"India","lines":["Yellow"],"wikidata":null},"geometry":{"type":"Point","coordinates":[77.6319861,12.9016952]}},{"type":"Feature","properties":{"station_id":"n5760198202","station_name":"Bommanahalli","station_name_local":"Bommanahalli","network":"Namma Metro","network_local":"Namma Metro","operator":"Bangalore Metro Rail Corporation Limited","city":"Bengaluru","country":"India","lines":["Yellow"],"wikidata":null},"geometry":{"type":"Point","coordinates":[77.6264782,12.9106157]}},{"type":"Feature","properties":{"station_id":"n5760198212","station_name":"Central Silk Board","station_name_local":"Central Silk Board","network":"Namma Metro","network_local":"Namma Metro","operator":"Bangalore Metro Rail Corporation Limited","city":"Bengaluru","country":"India","lines":["Yellow"],"wikidata":null},"geometry":{"type":"Point","coordinates":[77.620567,12.9165816]}},{"type":"Feature","properties":{"station_id":"n5760198226","station_name":"BTM Layout","station_name_local":"BTM Layout","network":"Namma Metro","network_local":"Namma Metro","operator":"Bangalore Metro Rail Corporation Limited","city":"Bengaluru","country":"India","lines":["Yellow"],"wikidata":null},"geometry":{"type":"Point","coordinates":[77.6081182,12.9165878]}},{"type":"Feature","properties":{"station_id":"n5760198239","station_name":"Ragigudda","station_name_local":"Ragigudda","network":"Namma Metro","network_local":"Namma Metro","operator":"Bangalore Metro Rail Corporation Limited","city":"Bengaluru","country":"India","lines":["Yellow"],"wikidata":null},"geometry":{"type":"Point","coordinates":[77.5883015,12.9170807]}},{"type":"Feature","properties":{"station_id":"n5960788724","station_name":"Dasarahalli","station_name_local":"Dasarahalli","network":"Namma Metro","network_local":"Namma Metro","operator":"Bangalore Metro Rail Corporation Limited","city":"Bengaluru","country":"India","lines":["Green"],"wikidata":null},"geometry":{"type":"Point","coordinates":[77.5125535,13.0432607]}},{"type":"Feature","properties":{"station_id":"n5960788725","station_name":"Jalahalli","station_name_local":"Jalahalli","network":"Namma Metro","network_local":"Namma Metro","operator":"Bangalore Metro Rail Corporation Limited","city":"Bengaluru","country":"India","lines":["Green"],"wikidata":"Q30647031"},"geometry":{"type":"Point","coordinates":[77.5197351,13.0394104]}},{"type":"Feature","properties":{"station_id":"n5960788726","station_name":"Srirampura","station_name_local":"Srirampura","network":"Namma Metro","network_local":"Namma Metro","operator":"Bangalore Metro Rail Corporation Limited","city":"Bengaluru","country":"India","lines":["Green"],"wikidata":null},"geometry":{"type":"Point","coordinates":[77.5631963,12.9965253]}},{"type":"Feature","properties":{"station_id":"n6400857549","station_name":"Baiyappanahalli","station_name_local":"Baiyappanahalli","network":"Namma Metro","network_local":"Namma Metro","operator":"Bangalore Metro Rail Corporation Limited","city":"Bengaluru","country":"India","lines":["Purple"],"wikidata":null},"geometry":{"type":"Point","coordinates":[77.6523612,12.9907594]}},{"type":"Feature","properties":{"station_id":"n6400857550","station_name":"Swami Vivekananda Road","station_name_local":"Swami Vivekananda Road","network":"Namma Metro","network_local":"Namma Metro","operator":"Bangalore Metro Rail Corporation Limited","city":"Bengaluru","country":"India","lines":["Purple"],"wikidata":null},"geometry":{"type":"Point","coordinates":[77.644897,12.9859306]}},{"type":"Feature","properties":{"station_id":"n6400857551","station_name":"Indiranagar","station_name_local":"Indiranagar","network":"Namma Metro","network_local":"Namma Metro","operator":"Bangalore Metro Rail Corporation Limited","city":"Bengaluru","country":"India","lines":["Purple"],"wikidata":null},"geometry":{"type":"Point","coordinates":[77.6386612,12.9783325]}},{"type":"Feature","properties":{"station_id":"n6400857552","station_name":"Halasuru","station_name_local":"Halasuru","network":"Namma Metro","network_local":"Namma Metro","operator":"Bangalore Metro Rail Corporation Limited","city":"Bengaluru","country":"India","lines":["Purple"],"wikidata":null},"geometry":{"type":"Point","coordinates":[77.626686,12.9764992]}},{"type":"Feature","properties":{"station_id":"n6400857553","station_name":"Trinity","station_name_local":"Trinity","network":"Namma Metro","network_local":"Namma Metro","operator":"Bangalore Metro Rail Corporation Limited","city":"Bengaluru","country":"India","lines":["Purple"],"wikidata":null},"geometry":{"type":"Point","coordinates":[77.6170205,12.9730218]}},{"type":"Feature","properties":{"station_id":"n6400857554","station_name":"Mahatma Gandhi Road","station_name_local":"Mahatma Gandhi Road","network":"Namma Metro","network_local":"Namma Metro","operator":"Bangalore Metro Rail Corporation Limited","city":"Bengaluru","country":"India","lines":["Purple"],"wikidata":"Q5539354"},"geometry":{"type":"Point","coordinates":[77.6067902,12.9755264]}},{"type":"Feature","properties":{"station_id":"n6400857555","station_name":"Cubbon Park","station_name_local":"Cubbon Park","network":"Namma Metro","network_local":"Namma Metro","operator":"Bangalore Metro Rail Corporation Limited","city":"Bengaluru","country":"India","lines":["Purple"],"wikidata":null},"geometry":{"type":"Point","coordinates":[77.5975756,12.9809575]}},{"type":"Feature","properties":{"station_id":"n6400857556","station_name":"Dr. B. R. Ambedkar Station, Vidhana Soudha","station_name_local":"Dr. B. R. Ambedkar Station, Vidhana Soudha","network":"Namma Metro","network_local":"Namma Metro","operator":"Bangalore Metro Rail Corporation Limited","city":"Bengaluru","country":"India","lines":["Purple"],"wikidata":null},"geometry":{"type":"Point","coordinates":[77.5916385,12.9787419]}},{"type":"Feature","properties":{"station_id":"n6400857557","station_name":"Sir M. Visvesvaraya Stn., Central College","station_name_local":"Sir M. Visvesvaraya Stn., Central College","network":"Namma Metro","network_local":"Namma Metro","operator":"Bangalore Metro Rail Corporation Limited","city":"Bengaluru","country":"India","lines":["Purple"],"wikidata":null},"geometry":{"type":"Point","coordinates":[77.58422,12.9745197]}},{"type":"Feature","properties":{"station_id":"n6400857558","station_name":"Nadaprabhu Kempegowda Station, Majestic","station_name_local":"Nadaprabhu Kempegowda Station, Majestic","network":"Namma Metro","network_local":"Namma Metro","operator":"Bangalore Metro Rail Corporation Limited","city":"Bengaluru","country":"India","lines":["Purple"],"wikidata":"Q6737727"},"geometry":{"type":"Point","coordinates":[77.5728757,12.9757079]}},{"type":"Feature","properties":{"station_id":"n6400857559","station_name":"Krantivira Sangolli Rayanna Railway Station","station_name_local":"Krantivira Sangolli Rayanna Railway Station","network":"Namma Metro","network_local":"Namma Metro","operator":"Bangalore Metro Rail Corporation Limited","city":"Bengaluru","country":"India","lines":["Purple"],"wikidata":null},"geometry":{"type":"Point","coordinates":[77.5653767,12.9758768]}},{"type":"Feature","properties":{"station_id":"n6400857560","station_name":"Magadi Road","station_name_local":"Magadi Road","network":"Namma Metro","network_local":"Namma Metro","operator":"Bangalore Metro Rail Corporation Limited","city":"Bengaluru","country":"India","lines":["Purple"],"wikidata":null},"geometry":{"type":"Point","coordinates":[77.5553523,12.975632]}},{"type":"Feature","properties":{"station_id":"n6400857561","station_name":"Sri Balagangadharanatha Swamiji Station, Hosahalli","station_name_local":"Sri Balagangadharanatha Swamiji Station, Hosahalli","network":"Namma Metro","network_local":"Namma Metro","operator":"Bangalore Metro Rail Corporation Limited","city":"Bengaluru","country":"India","lines":["Purple"],"wikidata":null},"geometry":{"type":"Point","coordinates":[77.5456215,12.9742933]}},{"type":"Feature","properties":{"station_id":"n6400857562","station_name":"Vijayanagar","station_name_local":"Vijayanagar","network":"Namma Metro","network_local":"Namma Metro","operator":"Bangalore Metro Rail Corporation Limited","city":"Bengaluru","country":"India","lines":["Purple"],"wikidata":null},"geometry":{"type":"Point","coordinates":[77.5374044,12.9709559]}},{"type":"Feature","properties":{"station_id":"n6400857563","station_name":"Attiguppe","station_name_local":"Attiguppe","network":"Namma Metro","network_local":"Namma Metro","operator":"Bangalore Metro Rail Corporation Limited","city":"Bengaluru","country":"India","lines":["Purple"],"wikidata":null},"geometry":{"type":"Point","coordinates":[77.5335788,12.9618931]}},{"type":"Feature","properties":{"station_id":"n6400857564","station_name":"Deepanjali Nagar","station_name_local":"Deepanjali Nagar","network":"Namma Metro","network_local":"Namma Metro","operator":"Bangalore Metro Rail Corporation Limited","city":"Bengaluru","country":"India","lines":["Purple"],"wikidata":null},"geometry":{"type":"Point","coordinates":[77.5370122,12.9520578]}},{"type":"Feature","properties":{"station_id":"n6400857565","station_name":"Mysore Road","station_name_local":"Mysore Road","network":"Namma Metro","network_local":"Namma Metro","operator":"Bangalore Metro Rail Corporation Limited","city":"Bengaluru","country":"India","lines":["Purple"],"wikidata":null},"geometry":{"type":"Point","coordinates":[77.5301588,12.9467183]}},{"type":"Feature","properties":{"station_id":"n6410706688","station_name":"Mantri Square Sampige Road","station_name_local":"Mantri Square Sampige Road","network":"Namma Metro","network_local":"Namma Metro","operator":"Bangalore Metro Rail Corporation Limited","city":"Bengaluru","country":"India","lines":["Green"],"wikidata":null},"geometry":{"type":"Point","coordinates":[77.5707293,12.9904629]}},{"type":"Feature","properties":{"station_id":"n6410706689","station_name":"Mahakavi Kuvempu Road","station_name_local":"Mahakavi Kuvempu Road","network":"Namma Metro","network_local":"Namma Metro","operator":"Bangalore Metro Rail Corporation Limited","city":"Bengaluru","country":"India","lines":["Green"],"wikidata":null},"geometry":{"type":"Point","coordinates":[77.5568986,12.9985297]}},{"type":"Feature","properties":{"station_id":"n6410706690","station_name":"Rajajinagar","station_name_local":"Rajajinagar","network":"Namma Metro","network_local":"Namma Metro","operator":"Bangalore Metro Rail Corporation Limited","city":"Bengaluru","country":"India","lines":["Green"],"wikidata":null},"geometry":{"type":"Point","coordinates":[77.5496568,13.0005247]}},{"type":"Feature","properties":{"station_id":"n6410706691","station_name":"Mahalakshmi","station_name_local":"Mahalakshmi","network":"Namma Metro","network_local":"Namma Metro","operator":"Bangalore Metro Rail Corporation Limited","city":"Bengaluru","country":"India","lines":["Green"],"wikidata":null},"geometry":{"type":"Point","coordinates":[77.5488066,13.0080475]}},{"type":"Feature","properties":{"station_id":"n6410706692","station_name":"Sandal Soap Factory","station_name_local":"Sandal Soap Factory","network":"Namma Metro","network_local":"Namma Metro","operator":"Bangalore Metro Rail Corporation Limited","city":"Bengaluru","country":"India","lines":["Green"],"wikidata":null},"geometry":{"type":"Point","coordinates":[77.5539839,13.0146544]}},{"type":"Feature","properties":{"station_id":"n6410706695","station_name":"Peenya","station_name_local":"Peenya","network":"Namma Metro","network_local":"Namma Metro","operator":"Bangalore Metro Rail Corporation Limited","city":"Bengaluru","country":"India","lines":["Green"],"wikidata":null},"geometry":{"type":"Point","coordinates":[77.533201,13.0330189]}},{"type":"Feature","properties":{"station_id":"n6410706696","station_name":"Peenya Industry","station_name_local":"Peenya Industry","network":"Namma Metro","network_local":"Namma Metro","operator":"Bangalore Metro Rail Corporation Limited","city":"Bengaluru","country":"India","lines":["Green"],"wikidata":null},"geometry":{"type":"Point","coordinates":[77.5254924,13.0363176]}},{"type":"Feature","properties":{"station_id":"n6432710292","station_name":"Yelachenahalli","station_name_local":"Yelachenahalli","network":"Namma Metro","network_local":"Namma Metro","operator":"Bangalore Metro Rail Corporation Limited","city":"Bengaluru","country":"India","lines":["Green"],"wikidata":null},"geometry":{"type":"Point","coordinates":[77.5701194,12.8960498]}},{"type":"Feature","properties":{"station_id":"n6432710293","station_name":"Jaya Prakash Nagar","station_name_local":"Jaya Prakash Nagar","network":"Namma Metro","network_local":"Namma Metro","operator":"Bangalore Metro Rail Corporation Limited","city":"Bengaluru","country":"India","lines":["Green"],"wikidata":null},"geometry":{"type":"Point","coordinates":[77.5731279,12.9074747]}},{"type":"Feature","properties":{"station_id":"n6432710294","station_name":"Banashankari","station_name_local":"Banashankari","network":"Namma Metro","network_local":"Namma Metro","operator":"Bangalore Metro Rail Corporation Limited","city":"Bengaluru","country":"India","lines":["Green"],"wikidata":null},"geometry":{"type":"Point","coordinates":[77.573598,12.9152208]}},{"type":"Feature","properties":{"station_id":"n6432710295","station_name":"Rashtreeya Vidyalaya Road","station_name_local":"Rashtreeya Vidyalaya Road","network":"Namma Metro","network_local":"Namma Metro","operator":"Bangalore Metro Rail Corporation Limited","city":"Bengaluru","country":"India","lines":["Green"],"wikidata":null},"geometry":{"type":"Point","coordinates":[77.5802015,12.9215807]}},{"type":"Feature","properties":{"station_id":"n6432710296","station_name":"Jayanagar","station_name_local":"Jayanagar","network":"Namma Metro","network_local":"Namma Metro","operator":"Bangalore Metro Rail Corporation Limited","city":"Bengaluru","country":"India","lines":["Green"],"wikidata":null},"geometry":{"type":"Point","coordinates":[77.5801439,12.9295069]}},{"type":"Feature","properties":{"station_id":"n6432710297","station_name":"South End Circle","station_name_local":"South End Circle","network":"Namma Metro","network_local":"Namma Metro","operator":"Bangalore Metro Rail Corporation Limited","city":"Bengaluru","country":"India","lines":["Green"],"wikidata":null},"geometry":{"type":"Point","coordinates":[77.5800556,12.9382573]}},{"type":"Feature","properties":{"station_id":"n6432710298","station_name":"Lalbagh","station_name_local":"Lalbagh","network":"Namma Metro","network_local":"Namma Metro","operator":"Bangalore Metro Rail Corporation Limited","city":"Bengaluru","country":"India","lines":["Green"],"wikidata":null},"geometry":{"type":"Point","coordinates":[77.580016,12.9465265]}},{"type":"Feature","properties":{"station_id":"n6432710299","station_name":"National College","station_name_local":"National College","network":"Namma Metro","network_local":"Namma Metro","operator":"Bangalore Metro Rail Corporation Limited","city":"Bengaluru","country":"India","lines":["Green"],"wikidata":null},"geometry":{"type":"Point","coordinates":[77.5736898,12.9505266]}},{"type":"Feature","properties":{"station_id":"n6432710300","station_name":"Krishna Rajendra Market","station_name_local":"Krishna Rajendra Market","network":"Namma Metro","network_local":"Namma Metro","operator":"Bangalore Metro Rail Corporation Limited","city":"Bengaluru","country":"India","lines":["Green"],"wikidata":null},"geometry":{"type":"Point","coordinates":[77.5746578,12.9608788]}},{"type":"Feature","properties":{"station_id":"n6432710301","station_name":"Chickpete","station_name_local":"Chickpete","network":"Namma Metro","network_local":"Namma Metro","operator":"Bangalore Metro Rail Corporation Limited","city":"Bengaluru","country":"India","lines":["Green"],"wikidata":null},"geometry":{"type":"Point","coordinates":[77.5745566,12.9668974]}},{"type":"Feature","properties":{"station_id":"n7784456820","station_name":"Kengeri","station_name_local":"Kengeri","network":"Namma Metro","network_local":"Namma Metro","operator":"Bangalore Metro Rail Corporation Limited","city":"Bengaluru","country":"India","lines":["Purple"],"wikidata":null,"merged_from":3},"geometry":{"type":"Point","coordinates":[77.47658009999999,12.907912000000001]}},{"type":"Feature","properties":{"station_id":"n9049846515","station_name":"Jnanabharathi","station_name_local":"Jnanabharathi","network":"Namma Metro","network_local":"Namma Metro","operator":"Bangalore Metro Rail Corporation Limited","city":"Bengaluru","country":"India","lines":["Purple"],"wikidata":null},"geometry":{"type":"Point","coordinates":[77.5124063,12.9354357]}},{"type":"Feature","properties":{"station_id":"n9050797592","station_name":"Pantharapalya - Nayandahalli","station_name_local":"Pantharapalya - Nayandahalli","network":"Namma Metro","network_local":"Namma Metro","operator":"Bangalore Metro Rail Corporation Limited","city":"Bengaluru","country":"India","lines":["Purple"],"wikidata":null},"geometry":{"type":"Point","coordinates":[77.5251166,12.9416715]}},{"type":"Feature","properties":{"station_id":"n9051395755","station_name":"Kengeri Bus Terminal","station_name_local":"Kengeri Bus Terminal","network":"Namma Metro","network_local":"Namma Metro","operator":"Bangalore Metro Rail Corporation Limited","city":"Bengaluru","country":"India","lines":["Purple"],"wikidata":null},"geometry":{"type":"Point","coordinates":[77.4878557,12.914689]}},{"type":"Feature","properties":{"station_id":"n9051410519","station_name":"Rajarajeshwari Nagar","station_name_local":"Rajarajeshwari Nagar","network":"Namma Metro","network_local":"Namma Metro","operator":"Bangalore Metro Rail Corporation Limited","city":"Bengaluru","country":"India","lines":["Purple"],"wikidata":null},"geometry":{"type":"Point","coordinates":[77.5196788,12.9365996]}},{"type":"Feature","properties":{"station_id":"n9051417969","station_name":"Pattanagere","station_name_local":"Pattanagere","network":"Namma Metro","network_local":"Namma Metro","operator":"Bangalore Metro Rail Corporation Limited","city":"Bengaluru","country":"India","lines":["Purple"],"wikidata":null},"geometry":{"type":"Point","coordinates":[77.4983509,12.9242505]}},{"type":"Feature","properties":{"station_id":"n9919570131","station_name":"Challaghatta","station_name_local":"Challaghatta","network":"Namma Metro","network_local":"Namma Metro","operator":"Bangalore Metro Rail Corporation Limited","city":"Bengaluru","country":"India","lines":["Purple"],"wikidata":null,"merged_from":3},"geometry":{"type":"Point","coordinates":[77.46125093333332,12.8973244]}},{"type":"Feature","properties":{"station_id":"n9919651773","station_name":"Silk Institute","station_name_local":"Silk Institute","network":"Namma Metro","network_local":"Namma Metro","operator":"Bangalore Metro Rail Corporation Limited","city":"Bengaluru","country":"India","lines":["Green"],"wikidata":null},"geometry":{"type":"Point","coordinates":[77.5299545,12.8617298]}},{"type":"Feature","properties":{"station_id":"n9919651774","station_name":"Thalaghattapura","station_name_local":"Thalaghattapura","network":"Namma Metro","network_local":"Namma Metro","operator":"Bangalore Metro Rail Corporation Limited","city":"Bengaluru","country":"India","lines":["Green"],"wikidata":null},"geometry":{"type":"Point","coordinates":[77.5383958,12.8714097]}},{"type":"Feature","properties":{"station_id":"n9919651775","station_name":"Vajarahalli","station_name_local":"Vajarahalli","network":"Namma Metro","network_local":"Namma Metro","operator":"Bangalore Metro Rail Corporation Limited","city":"Bengaluru","country":"India","lines":["Green"],"wikidata":null},"geometry":{"type":"Point","coordinates":[77.5447414,12.8774369]}},{"type":"Feature","properties":{"station_id":"n9919651776","station_name":"Doddakallasandra","station_name_local":"Doddakallasandra","network":"Namma Metro","network_local":"Namma Metro","operator":"Bangalore Metro Rail Corporation Limited","city":"Bengaluru","country":"India","lines":["Green"],"wikidata":null},"geometry":{"type":"Point","coordinates":[77.5527546,12.8846435]}},{"type":"Feature","properties":{"station_id":"n9919651777","station_name":"Konanakunte Cross","station_name_local":"Konanakunte Cross","network":"Namma Metro","network_local":"Namma Metro","operator":"Bangalore Metro Rail Corporation Limited","city":"Bengaluru","country":"India","lines":["Green"],"wikidata":null},"geometry":{"type":"Point","coordinates":[77.5626665,12.8889671]}},{"type":"Feature","properties":{"station_id":"n11521199307","station_name":"Biocon Hebbagodi","station_name_local":"Biocon Hebbagodi","network":"Namma Metro","network_local":"Namma Metro","operator":"Bangalore Metro Rail Corporation Limited","city":"Bengaluru","country":"India","lines":["Yellow"],"wikidata":null},"geometry":{"type":"Point","coordinates":[77.6813744,12.8290325]}},{"type":"Feature","properties":{"station_id":"n11941173068","station_name":"Nagasandra","station_name_local":"Nagasandra","network":"Namma Metro","network_local":"Namma Metro","operator":"Bangalore Metro Rail Corporation Limited","city":"Bengaluru","country":"India","lines":["Green"],"wikidata":null},"geometry":{"type":"Point","coordinates":[77.5001422,13.0479536]}},{"type":"Feature","properties":{"station_id":"n11941186869","station_name":"Yeshwantpur","station_name_local":"Yeshwantpur","network":"Namma Metro","network_local":"Namma Metro","operator":"Bangalore Metro Rail Corporation Limited","city":"Bengaluru","country":"India","lines":["Green"],"wikidata":null},"geometry":{"type":"Point","coordinates":[77.5498751,13.0232678]}},{"type":"Feature","properties":{"station_id":"n11941186870","station_name":"Kadugodi Tree Park","station_name_local":"Kadugodi Tree Park","network":"Namma Metro","network_local":"Namma Metro","operator":"Bangalore Metro Rail Corporation Limited","city":"Bengaluru","country":"India","lines":["Purple"],"wikidata":null},"geometry":{"type":"Point","coordinates":[77.7470121,12.9856503]}},{"type":"Feature","properties":{"station_id":"n1353733806","station_name":"Goraguntepalya","station_name_local":"Goraguntepalya","network":"Namma Metro","network_local":"Namma Metro","operator":"Bangalore Metro Rail Corporation Limited","city":"Bengaluru","country":"India","lines":["Green"],"wikidata":null},"geometry":{"type":"Point","coordinates":[77.5408483,13.0283319]}}]}