{"type":"FeatureCollection","metro_system":{"continent":"asia","country":"India","city":"Delhi","osm_networks":["Aqua Line","Blue Line","DMRC","Delhi Metro","Noida Metro","Pink Line","Rapid Metro Gurgaon","RapidX","Unknown"],"operator":"Delhi Metro Rail Corporation Limited","official_website":null,"official_map":"https://en.wikipedia.org/wiki/Blue_Line_(Delhi_Metro)","wikidata":"Q1029921","line_count":9,"station_count":270,"audit":{"strategies_tried":[],"passed":true,"checks":[{"id":"system_exists","ok":true,"detail":"matched OSM system systems/asia/india/asia-india-delhi.geojson","level":"error"},{"id":"has_lines","ok":true,"detail":"9 lines","level":"error"},{"id":"has_stations","ok":true,"detail":"270 stations","level":"error"},{"id":"station_ratio","ok":true,"detail":"OSM 270 vs Wikipedia 243（比值 1.11）","level":"error"},{"id":"stations_have_lines","ok":true,"detail":"270/270 站皆有所屬路線","level":"error"},{"id":"stations_named","ok":true,"detail":"269/270 站有名稱","level":"warn"},{"id":"station_order","ok":true,"detail":"所有線路站序合理","level":"warn"}],"reasons":[],"warnings":[],"audited_at":"2026-07-10T07:56:59.695Z"}},"features":[{"type":"Feature","properties":{"route_id":"rm8037671","route_name":"Blue Line","route_name_local":"Blue Line","route_ref":"3;4","route_color":"#4169e1","network":"Delhi Metro","network_local":"Delhi Metro","operator":"Delhi Metro Rail Corporation Limited","city":"Delhi","country":"India","wikidata":"Q1029921","wikipedia":"en:Blue Line (Delhi Metro)","osm_route_ids":[447209,2535795,8037669,8037670]},"geometry":{"type":"MultiLineString","coordinates":[[[77.3750964,28.6282598],[77.3736218,28.6169832],[77.3727211,28.6065246],[77.372309,28.5975791],[77.3728019,28.5867347],[77.3635215,28.5802275],[77.3562496,28.5747852],[77.346399,28.5674266],[77.3343678,28.5639195],[77.3261467,28.5707894],[77.3178293,28.5781067],[77.3116814,28.5849263],[77.3015826,28.5891047],[77.2944279,28.5944669],[77.2895211,28.6040558],[77.2795258,28.6178791],[77.2680442,28.6231406],[77.2495452,28.6205832],[77.2425121,28.6234593],[77.2341954,28.6255914],[77.2249956,28.6297527],[77.2196877,28.6327591],[77.2085684,28.6392249],[77.1999053,28.6442998],[77.1885276,28.6439905],[77.1782794,28.6424765],[77.1692658,28.6449953],[77.1582426,28.6515664],[77.1506502,28.6557294],[77.1424425,28.6578419],[77.1316569,28.652725],[77.122743,28.6490372],[77.1128703,28.6437288],[77.1052347,28.6404628],[77.096482,28.6365265],[77.0867273,28.6329889],[77.0780939,28.6295652],[77.0652972,28.6248301],[77.0557191,28.6217367],[77.0450835,28.6202562],[77.0332835,28.6192912],[77.0227861,28.6149318],[77.0259935,28.602234],[77.0335556,28.597025],[77.0407464,28.5922515],[77.0494551,28.586462],[77.0575146,28.5810731],[77.0653509,28.5742819],[77.0670615,28.5656075],[77.0584649,28.551986]],[[77.2679515,28.6233069],[77.2775015,28.6306223],[77.2867522,28.6365579],[77.2952594,28.6414409],[77.305527,28.6484435],[77.316053,28.6468919],[77.3243389,28.6454076],[77.3395056,28.6497651]]]}},{"type":"Feature","properties":{"route_id":"rm8037713","route_name":"Yellow Line","route_name_local":"Yellow Line","route_ref":"2","route_color":"#ffdf00","network":"Delhi Metro","network_local":"Delhi Metro","operator":"Delhi Metro Rail Corporation Limited","city":"Delhi","country":"India","wikidata":"Q795156","wikipedia":"hi:दिल्ली मेट्रो","osm_route_ids":[447210,8037712]},"geometry":{"type":"MultiLineString","coordinates":[[[77.1382993,28.7446391],[77.1398643,28.7383436],[77.1488723,28.7299173],[77.1626826,28.7259874],[77.1704471,28.7165981],[77.1803831,28.7070686],[77.1940059,28.7027391],[77.2064225,28.6981558],[77.2147478,28.6950993],[77.2217576,28.6863272],[77.2250565,28.6768572],[77.2282174,28.6675256],[77.230366,28.6584207],[77.2265435,28.6492513],[77.2227708,28.6434707],[77.2194242,28.6327423],[77.2140587,28.6229537],[77.2123128,28.615878],[77.2118249,28.6095117],[77.2111269,28.5973548],[77.2125637,28.5865942],[77.2093306,28.5741591],[77.207832,28.566854],[77.2068211,28.5580022],[77.2067402,28.544258],[77.2048545,28.5290666],[77.2018984,28.5208731],[77.1864723,28.5129302],[77.1749361,28.5067554],[77.1609098,28.4989706],[77.1491983,28.4937282],[77.1257838,28.4807159],[77.102272,28.4819976],[77.0930074,28.4812437],[77.0798993,28.4795243],[77.0724516,28.4723308],[77.0726864,28.4593314]]]}},{"type":"Feature","properties":{"route_id":"rm8429148","route_name":"Red Line","route_name_local":"Red Line","route_ref":"1","route_color":"#ff4040","network":"Delhi Metro","network_local":"Delhi Metro","operator":"Delhi Metro Rail Corporation Limited","city":"Delhi","country":"India","wikidata":"Q3278367","wikipedia":"hi:दिल्ली मेट्रो","osm_route_ids":[447214,8037718]},"geometry":{"type":"MultiLineString","coordinates":[[[77.1071611,28.7207878],[77.115385,28.7149569],[77.1260218,28.7075969],[77.1322497,28.7032676],[77.1405393,28.6980415],[77.1524671,28.6960757],[77.1616833,28.6889264],[77.1647754,28.6824082],[77.1703467,28.6735891],[77.1818589,28.6700885],[77.1988974,28.6667177],[77.2074156,28.6664068],[77.2166306,28.6671626],[77.2282467,28.6674784],[77.2505385,28.6684554],[77.2667628,28.6699174],[77.2778151,28.6718621],[77.2898815,28.6734598],[77.3008694,28.6754151],[77.3123939,28.6757505],[77.3215135,28.6758851],[77.3339151,28.6766909],[77.3468626,28.6771193],[77.3581375,28.6776405],[77.3704847,28.6782385],[77.3839016,28.6785633],[77.391894,28.6770273],[77.4065483,28.6734564],[77.4153901,28.6707062]]]}},{"type":"Feature","properties":{"route_id":"rm8037672","route_name":"Green Line","route_name_local":"Green Line","route_ref":"5","route_color":"#008000","network":"Delhi Metro","network_local":"Delhi Metro","operator":"Delhi Metro Rail Corporation Limited","city":"Delhi","country":"India","wikidata":"Q5602820","wikipedia":"en:Green Line (Delhi Metro)","osm_route_ids":[2535796,8037666,8037675,8037687]},"geometry":{"type":"MultiLineString","coordinates":[[[77.1691376,28.6726319],[77.1552808,28.6715367],[77.1461152,28.6729266],[77.1405633,28.6740136],[77.1304571,28.6749602],[77.119345,28.6764051],[77.1122776,28.6773285],[77.1022105,28.6785848],[77.0926576,28.6797123],[77.0808421,28.6810385],[77.074004,28.681828],[77.0647264,28.6823335],[77.0562372,28.6821301],[77.0439364,28.6822405],[77.0305707,28.6823507],[77.0171141,28.6833525],[76.9961223,28.6852334],[76.9772009,28.6868186],[76.9640684,28.6878977],[76.9511612,28.6892109],[76.9354398,28.6906577],[76.9191444,28.6973429]],[[77.1513362,28.6545554],[77.1575529,28.6620786],[77.1552808,28.6715367]]]}},{"type":"Feature","properties":{"route_id":"rm8037706","route_name":"Violet Line","route_name_local":"Violet Line","route_ref":"6","route_color":"#553592","network":"Delhi Metro","network_local":"Delhi Metro","operator":"Delhi Metro Rail Corporation Limited","city":"Delhi","country":"India","wikidata":"Q3634451","wikipedia":"en:Violet Line (Delhi Metro)","osm_route_ids":[2535797,8037705]},"geometry":{"type":"MultiLineString","coordinates":[[[77.228075,28.668686],[77.2367275,28.65748],[77.2376857,28.6500446],[77.2408097,28.6392211],[77.2410728,28.6281909],[77.234191,28.6254928],[77.2192877,28.6240472],[77.2123897,28.6158726],[77.2291415,28.6022643],[77.2338082,28.5882486],[77.2393458,28.5830411],[77.2364175,28.5705695],[77.2342783,28.5644043],[77.241984,28.5553442],[77.2517393,28.5514411],[77.2591115,28.5494963],[77.264266,28.5443766],[77.2756683,28.5432816],[77.2830377,28.5384251],[77.2883155,28.5285876],[77.2944799,28.5197252],[77.2992401,28.5023598],[77.3030239,28.4931698],[77.3049182,28.4779698],[77.3073933,28.4577786],[77.308095,28.4486201],[77.309063,28.4381599],[77.3103769,28.4227144],[77.3114622,28.4108364],[77.3124347,28.3974884],[77.313462,28.3858361],[77.3149203,28.3702344],[77.3162264,28.3546513],[77.3164791,28.340005]]]}},{"type":"Feature","properties":{"route_id":"rm8037716","route_name":"Airport Express Line","route_name_local":"Airport Express Line","route_ref":"AEx","route_color":"#ff8c00","network":"Delhi Metro","network_local":"Delhi Metro","operator":"Delhi Metro Rail Corporation Limited","city":"Delhi","country":"India","wikidata":"Q5253735","wikipedia":"en:Airport Express Line (Delhi Metro)","osm_route_ids":[2535798,8037715]},"geometry":{"type":"MultiLineString","coordinates":[[[77.0453294,28.5508515],[77.0586489,28.5518376],[77.0867238,28.5564899],[77.1208093,28.5487998],[77.1616835,28.591914],[77.211311,28.6289139],[77.2230952,28.64249]]]}},{"type":"Feature","properties":{"route_id":"rm8051593","route_name":"Grey Line","route_name_local":"Grey Line","route_ref":"9","route_color":"#838996","network":"Delhi Metro","network_local":"Delhi Metro","operator":"Delhi Metro Rail Corporation Limited","city":"Delhi","country":"India","wikidata":"Q47100305","wikipedia":"en:Grey Line (Delhi Metro)","osm_route_ids":[3537978,8051592]},"geometry":{"type":"MultiLineString","coordinates":[[[77.0223656,28.6159127],[77.0104516,28.6172778],[76.986563,28.6124258],[76.9785499,28.6118826]]]}},{"type":"Feature","properties":{"route_id":"rm8242438","route_name":"Pink Line","route_name_local":"Pink Line","route_ref":"7","route_color":"#fc8eac","network":"Delhi Metro","network_local":"Delhi Metro","operator":"Delhi Metro Rail Corporation Limited","city":"Delhi","country":"India","wikidata":"Q19891094","wikipedia":"en:Pink Line (Delhi Metro)","osm_route_ids":[8241298,8242437]},"geometry":{"type":"MultiLineString","coordinates":[[[77.2894569,28.7214306],[77.2901557,28.7128868],[77.2861306,28.702422],[77.2796874,28.6920926],[77.2748723,28.6827111],[77.2769355,28.6724074],[77.2848598,28.6646856],[77.290163,28.6577953],[77.2957875,28.6536459],[77.3061394,28.6493001],[77.3154068,28.6467137],[77.3107603,28.6318977],[77.3044792,28.6249613],[77.3054199,28.6200969],[77.3088799,28.6134349],[77.298042,28.6056313],[77.290655,28.603497],[77.2573864,28.5883001],[77.2581218,28.5720033],[77.2487352,28.5657942],[77.2382659,28.5695405],[77.2205602,28.5685434],[77.2075791,28.573627],[77.1980768,28.5757936],[77.1878597,28.5702392],[77.1757091,28.5785245],[77.1694377,28.5892816],[77.1403775,28.6085995],[77.1364134,28.6243731],[77.1297013,28.6371662],[77.1242237,28.6511757],[77.1272304,28.6580809],[77.1391646,28.672777],[77.1494753,28.6859099],[77.1542356,28.6947226],[77.1654294,28.701988],[77.181944,28.7058181],[77.1818165,28.724605],[77.1998366,28.7297981],[77.2136833,28.7249054],[77.2239435,28.721169],[77.227534,28.7102486],[77.242523,28.7087587],[77.2544827,28.7052201],[77.2626441,28.70362],[77.2773077,28.7024004],[77.2795273,28.6921488]],[[77.2794982,28.6921542],[77.2773051,28.7023575],[77.2626469,28.7035768],[77.2544624,28.7051475],[77.2424825,28.708631],[77.2274086,28.7102011],[77.2239258,28.7211303],[77.213673,28.7248603],[77.1993105,28.7298591],[77.1821095,28.7240864],[77.1819941,28.7057756],[77.1654554,28.7019313],[77.1543015,28.6947028],[77.1496639,28.6856756],[77.1392217,28.6727635],[77.1272899,28.6580491],[77.1242874,28.6512003],[77.1297689,28.637181],[77.1364778,28.6243968],[77.1404465,28.6086427],[77.1694772,28.5893006],[77.175752,28.5785426],[77.1878724,28.5702814],[77.1980823,28.5758359],[77.2075986,28.5736686],[77.2205719,28.5685857],[77.2388793,28.5694844],[77.2498114,28.5659354],[77.2588244,28.5726209],[77.2570468,28.5898274],[77.2912864,28.6038135],[77.2992533,28.6060634],[77.3088121,28.6134488],[77.3054159,28.6200696],[77.3044546,28.6250185],[77.3106994,28.6318836],[77.3153748,28.6466595],[77.3060798,28.6492685],[77.2958023,28.6535862],[77.290128,28.657775],[77.2848234,28.6646669],[77.2769489,28.6723475],[77.2748056,28.6827286],[77.279644,28.6921128],[77.2860709,28.7024535],[77.2900879,28.7128719],[77.2894139,28.7214275]]]}},{"type":"Feature","properties":{"route_id":"rm8051576","route_name":"Magenta Line","route_name_local":"Magenta Line","route_ref":"8","route_color":"#cc338b","network":"Delhi Metro","network_local":"Delhi Metro","operator":"Delhi Metro Rail Corporation Limited","city":"Delhi","country":"India","wikidata":"Q19893471","wikipedia":"en:Magenta Line (Delhi Metro)","osm_route_ids":[8385429,8385430,20300114,20300115]},"geometry":{"type":"MultiLineString","coordinates":[[[77.333862,28.5639196],[77.321614,28.5529243],[77.3101309,28.5428984],[77.2966352,28.5458187],[77.291848,28.5613021],[77.2863588,28.5630343],[77.2749693,28.5597843],[77.2648369,28.5544479],[77.2566811,28.550077],[77.251518,28.5460369],[77.2384643,28.5418724],[77.2302907,28.5410914],[77.2210921,28.5423526],[77.2050189,28.5433508],[77.1945149,28.5470025],[77.1855052,28.5503632],[77.1750411,28.5568808],[77.1610899,28.557808],[77.140254,28.5608275],[77.1226212,28.5648599],[77.1111249,28.57709],[77.0830489,28.5889096],[77.0823561,28.6018751],[77.085178,28.6157555],[77.0779235,28.6289502],[77.0843102,28.6478016]],[[77.1816381,28.724614],[77.1680657,28.736899],[77.1489553,28.7297958],[77.142454,28.7248673],[77.1386941,28.7130751],[77.1300884,28.7035532],[77.1182847,28.6980748]]]}},{"type":"Feature","properties":{"station_id":"n1372976809","station_name":"n1372976809","station_name_local":null,"network":"Unknown","network_local":null,"operator":null,"city":"Delhi","country":"India","lines":["6"],"wikidata":null},"geometry":{"type":"Point","coordinates":[77.2272018,28.6000716]}},{"type":"Feature","properties":{"station_id":"n249823635","station_name":"Ramesh Nagar","station_name_local":"Ramesh Nagar","network":"Delhi Metro","network_local":"Delhi Metro","operator":"Delhi Metro Rail Corporation Limited","city":"Delhi","country":"India","lines":["3;4"],"wikidata":"Q259656"},"geometry":{"type":"Point","coordinates":[77.1316496,28.6527444]}},{"type":"Feature","properties":{"station_id":"n268217229","station_name":"Patel Nagar","station_name_local":"Patel Nagar","network":"Delhi Metro","network_local":"Delhi Metro","operator":"Delhi Metro Rail Corporation Limited","city":"Delhi","country":"India","lines":["3;4"],"wikidata":"Q7144412"},"geometry":{"type":"Point","coordinates":[77.1692817,28.6450127]}},{"type":"Feature","properties":{"station_id":"n268381455","station_name":"Rithala","station_name_local":"Rithala","network":"Delhi Metro","network_local":"Delhi Metro","operator":"Delhi Metro Rail Corporation Limited","city":"Delhi","country":"India","lines":["1"],"wikidata":"Q4207358"},"geometry":{"type":"Point","coordinates":[77.1071813,28.7208064]}},{"type":"Feature","properties":{"station_id":"n268381457","station_name":"Pratap Nagar","station_name_local":"Pratap Nagar","network":"Delhi Metro","network_local":"Delhi Metro","operator":"Delhi Metro Rail Corporation Limited","city":"Delhi","country":"India","lines":["1"],"wikidata":"Q7238590"},"geometry":{"type":"Point","coordinates":[77.1988974,28.6667177]}},{"type":"Feature","properties":{"station_id":"n268381463","station_name":"Pul Bangash","station_name_local":"Pul Bangash","network":"Delhi Metro","network_local":"Delhi Metro","operator":"Delhi Metro Rail Corporation Limited","city":"Delhi","country":"India","lines":["1"],"wikidata":"Q7259157"},"geometry":{"type":"Point","coordinates":[77.2074156,28.6664068]}},{"type":"Feature","properties":{"station_id":"n268381477","station_name":"Kashmere Gate","station_name_local":"Kashmere Gate","network":"Delhi Metro","network_local":"Delhi Metro","operator":"Delhi Metro Rail Corporation Limited","city":"Delhi","country":"India","lines":["1","6"],"wikidata":"Q4207344","merged_from":2},"geometry":{"type":"Point","coordinates":[77.2281499,28.66806105]}},{"type":"Feature","properties":{"station_id":"n311963955","station_name":"Kohat Enclave","station_name_local":"Kohat Enclave","network":"Delhi Metro","network_local":"Delhi Metro","operator":"Delhi Metro Rail Corporation Limited","city":"Delhi","country":"India","lines":["1"],"wikidata":"Q6425927"},"geometry":{"type":"Point","coordinates":[77.1405393,28.6980415]}},{"type":"Feature","properties":{"station_id":"n345234441","station_name":"Karol Bagh","station_name_local":"Karol Bagh","network":"Delhi Metro","network_local":"Delhi Metro","operator":"Delhi Metro Rail Corporation Limited","city":"Delhi","country":"India","lines":["3;4"],"wikidata":"Q6373014"},"geometry":{"type":"Point","coordinates":[77.1885235,28.6440122]}},{"type":"Feature","properties":{"station_id":"n347676531","station_name":"Kirti Nagar (Blue Line)","station_name_local":"Kirti Nagar (Blue Line)","network":"Delhi Metro","network_local":"Delhi Metro","operator":"Delhi Metro Rail Corporation Limited","city":"Delhi","country":"India","lines":["3;4"],"wikidata":"Q12419759"},"geometry":{"type":"Point","coordinates":[77.1506635,28.655746]}},{"type":"Feature","properties":{"station_id":"n347676595","station_name":"Shadipur","station_name_local":"Shadipur","network":"Delhi Metro","network_local":"Delhi Metro","operator":"Delhi Metro Rail Corporation Limited","city":"Delhi","country":"India","lines":["3;4"],"wikidata":"Q11306954"},"geometry":{"type":"Point","coordinates":[77.1582587,28.6515829]}},{"type":"Feature","properties":{"station_id":"n347676947","station_name":"Moti Nagar","station_name_local":"Moti Nagar","network":"Delhi Metro","network_local":"Delhi Metro","operator":"Delhi Metro Rail Corporation Limited","city":"Delhi","country":"India","lines":["3;4"],"wikidata":"Q6917665"},"geometry":{"type":"Point","coordinates":[77.1424288,28.657859]}},{"type":"Feature","properties":{"station_id":"n535297593","station_name":"Sikanderpur","station_name_local":"Sikanderpur","network":"Delhi Metro","network_local":"Delhi Metro","operator":"Delhi Metro Rail Corporation Limited","city":"Delhi","country":"India","lines":["2"],"wikidata":"Q11307061"},"geometry":{"type":"Point","coordinates":[77.0930017,28.4812716]}},{"type":"Feature","properties":{"station_id":"n554257763","station_name":"Delhi Aerocity","station_name_local":"Delhi Aerocity","network":"Delhi Metro","network_local":"Delhi Metro","operator":"Delhi Metro Rail Corporation Limited","city":"Delhi","country":"India","lines":["AEx"],"wikidata":"Q5253729"},"geometry":{"type":"Point","coordinates":[77.1207949,28.5487786]}},{"type":"Feature","properties":{"station_id":"n554257787","station_name":"Hauz Khas (Yellow Line)","station_name_local":"Hauz Khas (Yellow Line)","network":"Delhi Metro","network_local":"Delhi Metro","operator":"Delhi Metro Rail Corporation Limited","city":"Delhi","country":"India","lines":["2"],"wikidata":"Q5683002"},"geometry":{"type":"Point","coordinates":[77.2067072,28.5442564]}},{"type":"Feature","properties":{"station_id":"n554257833","station_name":"Shivaji Stadium","station_name_local":"Shivaji Stadium","network":"Delhi Metro","network_local":"Delhi Metro","operator":"Delhi Metro Rail Corporation Limited","city":"Delhi","country":"India","lines":["AEx"],"wikidata":"Q11308729"},"geometry":{"type":"Point","coordinates":[77.2113218,28.6288963]}},{"type":"Feature","properties":{"station_id":"n554257841","station_name":"New Delhi","station_name_local":"New Delhi","network":"Delhi Metro","network_local":"Delhi Metro","operator":"Delhi Metro Rail Corporation Limited","city":"Delhi","country":"India","lines":["2"],"wikidata":"Q3634456"},"geometry":{"type":"Point","coordinates":[77.2227421,28.6434826]}},{"type":"Feature","properties":{"station_id":"n561316983","station_name":"Tis Hazari","station_name_local":"Tis Hazari","network":"Delhi Metro","network_local":"Delhi Metro","operator":"Delhi Metro Rail Corporation Limited","city":"Delhi","country":"India","lines":["1"],"wikidata":"Q3632416"},"geometry":{"type":"Point","coordinates":[77.2166306,28.6671626]}},{"type":"Feature","properties":{"station_id":"n663755930","station_name":"Shastri Park","station_name_local":"Shastri Park","network":"Delhi Metro","network_local":"Delhi Metro","operator":"Delhi Metro Rail Corporation Limited","city":"Delhi","country":"India","lines":["1"],"wikidata":"Q11307901"},"geometry":{"type":"Point","coordinates":[77.2505301,28.6684339]}},{"type":"Feature","properties":{"station_id":"n663758609","station_name":"Seelampur","station_name_local":"Seelampur","network":"Delhi Metro","network_local":"Delhi Metro","operator":"Delhi Metro Rail Corporation Limited","city":"Delhi","country":"India","lines":["1"],"wikidata":"Q7445815"},"geometry":{"type":"Point","coordinates":[77.2668137,28.6698165]}},{"type":"Feature","properties":{"station_id":"n663758748","station_name":"Welcome (Red Line)","station_name_local":"Welcome (Red Line)","network":"Delhi Metro","network_local":"Delhi Metro","operator":"Delhi Metro Rail Corporation Limited","city":"Delhi","country":"India","lines":["1"],"wikidata":"Q11288582"},"geometry":{"type":"Point","coordinates":[77.2778473,28.6717907]}},{"type":"Feature","properties":{"station_id":"n663758998","station_name":"Shahdara","station_name_local":"Shahdara","network":"Delhi Metro","network_local":"Delhi Metro","operator":"Delhi Metro Rail Corporation Limited","city":"Delhi","country":"India","lines":["1"],"wikidata":"Q11307902"},"geometry":{"type":"Point","coordinates":[77.2898858,28.6734298]}},{"type":"Feature","properties":{"station_id":"n663759851","station_name":"Jhilmil","station_name_local":"Jhilmil","network":"Delhi Metro","network_local":"Delhi Metro","operator":"Delhi Metro Rail Corporation Limited","city":"Delhi","country":"India","lines":["1"],"wikidata":"Q6191072"},"geometry":{"type":"Point","coordinates":[77.3123949,28.6757197]}},{"type":"Feature","properties":{"station_id":"n663761411","station_name":"Shastri Nagar","station_name_local":"Shastri Nagar","network":"Delhi Metro","network_local":"Delhi Metro","operator":"Delhi Metro Rail Corporation Limited","city":"Delhi","country":"India","lines":["1"],"wikidata":null},"geometry":{"type":"Point","coordinates":[77.1818589,28.6700885]}},{"type":"Feature","properties":{"station_id":"n663761428","station_name":"Inderlok (Red Line)","station_name_local":"Inderlok (Red Line)","network":"Delhi Metro","network_local":"Delhi Metro","operator":"Delhi Metro Rail Corporation Limited","city":"Delhi","country":"India","lines":["1"],"wikidata":"Q4207366"},"geometry":{"type":"Point","coordinates":[77.1703467,28.6735891]}},{"type":"Feature","properties":{"station_id":"n663761505","station_name":"Kanhaiya Nagar","station_name_local":"Kanhaiya Nagar","network":"Delhi Metro","network_local":"Delhi Metro","operator":"Delhi Metro Rail Corporation Limited","city":"Delhi","country":"India","lines":["1"],"wikidata":"Q11295526"},"geometry":{"type":"Point","coordinates":[77.1647754,28.6824082]}},{"type":"Feature","properties":{"station_id":"n663762151","station_name":"Keshav Puram","station_name_local":"Keshav Puram","network":"Delhi Metro","network_local":"Delhi Metro","operator":"Delhi Metro Rail Corporation Limited","city":"Delhi","country":"India","lines":["1"],"wikidata":"Q6394986"},"geometry":{"type":"Point","coordinates":[77.1616833,28.6889264]}},{"type":"Feature","properties":{"station_id":"n663762964","station_name":"Netaji Subhash Place (Red Line)","station_name_local":"Netaji Subhash Place (Red Line)","network":"Delhi Metro","network_local":"Delhi Metro","operator":"Delhi Metro Rail Corporation Limited","city":"Delhi","country":"India","lines":["1"],"wikidata":"Q6998648"},"geometry":{"type":"Point","coordinates":[77.1524856,28.6960485]}},{"type":"Feature","properties":{"station_id":"n663765153","station_name":"Madhuban Chowk","station_name_local":"Madhuban Chowk","network":"Delhi Metro","network_local":"Delhi Metro","operator":"Delhi Metro Rail Corporation Limited","city":"Delhi","country":"India","lines":["1","8"],"wikidata":"Q7198601","merged_from":2},"geometry":{"type":"Point","coordinates":[77.1311611,28.7034175]}},{"type":"Feature","properties":{"station_id":"n663766390","station_name":"Rohini East","station_name_local":"Rohini East","network":"Delhi Metro","network_local":"Delhi Metro","operator":"Delhi Metro Rail Corporation Limited","city":"Delhi","country":"India","lines":["1"],"wikidata":"Q11351030"},"geometry":{"type":"Point","coordinates":[77.1259971,28.7075774]}},{"type":"Feature","properties":{"station_id":"n913485885","station_name":"GTB Nagar","station_name_local":"GTB Nagar","network":"Delhi Metro","network_local":"Delhi Metro","operator":"Delhi Metro Rail Corporation Limited","city":"Delhi","country":"India","lines":["2"],"wikidata":"Q795125"},"geometry":{"type":"Point","coordinates":[77.2063998,28.6981333]}},{"type":"Feature","properties":{"station_id":"n927873494","station_name":"IGI Airport","station_name_local":"IGI Airport","network":"Delhi Metro","network_local":"Delhi Metro","operator":"Delhi Metro Rail Corporation Limited","city":"Delhi","country":"India","lines":["AEx"],"wikidata":"Q4698881"},"geometry":{"type":"Point","coordinates":[77.0866995,28.5564626]}},{"type":"Feature","properties":{"station_id":"n927873510","station_name":"Kalkaji Mandir","station_name_local":"Kalkaji Mandir","network":"Delhi Metro","network_local":"Delhi Metro","operator":"Delhi Metro Rail Corporation Limited","city":"Delhi","country":"India","lines":["6","8"],"wikidata":"Q6353342","merged_from":2},"geometry":{"type":"Point","coordinates":[77.25801705,28.54991535]}},{"type":"Feature","properties":{"station_id":"n927873513","station_name":"Dhaula Kuan","station_name_local":"Dhaula Kuan","network":"Delhi Metro","network_local":"Delhi Metro","operator":"Delhi Metro Rail Corporation Limited","city":"Delhi","country":"India","lines":["AEx"],"wikidata":"Q5269438"},"geometry":{"type":"Point","coordinates":[77.1617158,28.5918719]}},{"type":"Feature","properties":{"station_id":"n938409545","station_name":"New Delhi Airport Express Terminal","station_name_local":"New Delhi Airport Express Terminal","network":"Delhi Metro","network_local":"Delhi Metro","operator":"Delhi Metro Rail Corporation Limited","city":"Delhi","country":"India","lines":["AEx"],"wikidata":"Q3634456"},"geometry":{"type":"Point","coordinates":[77.2231116,28.6424786]}},{"type":"Feature","properties":{"station_id":"n1824659702","station_name":"Kirti Nagar (Green Line)","station_name_local":"Kirti Nagar (Green Line)","network":"Delhi Metro","network_local":"Delhi Metro","operator":"Delhi Metro Rail Corporation Limited","city":"Delhi","country":"India","lines":["5"],"wikidata":"Q12419759"},"geometry":{"type":"Point","coordinates":[77.1513605,28.6545409]}},{"type":"Feature","properties":{"station_id":"n1824659742","station_name":"Satguru Ramsingh Marg","station_name_local":"Satguru Ramsingh Marg","network":"Delhi Metro","network_local":"Delhi Metro","operator":"Delhi Metro Rail Corporation Limited","city":"Delhi","country":"India","lines":["5"],"wikidata":"Q7426116"},"geometry":{"type":"Point","coordinates":[77.1577026,28.6620531]}},{"type":"Feature","properties":{"station_id":"n1988598418","station_name":"Rohini West","station_name_local":"Rohini West","network":"Delhi Metro","network_local":"Delhi Metro","operator":"Delhi Metro Rail Corporation Limited","city":"Delhi","country":"India","lines":["1"],"wikidata":"Q7359754"},"geometry":{"type":"Point","coordinates":[77.115385,28.7149569]}},{"type":"Feature","properties":{"station_id":"n1988848882","station_name":"DLF Phase 2","station_name_local":"DLF Phase 2","network":"Rapid Metro Gurgaon","network_local":"Rapid Metro Gurgaon","operator":"Haryana Mass Rapid Transport Corporation Limited","city":"Delhi","country":"India","lines":["RMGL"],"wikidata":null},"geometry":{"type":"Point","coordinates":[77.0929909,28.4875596]}},{"type":"Feature","properties":{"station_id":"n1988848900","station_name":"Sikanderpur RMRG Station","station_name_local":"Sikanderpur RMRG Station","network":"Rapid Metro Gurgaon","network_local":"Rapid Metro Gurgaon","operator":"Haryana Mass Rapid Transport Corporation Limited","city":"Delhi","country":"India","lines":["RMGL"],"wikidata":null},"geometry":{"type":"Point","coordinates":[77.0944367,28.4809969]}},{"type":"Feature","properties":{"station_id":"n2579042823","station_name":"Dhansa Bus Stand","station_name_local":"Dhansa Bus Stand","network":"Delhi Metro","network_local":"Delhi Metro","operator":"Delhi Metro Rail Corporation Limited","city":"Delhi","country":"India","lines":["9"],"wikidata":"Q107555792"},"geometry":{"type":"Point","coordinates":[76.9785264,28.6119086]}},{"type":"Feature","properties":{"station_id":"n2832938172","station_name":"Hauz Khas (Magenta Line)","station_name_local":"Hauz Khas (Magenta Line)","network":"Delhi Metro","network_local":"Delhi Metro","operator":"Delhi Metro Rail Corporation Limited","city":"Delhi","country":"India","lines":["8"],"wikidata":"Q5683002"},"geometry":{"type":"Point","coordinates":[77.2050447,28.5433691]}},{"type":"Feature","properties":{"station_id":"n2832938185","station_name":"Munirka","station_name_local":"Munirka","network":"Delhi Metro","network_local":"Delhi Metro","operator":"Delhi Metro Rail Corporation Limited","city":"Delhi","country":"India","lines":["8"],"wikidata":"Q28172590"},"geometry":{"type":"Point","coordinates":[77.1750592,28.5568967]}},{"type":"Feature","properties":{"station_id":"n2832938187","station_name":"Sukhdev Vihar","station_name_local":"Sukhdev Vihar","network":"Delhi Metro","network_local":"Delhi Metro","operator":"Delhi Metro Rail Corporation Limited","city":"Delhi","country":"India","lines":["8"],"wikidata":"Q28172610"},"geometry":{"type":"Point","coordinates":[77.2749004,28.5597477]}},{"type":"Feature","properties":{"station_id":"n2832938196","station_name":"Vasant Vihar","station_name_local":"Vasant Vihar","network":"Delhi Metro","network_local":"Delhi Metro","operator":"Delhi Metro Rail Corporation Limited","city":"Delhi","country":"India","lines":["8"],"wikidata":"Q28172570"},"geometry":{"type":"Point","coordinates":[77.1611168,28.557827]}},{"type":"Feature","properties":{"station_id":"n2832938301","station_name":"Shankar Vihar","station_name_local":"Shankar Vihar","network":"Delhi Metro","network_local":"Delhi Metro","operator":"Delhi Metro Rail Corporation Limited","city":"Delhi","country":"India","lines":["8"],"wikidata":null},"geometry":{"type":"Point","coordinates":[77.1402814,28.5608462]}},{"type":"Feature","properties":{"station_id":"n2832938307","station_name":"Sadar Bazar Cantonment","station_name_local":"Sadar Bazar Cantonment","network":"Delhi Metro","network_local":"Delhi Metro","operator":"Delhi Metro Rail Corporation Limited","city":"Delhi","country":"India","lines":["8"],"wikidata":null},"geometry":{"type":"Point","coordinates":[77.1111279,28.5771145]}},{"type":"Feature","properties":{"station_id":"n2832938323","station_name":"Palam","station_name_local":"Palam","network":"Delhi Metro","network_local":"Delhi Metro","operator":"Delhi Metro Rail Corporation Limited","city":"Delhi","country":"India","lines":["8"],"wikidata":"Q20718091"},"geometry":{"type":"Point","coordinates":[77.0830764,28.5889102]}},{"type":"Feature","properties":{"station_id":"n2832938324","station_name":"Dashrath Puri","station_name_local":"Dashrath Puri","network":"Delhi Metro","network_local":"Delhi Metro","operator":"Delhi Metro Rail Corporation Limited","city":"Delhi","country":"India","lines":["8"],"wikidata":"Q28169938"},"geometry":{"type":"Point","coordinates":[77.0823751,28.60185]}},{"type":"Feature","properties":{"station_id":"n2832938329","station_name":"Janakpuri West","station_name_local":"Janakpuri West","network":"Delhi Metro","network_local":"Delhi Metro","operator":"Delhi Metro Rail Corporation Limited","city":"Delhi","country":"India","lines":["3;4","8"],"wikidata":"Q6150737","merged_from":2},"geometry":{"type":"Point","coordinates":[77.07801710000001,28.629265500000002]}},{"type":"Feature","properties":{"station_id":"n2833058715","station_name":"Okhla Bird Sanctuary","station_name_local":"Okhla Bird Sanctuary","network":"Delhi Metro","network_local":"Delhi Metro","operator":"Delhi Metro Rail Corporation Limited","city":"Delhi","country":"India","lines":["8"],"wikidata":"Q28172616","merged_from":2},"geometry":{"type":"Point","coordinates":[77.3215792,28.552931700000002]}},{"type":"Feature","properties":{"station_id":"n2833058716","station_name":"Greater Kailash","station_name_local":"Greater Kailash","network":"Delhi Metro","network_local":"Delhi Metro","operator":"Delhi Metro Rail Corporation Limited","city":"Delhi","country":"India","lines":["8"],"wikidata":"Q28169988"},"geometry":{"type":"Point","coordinates":[77.2384925,28.5419077]}},{"type":"Feature","properties":{"station_id":"n2833058718","station_name":"Kalindi Kunj","station_name_local":"Kalindi Kunj","network":"Delhi Metro","network_local":"Delhi Metro","operator":"Delhi Metro Rail Corporation Limited","city":"Delhi","country":"India","lines":["8"],"wikidata":"Q28169996"},"geometry":{"type":"Point","coordinates":[77.3101107,28.542916]}},{"type":"Feature","properties":{"station_id":"n2833058720","station_name":"Okhla Vihar","station_name_local":"Okhla Vihar","network":"Delhi Metro","network_local":"Delhi Metro","operator":"Delhi Metro Rail Corporation Limited","city":"Delhi","country":"India","lines":["8"],"wikidata":"Q28172613"},"geometry":{"type":"Point","coordinates":[77.291877,28.5612999]}},{"type":"Feature","properties":{"station_id":"n2833058721","station_name":"Panchsheel Park","station_name_local":"Panchsheel Park","network":"Delhi Metro","network_local":"Delhi Metro","operator":"Delhi Metro Rail Corporation Limited","city":"Delhi","country":"India","lines":["8"],"wikidata":"Q28172601"},"geometry":{"type":"Point","coordinates":[77.2210916,28.5423747]}},{"type":"Feature","properties":{"station_id":"n2833058722","station_name":"R. K. Puram","station_name_local":"R. K. Puram","network":"Delhi Metro","network_local":"Delhi Metro","operator":"Delhi Metro Rail Corporation Limited","city":"Delhi","country":"India","lines":["8"],"wikidata":"Q28172592"},"geometry":{"type":"Point","coordinates":[77.1855231,28.5503805]}},{"type":"Feature","properties":{"station_id":"n2833058723","station_name":"Jasola Vihar Shaheen Bagh","station_name_local":"Jasola Vihar Shaheen Bagh","network":"Delhi Metro","network_local":"Delhi Metro","operator":"Delhi Metro Rail Corporation Limited","city":"Delhi","country":"India","lines":["8"],"wikidata":"Q28169995"},"geometry":{"type":"Point","coordinates":[77.2966578,28.5458279]}},{"type":"Feature","properties":{"station_id":"n2833058750","station_name":"Botanical Garden (Magenta Line)","station_name_local":"Botanical Garden (Magenta Line)","network":"Delhi Metro","network_local":"Delhi Metro","operator":"Delhi Metro Rail Corporation Limited","city":"Delhi","country":"India","lines":["8"],"wikidata":"Q4948436"},"geometry":{"type":"Point","coordinates":[77.3338373,28.5639051]}},{"type":"Feature","properties":{"station_id":"n2833058753","station_name":"Terminal 1 IGI Airport","station_name_local":"Terminal 1 IGI Airport","network":"Delhi Metro","network_local":"Delhi Metro","operator":"Delhi Metro Rail Corporation Limited","city":"Delhi","country":"India","lines":["8"],"wikidata":"Q28172567"},"geometry":{"type":"Point","coordinates":[77.1226566,28.564835]}},{"type":"Feature","properties":{"station_id":"n2833531907","station_name":"Trilokpuri Sanjay Lake","station_name_local":"Trilokpuri Sanjay Lake","network":"Delhi Metro","network_local":"Delhi Metro","operator":"Delhi Metro Rail Corporation Limited","city":"Delhi","country":"India","lines":["7"],"wikidata":"Q28172740"},"geometry":{"type":"Point","coordinates":[77.3088549,28.613453]}},{"type":"Feature","properties":{"station_id":"n2833971686","station_name":"Anand Vihar (Blue Line)","station_name_local":"Anand Vihar (Blue Line)","network":"Delhi Metro","network_local":"Delhi Metro","operator":"Delhi Metro Rail Corporation Limited","city":"Delhi","country":"India","lines":["3;4"],"wikidata":"Q4751288"},"geometry":{"type":"Point","coordinates":[77.3158749,28.6468336]}},{"type":"Feature","properties":{"station_id":"n2833971689","station_name":"Karkarduma (Pink Line)","station_name_local":"Karkarduma (Pink Line)","network":"Delhi Metro","network_local":"Delhi Metro","operator":"Delhi Metro Rail Corporation Limited","city":"Delhi","country":"India","lines":["7"],"wikidata":"Q6371278"},"geometry":{"type":"Point","coordinates":[77.3060686,28.6493434]}},{"type":"Feature","properties":{"station_id":"n2837147019","station_name":"Samaypur Badli","station_name_local":"Samaypur Badli","network":"Delhi Metro","network_local":"Delhi Metro","operator":"Delhi Metro Rail Corporation Limited","city":"Delhi","country":"India","lines":["2"],"wikidata":"Q21539950"},"geometry":{"type":"Point","coordinates":[77.1382701,28.7446411]}},{"type":"Feature","properties":{"station_id":"n2837147020","station_name":"Rohini Sector 18, 19","station_name_local":"Rohini Sector 18, 19","network":"Delhi Metro","network_local":"Delhi Metro","operator":"Delhi Metro Rail Corporation Limited","city":"Delhi","country":"India","lines":["2"],"wikidata":"Q26964763"},"geometry":{"type":"Point","coordinates":[77.1398526,28.7383795]}},{"type":"Feature","properties":{"station_id":"n3284155408","station_name":"Jamia Millia Islamia","station_name_local":"Jamia Millia Islamia","network":"Delhi Metro","network_local":"Delhi Metro","operator":"Delhi Metro Rail Corporation Limited","city":"Delhi","country":"India","lines":["8"],"wikidata":"Q28169993"},"geometry":{"type":"Point","coordinates":[77.2863387,28.5630488]}},{"type":"Feature","properties":{"station_id":"n3832323219","station_name":"Chirag Delhi","station_name_local":"Chirag Delhi","network":"Delhi Metro","network_local":"Delhi Metro","operator":"Delhi Metro Rail Corporation Limited","city":"Delhi","country":"India","lines":["8"],"wikidata":"Q28172603"},"geometry":{"type":"Point","coordinates":[77.2303164,28.5411108]}},{"type":"Feature","properties":{"station_id":"n3953773571","station_name":"DLF Phase 1","station_name_local":"DLF Phase 1","network":"Rapid Metro Gurgaon","network_local":"Rapid Metro Gurgaon","operator":"Haryana Mass Rapid Transport Corporation Limited","city":"Delhi","country":"India","lines":["RMGL"],"wikidata":null},"geometry":{"type":"Point","coordinates":[77.0939606,28.4714258]}},{"type":"Feature","properties":{"station_id":"n4676900918","station_name":"IP Extension","station_name_local":"IP Extension","network":"Delhi Metro","network_local":"Delhi Metro","operator":"Delhi Metro Rail Corporation Limited","city":"Delhi","country":"India","lines":["7"],"wikidata":"Q55421833"},"geometry":{"type":"Point","coordinates":[77.310718,28.6319032]}},{"type":"Feature","properties":{"station_id":"n4676900919","station_name":"Karkarduma Court","station_name_local":"Karkarduma Court","network":"Delhi Metro","network_local":"Delhi Metro","operator":"Delhi Metro Rail Corporation Limited","city":"Delhi","country":"India","lines":["7"],"wikidata":"Q28172856"},"geometry":{"type":"Point","coordinates":[77.2957877,28.6536001]}},{"type":"Feature","properties":{"station_id":"n4676900933","station_name":"East Vinod Nagar - Mayur Vihar - II","station_name_local":"East Vinod Nagar - Mayur Vihar - II","network":"Delhi Metro","network_local":"Delhi Metro","operator":"Delhi Metro Rail Corporation Limited","city":"Delhi","country":"India","lines":["7"],"wikidata":"Q30646922"},"geometry":{"type":"Point","coordinates":[77.3054069,28.6200437]}},{"type":"Feature","properties":{"station_id":"n4676901224","station_name":"Mandawali - West Vinod Nagar","station_name_local":"Mandawali - West Vinod Nagar","network":"Delhi Metro","network_local":"Delhi Metro","operator":"Delhi Metro Rail Corporation Limited","city":"Delhi","country":"India","lines":["7"],"wikidata":"Q55421849"},"geometry":{"type":"Point","coordinates":[77.3044525,28.624979]}},{"type":"Feature","properties":{"station_id":"n4950923222","station_name":"Noida Sector 51","station_name_local":"Noida Sector 51","network":"Noida Metro","network_local":"Noida Metro","operator":"NR","city":"Delhi","country":"India","lines":["Aqua Line"],"wikidata":"Q61445024","merged_from":2},"geometry":{"type":"Point","coordinates":[77.3752514,28.5857867]}},{"type":"Feature","properties":{"station_id":"n4951104873","station_name":"Hindon River","station_name_local":"Hindon River","network":"Delhi Metro","network_local":"Delhi Metro","operator":"Delhi Metro Rail Corporation Limited","city":"Delhi","country":"India","lines":["1"],"wikidata":"Q29467145"},"geometry":{"type":"Point","coordinates":[77.4065374,28.6734288]}},{"type":"Feature","properties":{"station_id":"n5215706475","station_name":"Deepali Chowk","station_name_local":"Deepali Chowk","network":"Delhi Metro","network_local":"Delhi Metro","operator":"Delhi Metro Rail Corporation Limited","city":"Delhi","country":"India","lines":["8"],"wikidata":null},"geometry":{"type":"Point","coordinates":[77.1182795,28.6981]}},{"type":"Feature","properties":{"station_id":"n5215706476","station_name":"Haiderpur Village","station_name_local":"Haiderpur Village","network":"Delhi Metro","network_local":"Delhi Metro","operator":"Delhi Metro Rail Corporation Limited","city":"Delhi","country":"India","lines":["8"],"wikidata":null},"geometry":{"type":"Point","coordinates":[77.142467,28.7248993]}},{"type":"Feature","properties":{"station_id":"n5215706525","station_name":"North Pitampura - Prashant Vihar","station_name_local":"North Pitampura - Prashant Vihar","network":"Delhi Metro","network_local":"Delhi Metro","operator":"Delhi Metro Rail Corporation Limited","city":"Delhi","country":"India","lines":["8"],"wikidata":null},"geometry":{"type":"Point","coordinates":[77.1387306,28.7130743]}},{"type":"Feature","properties":{"station_id":"n5215706542","station_name":"Bhalaswa","station_name_local":"Bhalaswa","network":"Delhi Metro","network_local":"Delhi Metro","operator":"Delhi Metro Rail Corporation Limited","city":"Delhi","country":"India","lines":["8"],"wikidata":null},"geometry":{"type":"Point","coordinates":[77.168087,28.7369574]}},{"type":"Feature","properties":{"station_id":"n5215706767","station_name":"Burari","station_name_local":"Burari","network":"Delhi Metro","network_local":"Delhi Metro","operator":"Delhi Metro Rail Corporation Limited","city":"Delhi","country":"India","lines":["7"],"wikidata":null},"geometry":{"type":"Point","coordinates":[77.1995697,28.7298286]}},{"type":"Feature","properties":{"station_id":"n5215706768","station_name":"Jagatpur - Wazirabad","station_name_local":"Jagatpur - Wazirabad","network":"Delhi Metro","network_local":"Delhi Metro","operator":"Delhi Metro Rail Corporation Limited","city":"Delhi","country":"India","lines":["7"],"wikidata":null},"geometry":{"type":"Point","coordinates":[77.223995,28.7211162]}},{"type":"Feature","properties":{"station_id":"n5215706769","station_name":"Khajuri Khas","station_name_local":"Khajuri Khas","network":"Delhi Metro","network_local":"Delhi Metro","operator":"Delhi Metro Rail Corporation Limited","city":"Delhi","country":"India","lines":["7"],"wikidata":null},"geometry":{"type":"Point","coordinates":[77.2544989,28.7052606]}},{"type":"Feature","properties":{"station_id":"n5215706770","station_name":"Yamuna Vihar","station_name_local":"Yamuna Vihar","network":"Delhi Metro","network_local":"Delhi Metro","operator":"Delhi Metro Rail Corporation Limited","city":"Delhi","country":"India","lines":["7"],"wikidata":null},"geometry":{"type":"Point","coordinates":[77.2773106,28.7023762]}},{"type":"Feature","properties":{"station_id":"n5215706782","station_name":"Bhajanpura","station_name_local":"Bhajanpura","network":"Delhi Metro","network_local":"Delhi Metro","operator":"Delhi Metro Rail Corporation Limited","city":"Delhi","country":"India","lines":["7"],"wikidata":null},"geometry":{"type":"Point","coordinates":[77.2626474,28.7035987]}},{"type":"Feature","properties":{"station_id":"n5215706793","station_name":"Soorghat","station_name_local":"Soorghat","network":"Delhi Metro","network_local":"Delhi Metro","operator":"Delhi Metro Rail Corporation Limited","city":"Delhi","country":"India","lines":["7"],"wikidata":null},"geometry":{"type":"Point","coordinates":[77.2274526,28.7102223]}},{"type":"Feature","properties":{"station_id":"n5397665618","station_name":"Haiderpur Badli Mor","station_name_local":"Haiderpur Badli Mor","network":"Delhi Metro","network_local":"Delhi Metro","operator":"Delhi Metro Rail Corporation Limited","city":"Delhi","country":"India","lines":["8"],"wikidata":"Q26964765"},"geometry":{"type":"Point","coordinates":[77.1491044,28.7299398]}},{"type":"Feature","properties":{"station_id":"n5453646586","station_name":"Central Secretariat","station_name_local":"Central Secretariat","network":"Delhi Metro","network_local":"Delhi Metro","operator":"Delhi Metro Rail Corporation Limited","city":"Delhi","country":"India","lines":["2"],"wikidata":"Q5061812"},"geometry":{"type":"Point","coordinates":[77.2122822,28.6158794]}},{"type":"Feature","properties":{"station_id":"n5737168025","station_name":"Dwarka Sector 11","station_name_local":"Dwarka Sector 11","network":"Delhi Metro","network_local":"Delhi Metro","operator":"Delhi Metro Rail Corporation Limited","city":"Delhi","country":"India","lines":["3;4"],"wikidata":"Q5317945"},"geometry":{"type":"Point","coordinates":[77.0494433,28.586443]}},{"type":"Feature","properties":{"station_id":"n5781445033","station_name":"Rajendra Place","station_name_local":"Rajendra Place","network":"Delhi Metro","network_local":"Delhi Metro","operator":"Delhi Metro Rail Corporation Limited","city":"Delhi","country":"India","lines":["3;4"],"wikidata":"Q7286033"},"geometry":{"type":"Point","coordinates":[77.1782756,28.6424955]}},{"type":"Feature","properties":{"station_id":"n5795235047","station_name":"Nehru Enclave","station_name_local":"Nehru Enclave","network":"Delhi Metro","network_local":"Delhi Metro","operator":"Delhi Metro Rail Corporation Limited","city":"Delhi","country":"India","lines":["8"],"wikidata":"Q28172606"},"geometry":{"type":"Point","coordinates":[77.2515057,28.5460584]}},{"type":"Feature","properties":{"station_id":"n6049373291","station_name":"Shiv Vihar","station_name_local":"Shiv Vihar","network":"Delhi Metro","network_local":"Delhi Metro","operator":"Delhi Metro Rail Corporation Limited","city":"Delhi","country":"India","lines":["7"],"wikidata":null},"geometry":{"type":"Point","coordinates":[77.2894599,28.721381]}},{"type":"Feature","properties":{"station_id":"n6049373292","station_name":"Johri Enclave","station_name_local":"Johri Enclave","network":"Delhi Metro","network_local":"Delhi Metro","operator":"Delhi Metro Rail Corporation Limited","city":"Delhi","country":"India","lines":["7"],"wikidata":"Q28172729"},"geometry":{"type":"Point","coordinates":[77.2901293,28.7128806]}},{"type":"Feature","properties":{"station_id":"n6049373293","station_name":"Gokulpuri","station_name_local":"Gokulpuri","network":"Delhi Metro","network_local":"Delhi Metro","operator":"Delhi Metro Rail Corporation Limited","city":"Delhi","country":"India","lines":["7"],"wikidata":"Q28172730"},"geometry":{"type":"Point","coordinates":[77.2861253,28.7024752]}},{"type":"Feature","properties":{"station_id":"n6049373294","station_name":"Maujpur-Babarpur","station_name_local":"Maujpur-Babarpur","network":"Delhi Metro","network_local":"Delhi Metro","operator":"Delhi Metro Rail Corporation Limited","city":"Delhi","country":"India","lines":["7"],"wikidata":"Q28172749"},"geometry":{"type":"Point","coordinates":[77.2796973,28.6920781]}},{"type":"Feature","properties":{"station_id":"n6049373295","station_name":"Jaffrabad","station_name_local":"Jaffrabad","network":"Delhi Metro","network_local":"Delhi Metro","operator":"Delhi Metro Rail Corporation Limited","city":"Delhi","country":"India","lines":["7"],"wikidata":"Q28172732"},"geometry":{"type":"Point","coordinates":[77.2748055,28.6826822]}},{"type":"Feature","properties":{"station_id":"n6049373296","station_name":"Welcome (Pink Line)","station_name_local":"Welcome (Pink Line)","network":"Delhi Metro","network_local":"Delhi Metro","operator":"Delhi Metro Rail Corporation Limited","city":"Delhi","country":"India","lines":["7"],"wikidata":"Q11288582"},"geometry":{"type":"Point","coordinates":[77.2770239,28.6724018]}},{"type":"Feature","properties":{"station_id":"n6049373297","station_name":"East Azad Nagar","station_name_local":"East Azad Nagar","network":"Delhi Metro","network_local":"Delhi Metro","operator":"Delhi Metro Rail Corporation Limited","city":"Delhi","country":"India","lines":["7"],"wikidata":"Q28172733","merged_from":2},"geometry":{"type":"Point","coordinates":[77.2848243,28.664749999999998]}},{"type":"Feature","properties":{"station_id":"n6049373298","station_name":"Krishna Nagar","station_name_local":"Krishna Nagar","network":"Delhi Metro","network_local":"Delhi Metro","operator":"Delhi Metro Rail Corporation Limited","city":"Delhi","country":"India","lines":["7"],"wikidata":"Q28178869"},"geometry":{"type":"Point","coordinates":[77.2901199,28.6578127]}},{"type":"Feature","properties":{"station_id":"n6179179025","station_name":"Saket","station_name_local":"Saket","network":"Delhi Metro","network_local":"Delhi Metro","operator":"Delhi Metro Rail Corporation Limited","city":"Delhi","country":"India","lines":["2"],"wikidata":"Q7402900"},"geometry":{"type":"Point","coordinates":[77.2022237,28.521168]}},{"type":"Feature","properties":{"station_id":"n6196100475","station_name":"Majlis Park","station_name_local":"Majlis Park","network":"Delhi Metro","network_local":"Delhi Metro","operator":"Delhi Metro Rail Corporation Limited","city":"Delhi","country":"India","lines":["7"],"wikidata":"Q28172619"},"geometry":{"type":"Point","coordinates":[77.1818406,28.724403]}},{"type":"Feature","properties":{"station_id":"n6196100477","station_name":"Vinobapuri","station_name_local":"Vinobapuri","network":"Delhi Metro","network_local":"Delhi Metro","operator":"Delhi Metro Rail Corporation Limited","city":"Delhi","country":"India","lines":["7"],"wikidata":"Q28172738"},"geometry":{"type":"Point","coordinates":[77.2492973,28.565871]}},{"type":"Feature","properties":{"station_id":"n6196100478","station_name":"Mayur Vihar - I (Pink Line)","station_name_local":"Mayur Vihar - I (Pink Line)","network":"Delhi Metro","network_local":"Delhi Metro","operator":"Delhi Metro Rail Corporation Limited","city":"Delhi","country":"India","lines":["7"],"wikidata":"Q6798106"},"geometry":{"type":"Point","coordinates":[77.2909319,28.6036425]}},{"type":"Feature","properties":{"station_id":"n6196100479","station_name":"Shree Ram Mandir Mayur Vihar","station_name_local":"Shree Ram Mandir Mayur Vihar","network":"Delhi Metro","network_local":"Delhi Metro","operator":"Delhi Metro Rail Corporation Limited","city":"Delhi","country":"India","lines":["7"],"wikidata":null},"geometry":{"type":"Point","coordinates":[77.2987023,28.6058619]}},{"type":"Feature","properties":{"station_id":"n6196100480","station_name":"Sarai Kale Khan - Nizamuddin","station_name_local":"Sarai Kale Khan - Nizamuddin","network":"Delhi Metro","network_local":"Delhi Metro","operator":"Delhi Metro Rail Corporation Limited","city":"Delhi","country":"India","lines":["7"],"wikidata":"Q28172665"},"geometry":{"type":"Point","coordinates":[77.2572494,28.5887494]}},{"type":"Feature","properties":{"station_id":"n6196100481","station_name":"Ashram","station_name_local":"Ashram","network":"Delhi Metro","network_local":"Delhi Metro","operator":"Delhi Metro Rail Corporation Limited","city":"Delhi","country":"India","lines":["7"],"wikidata":"Q28172734"},"geometry":{"type":"Point","coordinates":[77.2585979,28.5724231]}},{"type":"Feature","properties":{"station_id":"n6397652315","station_name":"Arthala","station_name_local":"Arthala","network":"Delhi Metro","network_local":"Delhi Metro","operator":"Delhi Metro Rail Corporation Limited","city":"Delhi","country":"India","lines":["1"],"wikidata":"Q29467143"},"geometry":{"type":"Point","coordinates":[77.3918919,28.676999]}},{"type":"Feature","properties":{"station_id":"n6397652316","station_name":"Shaheed Nagar","station_name_local":"Shaheed Nagar","network":"Delhi Metro","network_local":"Delhi Metro","operator":"Delhi Metro Rail Corporation Limited","city":"Delhi","country":"India","lines":["1"],"wikidata":"Q29025782"},"geometry":{"type":"Point","coordinates":[77.3339154,28.6766619]}},{"type":"Feature","properties":{"station_id":"n6397652318","station_name":"Mohan Nagar","station_name_local":"Mohan Nagar","network":"Delhi Metro","network_local":"Delhi Metro","operator":"Delhi Metro Rail Corporation Limited","city":"Delhi","country":"India","lines":["1"],"wikidata":"Q29025805"},"geometry":{"type":"Point","coordinates":[77.3840026,28.6785372]}},{"type":"Feature","properties":{"station_id":"n6397652319","station_name":"Shyam Park","station_name_local":"Shyam Park","network":"Delhi Metro","network_local":"Delhi Metro","operator":"Delhi Metro Rail Corporation Limited","city":"Delhi","country":"India","lines":["1"],"wikidata":"Q29025803"},"geometry":{"type":"Point","coordinates":[77.3706454,28.6782281]}},{"type":"Feature","properties":{"station_id":"n6397652320","station_name":"Rajendra Nagar","station_name_local":"Rajendra Nagar","network":"Delhi Metro","network_local":"Delhi Metro","operator":"Delhi Metro Rail Corporation Limited","city":"Delhi","country":"India","lines":["1"],"wikidata":null},"geometry":{"type":"Point","coordinates":[77.3581426,28.6776112]}},{"type":"Feature","properties":{"station_id":"n6397652321","station_name":"Raj Bagh","station_name_local":"Raj Bagh","network":"Delhi Metro","network_local":"Delhi Metro","operator":"Delhi Metro Rail Corporation Limited","city":"Delhi","country":"India","lines":["1"],"wikidata":"Q29025799","merged_from":2},"geometry":{"type":"Point","coordinates":[77.34662775,28.6771891]}},{"type":"Feature","properties":{"station_id":"n6453544485","station_name":"Sir M. Vishweshwaraiah Moti Bagh","station_name_local":"Sir M. Vishweshwaraiah Moti Bagh","network":"Delhi Metro","network_local":"Delhi Metro","operator":"Delhi Metro Rail Corporation Limited","city":"Delhi","country":"India","lines":["7"],"wikidata":"Q30591952"},"geometry":{"type":"Point","coordinates":[77.175741,28.5785326]}},{"type":"Feature","properties":{"station_id":"n6453544486","station_name":"Bhikaji Cama Place","station_name_local":"Bhikaji Cama Place","network":"Delhi Metro","network_local":"Delhi Metro","operator":"Delhi Metro Rail Corporation Limited","city":"Delhi","country":"India","lines":["7"],"wikidata":"Q28172666"},"geometry":{"type":"Point","coordinates":[77.1878709,28.5702618]}},{"type":"Feature","properties":{"station_id":"n6453544487","station_name":"Dilli Haat - INA (Pink Line)","station_name_local":"Dilli Haat - INA (Pink Line)","network":"Delhi Metro","network_local":"Delhi Metro","operator":"Delhi Metro Rail Corporation Limited","city":"Delhi","country":"India","lines":["7"],"wikidata":"Q17055892"},"geometry":{"type":"Point","coordinates":[77.2075857,28.5736524]}},{"type":"Feature","properties":{"station_id":"n6453544488","station_name":"Lajpat Nagar (Pink Line)","station_name_local":"Lajpat Nagar (Pink Line)","network":"Delhi Metro","network_local":"Delhi Metro","operator":"Delhi Metro Rail Corporation Limited","city":"Delhi","country":"India","lines":["7"],"wikidata":"Q6474492"},"geometry":{"type":"Point","coordinates":[77.2385055,28.56958]}},{"type":"Feature","properties":{"station_id":"n6453544489","station_name":"South Extension","station_name_local":"South Extension","network":"Delhi Metro","network_local":"Delhi Metro","operator":"Delhi Metro Rail Corporation Limited","city":"Delhi","country":"India","lines":["7"],"wikidata":"Q28172660"},"geometry":{"type":"Point","coordinates":[77.2205677,28.5685664]}},{"type":"Feature","properties":{"station_id":"n6453544492","station_name":"Mayapuri","station_name_local":"Mayapuri","network":"Delhi Metro","network_local":"Delhi Metro","operator":"Delhi Metro Rail Corporation Limited","city":"Delhi","country":"India","lines":["7"],"wikidata":"Q28172745"},"geometry":{"type":"Point","coordinates":[77.1297333,28.6371795]}},{"type":"Feature","properties":{"station_id":"n6453992648","station_name":"Rajouri Garden (Pink Line)","station_name_local":"Rajouri Garden (Pink Line)","network":"Delhi Metro","network_local":"Delhi Metro","operator":"Delhi Metro Rail Corporation Limited","city":"Delhi","country":"India","lines":["7"],"wikidata":"Q7286379"},"geometry":{"type":"Point","coordinates":[77.1242597,28.6511896]}},{"type":"Feature","properties":{"station_id":"n6453992649","station_name":"Rajouri Garden (Blue Line)","station_name_local":"Rajouri Garden (Blue Line)","network":"Delhi Metro","network_local":"Delhi Metro","operator":"Delhi Metro Rail Corporation Limited","city":"Delhi","country":"India","lines":["3;4"],"wikidata":"Q7286379"},"geometry":{"type":"Point","coordinates":[77.1227198,28.6490563]}},{"type":"Feature","properties":{"station_id":"n6453992650","station_name":"Netaji Subhash Place (Pink Line)","station_name_local":"Netaji Subhash Place (Pink Line)","network":"Delhi Metro","network_local":"Delhi Metro","operator":"Delhi Metro Rail Corporation Limited","city":"Delhi","country":"India","lines":["7"],"wikidata":"Q6998648"},"geometry":{"type":"Point","coordinates":[77.1542607,28.6947146]}},{"type":"Feature","properties":{"station_id":"n6453992651","station_name":"Azadpur (Pink Line)","station_name_local":"Azadpur (Pink Line)","network":"Delhi Metro","network_local":"Delhi Metro","operator":"Delhi Metro Rail Corporation Limited","city":"Delhi","country":"India","lines":["7"],"wikidata":"Q4832101"},"geometry":{"type":"Point","coordinates":[77.1819488,28.7057821]}},{"type":"Feature","properties":{"station_id":"n6453992652","station_name":"Azadpur (Yellow Line)","station_name_local":"Azadpur (Yellow Line)","network":"Delhi Metro","network_local":"Delhi Metro","operator":"Delhi Metro Rail Corporation Limited","city":"Delhi","country":"India","lines":["2"],"wikidata":"Q4832101"},"geometry":{"type":"Point","coordinates":[77.1803722,28.7070448]}},{"type":"Feature","properties":{"station_id":"n6453992653","station_name":"Dilli Haat - INA (Yellow Line)","station_name_local":"Dilli Haat - INA (Yellow Line)","network":"Delhi Metro","network_local":"Delhi Metro","operator":"Delhi Metro Rail Corporation Limited","city":"Delhi","country":"India","lines":["2"],"wikidata":"Q17055892"},"geometry":{"type":"Point","coordinates":[77.2093017,28.5741769]}},{"type":"Feature","properties":{"station_id":"n6453992654","station_name":"Lajpat Nagar (Violet Line)","station_name_local":"Lajpat Nagar (Violet Line)","network":"Delhi Metro","network_local":"Delhi Metro","operator":"Delhi Metro Rail Corporation Limited","city":"Delhi","country":"India","lines":["6"],"wikidata":"Q6474492"},"geometry":{"type":"Point","coordinates":[77.2364011,28.5705968]}},{"type":"Feature","properties":{"station_id":"n6454015469","station_name":"Anand Vihar (Pink Line)","station_name_local":"Anand Vihar (Pink Line)","network":"Delhi Metro","network_local":"Delhi Metro","operator":"Delhi Metro Rail Corporation Limited","city":"Delhi","country":"India","lines":["7"],"wikidata":"Q4751288"},"geometry":{"type":"Point","coordinates":[77.3155317,28.6466157]}},{"type":"Feature","properties":{"station_id":"n6458130120","station_name":"Karkarduma (Blue Line)","station_name_local":"Karkarduma (Blue Line)","network":"Delhi Metro","network_local":"Delhi Metro","operator":"Delhi Metro Rail Corporation Limited","city":"Delhi","country":"India","lines":["3;4"],"wikidata":"Q6371278"},"geometry":{"type":"Point","coordinates":[77.3055178,28.6483176]}},{"type":"Feature","properties":{"station_id":"n6458165644","station_name":"Delhi Cantt","station_name_local":"Delhi Cantt","network":"Delhi Metro","network_local":"Delhi Metro","operator":"Delhi Metro Rail Corporation Limited","city":"Delhi","country":"India","lines":["7"],"wikidata":"Q28172737"},"geometry":{"type":"Point","coordinates":[77.1404187,28.6086201]}},{"type":"Feature","properties":{"station_id":"n6458202840","station_name":"Shalimar Bagh","station_name_local":"Shalimar Bagh","network":"Delhi Metro","network_local":"Delhi Metro","operator":"Delhi Metro Rail Corporation Limited","city":"Delhi","country":"India","lines":["7"],"wikidata":"Q28172657"},"geometry":{"type":"Point","coordinates":[77.1654317,28.7019574]}},{"type":"Feature","properties":{"station_id":"n6458202841","station_name":"Shakurpur","station_name_local":"Shakurpur","network":"Delhi Metro","network_local":"Delhi Metro","operator":"Delhi Metro Rail Corporation Limited","city":"Delhi","country":"India","lines":["7"],"wikidata":"Q28172658"},"geometry":{"type":"Point","coordinates":[77.1496094,28.6857668]}},{"type":"Feature","properties":{"station_id":"n6458202842","station_name":"Sarojini Nagar","station_name_local":"Sarojini Nagar","network":"Delhi Metro","network_local":"Delhi Metro","operator":"Delhi Metro Rail Corporation Limited","city":"Delhi","country":"India","lines":["7"],"wikidata":"Q28172662"},"geometry":{"type":"Point","coordinates":[77.1980786,28.575817]}},{"type":"Feature","properties":{"station_id":"n6458202843","station_name":"Punjabi Bagh West","station_name_local":"Punjabi Bagh West","network":"Delhi Metro","network_local":"Delhi Metro","operator":"Delhi Metro Rail Corporation Limited","city":"Delhi","country":"India","lines":["7"],"wikidata":"Q28178866"},"geometry":{"type":"Point","coordinates":[77.1391976,28.6727671]}},{"type":"Feature","properties":{"station_id":"n6458202844","station_name":"Naraina Vihar","station_name_local":"Naraina Vihar","network":"Delhi Metro","network_local":"Delhi Metro","operator":"Delhi Metro Rail Corporation Limited","city":"Delhi","country":"India","lines":["7"],"wikidata":"Q28172747"},"geometry":{"type":"Point","coordinates":[77.1364438,28.6243852]}},{"type":"Feature","properties":{"station_id":"n6458202845","station_name":"ESI - Basaidarapur","station_name_local":"ESI - Basaidarapur","network":"Delhi Metro","network_local":"Delhi Metro","operator":"Delhi Metro Rail Corporation Limited","city":"Delhi","country":"India","lines":["7"],"wikidata":"Q28172735"},"geometry":{"type":"Point","coordinates":[77.1272678,28.6580737]}},{"type":"Feature","properties":{"station_id":"n6465991434","station_name":"Inderlok (Green Line)","station_name_local":"Inderlok (Green Line)","network":"Delhi Metro","network_local":"Delhi Metro","operator":"Delhi Metro Rail Corporation Limited","city":"Delhi","country":"India","lines":["5"],"wikidata":"Q4207366"},"geometry":{"type":"Point","coordinates":[77.1691872,28.6727066]}},{"type":"Feature","properties":{"station_id":"n6465991435","station_name":"Ashok Park Main","station_name_local":"Ashok Park Main","network":"Delhi Metro","network_local":"Delhi Metro","operator":"Delhi Metro Rail Corporation Limited","city":"Delhi","country":"India","lines":["5"],"wikidata":"Q4207354"},"geometry":{"type":"Point","coordinates":[77.155291,28.6716045]}},{"type":"Feature","properties":{"station_id":"n6465991436","station_name":"Punjabi Bagh","station_name_local":"Punjabi Bagh","network":"Delhi Metro","network_local":"Delhi Metro","operator":"Delhi Metro Rail Corporation Limited","city":"Delhi","country":"India","lines":["5"],"wikidata":"Q7141807"},"geometry":{"type":"Point","coordinates":[77.1461239,28.672995]}},{"type":"Feature","properties":{"station_id":"n6465991437","station_name":"Shivaji Park","station_name_local":"Shivaji Park","network":"Delhi Metro","network_local":"Delhi Metro","operator":"Delhi Metro Rail Corporation Limited","city":"Delhi","country":"India","lines":["5"],"wikidata":"Q7499286"},"geometry":{"type":"Point","coordinates":[77.1304722,28.6750317]}},{"type":"Feature","properties":{"station_id":"n6465991438","station_name":"Madipur","station_name_local":"Madipur","network":"Delhi Metro","network_local":"Delhi Metro","operator":"Delhi Metro Rail Corporation Limited","city":"Delhi","country":"India","lines":["5"],"wikidata":"Q6727807"},"geometry":{"type":"Point","coordinates":[77.1193599,28.6764752]}},{"type":"Feature","properties":{"station_id":"n6465991439","station_name":"Paschim Vihar East","station_name_local":"Paschim Vihar East","network":"Delhi Metro","network_local":"Delhi Metro","operator":"Delhi Metro Rail Corporation Limited","city":"Delhi","country":"India","lines":["5"],"wikidata":"Q20718098"},"geometry":{"type":"Point","coordinates":[77.1122823,28.6773563]}},{"type":"Feature","properties":{"station_id":"n6465991441","station_name":"Peera Garhi","station_name_local":"Peera Garhi","network":"Delhi Metro","network_local":"Delhi Metro","operator":"Delhi Metro Rail Corporation Limited","city":"Delhi","country":"India","lines":["5"],"wikidata":"Q7160416"},"geometry":{"type":"Point","coordinates":[77.0926793,28.6798074]}},{"type":"Feature","properties":{"station_id":"n6465991442","station_name":"Udyog Nagar","station_name_local":"Udyog Nagar","network":"Delhi Metro","network_local":"Delhi Metro","operator":"Delhi Metro Rail Corporation Limited","city":"Delhi","country":"India","lines":["5"],"wikidata":"Q7877393"},"geometry":{"type":"Point","coordinates":[77.0808492,28.681103]}},{"type":"Feature","properties":{"station_id":"n6465991443","station_name":"Surajmal Stadium","station_name_local":"Surajmal Stadium","network":"Delhi Metro","network_local":"Delhi Metro","operator":"Delhi Metro Rail Corporation Limited","city":"Delhi","country":"India","lines":["5"],"wikidata":"Q7645348"},"geometry":{"type":"Point","coordinates":[77.074,28.6818775]}},{"type":"Feature","properties":{"station_id":"n6465991444","station_name":"Nangloi","station_name_local":"Nangloi","network":"Delhi Metro","network_local":"Delhi Metro","operator":"Delhi Metro Rail Corporation Limited","city":"Delhi","country":"India","lines":["5"],"wikidata":"Q6963528"},"geometry":{"type":"Point","coordinates":[77.0647319,28.6824007]}},{"type":"Feature","properties":{"station_id":"n6465991445","station_name":"Nangloi Railway Station","station_name_local":"Nangloi Railway Station","network":"Delhi Metro","network_local":"Delhi Metro","operator":"Delhi Metro Rail Corporation Limited","city":"Delhi","country":"India","lines":["5"],"wikidata":"Q6963529"},"geometry":{"type":"Point","coordinates":[77.0562463,28.6822009]}},{"type":"Feature","properties":{"station_id":"n6465991446","station_name":"Rajdhani Park","station_name_local":"Rajdhani Park","network":"Delhi Metro","network_local":"Delhi Metro","operator":"Delhi Metro Rail Corporation Limited","city":"Delhi","country":"India","lines":["5"],"wikidata":"Q7285915"},"geometry":{"type":"Point","coordinates":[77.0439437,28.6823085]}},{"type":"Feature","properties":{"station_id":"n6465991447","station_name":"Mundka","station_name_local":"Mundka","network":"Delhi Metro","network_local":"Delhi Metro","operator":"Delhi Metro Rail Corporation Limited","city":"Delhi","country":"India","lines":["5"],"wikidata":"Q6935833"},"geometry":{"type":"Point","coordinates":[77.0305741,28.6824341]}},{"type":"Feature","properties":{"station_id":"n6465991448","station_name":"Mundka Industrial Area","station_name_local":"Mundka Industrial Area","network":"Delhi Metro","network_local":"Delhi Metro","operator":"Delhi Metro Rail Corporation Limited","city":"Delhi","country":"India","lines":["5"],"wikidata":"Q30591459"},"geometry":{"type":"Point","coordinates":[77.0171485,28.6833701]}},{"type":"Feature","properties":{"station_id":"n6465991449","station_name":"Ghevra","station_name_local":"Ghevra","network":"Delhi Metro","network_local":"Delhi Metro","operator":"Delhi Metro Rail Corporation Limited","city":"Delhi","country":"India","lines":["5"],"wikidata":"Q30591460"},"geometry":{"type":"Point","coordinates":[76.9961591,28.6852384]}},{"type":"Feature","properties":{"station_id":"n6465991450","station_name":"Tikri Kalan","station_name_local":"Tikri Kalan","network":"Delhi Metro","network_local":"Delhi Metro","operator":"Delhi Metro Rail Corporation Limited","city":"Delhi","country":"India","lines":["5"],"wikidata":"Q30591461"},"geometry":{"type":"Point","coordinates":[76.9772082,28.6868849]}},{"type":"Feature","properties":{"station_id":"n6465991451","station_name":"Tikri Border","station_name_local":"Tikri Border","network":"Delhi Metro","network_local":"Delhi Metro","operator":"Delhi Metro Rail Corporation Limited","city":"Delhi","country":"India","lines":["5"],"wikidata":"Q30591462"},"geometry":{"type":"Point","coordinates":[76.9640828,28.6880254]}},{"type":"Feature","properties":{"station_id":"n6465991452","station_name":"Pandit Shree Ram Sharma","station_name_local":"Pandit Shree Ram Sharma","network":"Delhi Metro","network_local":"Delhi Metro","operator":"Delhi Metro Rail Corporation Limited","city":"Delhi","country":"India","lines":["5"],"wikidata":"Q29025628"},"geometry":{"type":"Point","coordinates":[76.9511988,28.689281]}},{"type":"Feature","properties":{"station_id":"n6465991453","station_name":"Bahadurgarh City","station_name_local":"Bahadurgarh City","network":"Delhi Metro","network_local":"Delhi Metro","operator":"Delhi Metro Rail Corporation Limited","city":"Delhi","country":"India","lines":["5"],"wikidata":"Q29025630"},"geometry":{"type":"Point","coordinates":[76.9354807,28.6907783]}},{"type":"Feature","properties":{"station_id":"n6465991454","station_name":"Brigadier Hoshiyar Singh","station_name_local":"Brigadier Hoshiyar Singh","network":"Delhi Metro","network_local":"Delhi Metro","operator":"Delhi Metro Rail Corporation Limited","city":"Delhi","country":"India","lines":["5"],"wikidata":"Q29025631"},"geometry":{"type":"Point","coordinates":[76.9192027,28.6974603]}},{"type":"Feature","properties":{"station_id":"n6485904396","station_name":"IIT Delhi","station_name_local":"IIT Delhi","network":"Delhi Metro","network_local":"Delhi Metro","operator":"Delhi Metro Rail Corporation Limited","city":"Delhi","country":"India","lines":["8"],"wikidata":"Q28169973"},"geometry":{"type":"Point","coordinates":[77.1945546,28.5470121]}},{"type":"Feature","properties":{"station_id":"n6537193575","station_name":"Indraprastha","station_name_local":"Indraprastha","network":"Delhi Metro","network_local":"Delhi Metro","operator":"Delhi Metro Rail Corporation Limited","city":"Delhi","country":"India","lines":["3;4"],"wikidata":"Q6026956"},"geometry":{"type":"Point","coordinates":[77.249551,28.6206019]}},{"type":"Feature","properties":{"station_id":"n6537193576","station_name":"Yamuna Bank","station_name_local":"Yamuna Bank","network":"Delhi Metro","network_local":"Delhi Metro","operator":"Delhi Metro Rail Corporation Limited","city":"Delhi","country":"India","lines":["3;4"],"wikidata":"Q12525001"},"geometry":{"type":"Point","coordinates":[77.268013,28.6233124]}},{"type":"Feature","properties":{"station_id":"n6537196022","station_name":"New Ashok Nagar","station_name_local":"New Ashok Nagar","network":"Delhi Metro","network_local":"Delhi Metro","operator":"Delhi Metro Rail Corporation Limited","city":"Delhi","country":"India","lines":["3;4"],"wikidata":"Q7005382"},"geometry":{"type":"Point","coordinates":[77.3015085,28.5890885]}},{"type":"Feature","properties":{"station_id":"n6537260850","station_name":"Noida City Centre","station_name_local":"Noida City Centre","network":"Delhi Metro","network_local":"Delhi Metro","operator":"Delhi Metro Rail Corporation Limited","city":"Delhi","country":"India","lines":["3;4"],"wikidata":"Q4207094"},"geometry":{"type":"Point","coordinates":[77.3561638,28.5747334]}},{"type":"Feature","properties":{"station_id":"n6537268384","station_name":"Noida Golf Course","station_name_local":"Noida Golf Course","network":"Delhi Metro","network_local":"Delhi Metro","operator":"Delhi Metro Rail Corporation Limited","city":"Delhi","country":"India","lines":["3;4"],"wikidata":"Q7047598"},"geometry":{"type":"Point","coordinates":[77.3463247,28.5673755]}},{"type":"Feature","properties":{"station_id":"n6537285485","station_name":"Botanical Garden (Blue Line)","station_name_local":"Botanical Garden (Blue Line)","network":"Delhi Metro","network_local":"Delhi Metro","operator":"Delhi Metro Rail Corporation Limited","city":"Delhi","country":"India","lines":["3;4"],"wikidata":"Q4948436"},"geometry":{"type":"Point","coordinates":[77.3343995,28.5639434]}},{"type":"Feature","properties":{"station_id":"n6537285486","station_name":"Noida Sector 18","station_name_local":"Noida Sector 18","network":"Delhi Metro","network_local":"Delhi Metro","operator":"Delhi Metro Rail Corporation Limited","city":"Delhi","country":"India","lines":["3;4"],"wikidata":"Q7047605"},"geometry":{"type":"Point","coordinates":[77.3260756,28.5707583]}},{"type":"Feature","properties":{"station_id":"n6537285487","station_name":"Noida Sector 16","station_name_local":"Noida Sector 16","network":"Delhi Metro","network_local":"Delhi Metro","operator":"Delhi Metro Rail Corporation Limited","city":"Delhi","country":"India","lines":["3;4"],"wikidata":"Q7047602"},"geometry":{"type":"Point","coordinates":[77.3177778,28.578081]}},{"type":"Feature","properties":{"station_id":"n6537285488","station_name":"Noida Sector 15","station_name_local":"Noida Sector 15","network":"Delhi Metro","network_local":"Delhi Metro","operator":"Delhi Metro Rail Corporation Limited","city":"Delhi","country":"India","lines":["3;4"],"wikidata":"Q11325617"},"geometry":{"type":"Point","coordinates":[77.3116118,28.5848835]}},{"type":"Feature","properties":{"station_id":"n6539745133","station_name":"Mayur Vihar - I (Blue Line)","station_name_local":"Mayur Vihar - I (Blue Line)","network":"Delhi Metro","network_local":"Delhi Metro","operator":"Delhi Metro Rail Corporation Limited","city":"Delhi","country":"India","lines":["3;4"],"wikidata":"Q6798106"},"geometry":{"type":"Point","coordinates":[77.2895398,28.604064]}},{"type":"Feature","properties":{"station_id":"n6539894848","station_name":"Dwarka Sector 12","station_name_local":"Dwarka Sector 12","network":"Delhi Metro","network_local":"Delhi Metro","operator":"Delhi Metro Rail Corporation Limited","city":"Delhi","country":"India","lines":["3;4"],"wikidata":"Q5317946"},"geometry":{"type":"Point","coordinates":[77.0407315,28.5922362]}},{"type":"Feature","properties":{"station_id":"n6539894849","station_name":"Jhandewalan","station_name_local":"Jhandewalan","network":"Delhi Metro","network_local":"Delhi Metro","operator":"Delhi Metro Rail Corporation Limited","city":"Delhi","country":"India","lines":["3;4"],"wikidata":"Q6190836"},"geometry":{"type":"Point","coordinates":[77.1999165,28.6443188]}},{"type":"Feature","properties":{"station_id":"n6539894850","station_name":"Ramakrishna Ashram Marg","station_name_local":"Ramakrishna Ashram Marg","network":"Delhi Metro","network_local":"Delhi Metro","operator":"Delhi Metro Rail Corporation Limited","city":"Delhi","country":"India","lines":["3;4"],"wikidata":"Q7288800"},"geometry":{"type":"Point","coordinates":[77.2085787,28.6392436]}},{"type":"Feature","properties":{"station_id":"n6539894851","station_name":"Rajiv Chowk","station_name_local":"Rajiv Chowk","network":"Delhi Metro","network_local":"Delhi Metro","operator":"Delhi Metro Rail Corporation Limited","city":"Delhi","country":"India","lines":["2","3;4"],"wikidata":"Q7286183","merged_from":2},"geometry":{"type":"Point","coordinates":[77.2195054,28.6327424]}},{"type":"Feature","properties":{"station_id":"n6539894855","station_name":"Barakhambha Road","station_name_local":"Barakhambha Road","network":"Delhi Metro","network_local":"Delhi Metro","operator":"Delhi Metro Rail Corporation Limited","city":"Delhi","country":"India","lines":["3;4"],"wikidata":"Q4858265"},"geometry":{"type":"Point","coordinates":[77.2250046,28.6297676]}},{"type":"Feature","properties":{"station_id":"n6539894856","station_name":"Mandi House","station_name_local":"Mandi House","network":"Delhi Metro","network_local":"Delhi Metro","operator":"Delhi Metro Rail Corporation Limited","city":"Delhi","country":"India","lines":["3;4","6"],"wikidata":"Q6748047","merged_from":2},"geometry":{"type":"Point","coordinates":[77.2341946,28.62556355]}},{"type":"Feature","properties":{"station_id":"n6539894857","station_name":"Supreme Court","station_name_local":"Supreme Court","network":"Delhi Metro","network_local":"Delhi Metro","operator":"Delhi Metro Rail Corporation Limited","city":"Delhi","country":"India","lines":["3;4"],"wikidata":"Q7237614"},"geometry":{"type":"Point","coordinates":[77.2425278,28.6234752]}},{"type":"Feature","properties":{"station_id":"n6539894859","station_name":"Dwarka Sector 10","station_name_local":"Dwarka Sector 10","network":"Delhi Metro","network_local":"Delhi Metro","operator":"Delhi Metro Rail Corporation Limited","city":"Delhi","country":"India","lines":["3;4"],"wikidata":"Q5317944"},"geometry":{"type":"Point","coordinates":[77.0574996,28.5810577]}},{"type":"Feature","properties":{"station_id":"n6539894860","station_name":"Dwarka Sector 9","station_name_local":"Dwarka Sector 9","network":"Delhi Metro","network_local":"Delhi Metro","operator":"Delhi Metro Rail Corporation Limited","city":"Delhi","country":"India","lines":["3;4"],"wikidata":"Q5317951"},"geometry":{"type":"Point","coordinates":[77.0653316,28.574272]}},{"type":"Feature","properties":{"station_id":"n6539894861","station_name":"Dwarka Sector 8","station_name_local":"Dwarka Sector 8","network":"Delhi Metro","network_local":"Delhi Metro","operator":"Delhi Metro Rail Corporation Limited","city":"Delhi","country":"India","lines":["3;4"],"wikidata":"Q5317949"},"geometry":{"type":"Point","coordinates":[77.0670366,28.5656109]}},{"type":"Feature","properties":{"station_id":"n6539894862","station_name":"Dwarka Sector 21","station_name_local":"Dwarka Sector 21","network":"Delhi Metro","network_local":"Delhi Metro","operator":"Delhi Metro Rail Corporation Limited","city":"Delhi","country":"India","lines":["3;4"],"wikidata":"Q5317950"},"geometry":{"type":"Point","coordinates":[77.0585605,28.5519218]}},{"type":"Feature","properties":{"station_id":"n6539894863","station_name":"Noida Sector 62","station_name_local":"Noida Sector 62","network":"Delhi Metro","network_local":"Delhi Metro","operator":"Delhi Metro Rail Corporation Limited","city":"Delhi","country":"India","lines":["3;4"],"wikidata":"Q55625349"},"geometry":{"type":"Point","coordinates":[77.3735885,28.6169861]}},{"type":"Feature","properties":{"station_id":"n6539894864","station_name":"Noida Sector 59","station_name_local":"Noida Sector 59","network":"Delhi Metro","network_local":"Delhi Metro","operator":"Delhi Metro Rail Corporation Limited","city":"Delhi","country":"India","lines":["3;4"],"wikidata":null},"geometry":{"type":"Point","coordinates":[77.3726828,28.6065279]}},{"type":"Feature","properties":{"station_id":"n6539894865","station_name":"Noida Sector 61","station_name_local":"Noida Sector 61","network":"Delhi Metro","network_local":"Delhi Metro","operator":"Delhi Metro Rail Corporation Limited","city":"Delhi","country":"India","lines":["3;4"],"wikidata":"Q28169401"},"geometry":{"type":"Point","coordinates":[77.3722663,28.5975854]}},{"type":"Feature","properties":{"station_id":"n6539894866","station_name":"Noida Sector 52","station_name_local":"Noida Sector 52","network":"Delhi Metro","network_local":"Delhi Metro","operator":"Delhi Metro Rail Corporation Limited","city":"Delhi","country":"India","lines":["3;4"],"wikidata":"Q28169402","merged_from":2},"geometry":{"type":"Point","coordinates":[77.37277565,28.58674925]}},{"type":"Feature","properties":{"station_id":"n6539894867","station_name":"Noida Sector 34","station_name_local":"Noida Sector 34","network":"Delhi Metro","network_local":"Delhi Metro","operator":"Delhi Metro Rail Corporation Limited","city":"Delhi","country":"India","lines":["3;4"],"wikidata":"Q28169403"},"geometry":{"type":"Point","coordinates":[77.3634917,28.5802538]}},{"type":"Feature","properties":{"station_id":"n6539894868","station_name":"Noida Electronic City","station_name_local":"Noida Electronic City","network":"Delhi Metro","network_local":"Delhi Metro","operator":"Delhi Metro Rail Corporation Limited","city":"Delhi","country":"India","lines":["3;4"],"wikidata":"Q39049185"},"geometry":{"type":"Point","coordinates":[77.3750033,28.6282627]}},{"type":"Feature","properties":{"station_id":"n6541854250","station_name":"Uttam Nagar East","station_name_local":"Uttam Nagar East","network":"Delhi Metro","network_local":"Delhi Metro","operator":"Delhi Metro Rail Corporation Limited","city":"Delhi","country":"India","lines":["3;4"],"wikidata":"Q11288933"},"geometry":{"type":"Point","coordinates":[77.0652861,28.6248465]}},{"type":"Feature","properties":{"station_id":"n6541854251","station_name":"Uttam Nagar West","station_name_local":"Uttam Nagar West","network":"Delhi Metro","network_local":"Delhi Metro","operator":"Delhi Metro Rail Corporation Limited","city":"Delhi","country":"India","lines":["3;4"],"wikidata":"Q11288937"},"geometry":{"type":"Point","coordinates":[77.0557122,28.621757]}},{"type":"Feature","properties":{"station_id":"n6541854252","station_name":"Nawada","station_name_local":"Nawada","network":"Delhi Metro","network_local":"Delhi Metro","operator":"Delhi Metro Rail Corporation Limited","city":"Delhi","country":"India","lines":["3;4"],"wikidata":"Q6982809"},"geometry":{"type":"Point","coordinates":[77.0450787,28.6202758]}},{"type":"Feature","properties":{"station_id":"n6541854253","station_name":"Dwarka Mor","station_name_local":"Dwarka Mor","network":"Delhi Metro","network_local":"Delhi Metro","operator":"Delhi Metro Rail Corporation Limited","city":"Delhi","country":"India","lines":["3;4"],"wikidata":"Q5317939"},"geometry":{"type":"Point","coordinates":[77.0332792,28.61931]}},{"type":"Feature","properties":{"station_id":"n6541854254","station_name":"Dwarka - Kakrola (Grey Line)","station_name_local":"Dwarka - Kakrola (Grey Line)","network":"Delhi Metro","network_local":"Delhi Metro","operator":"Delhi Metro Rail Corporation Limited","city":"Delhi","country":"India","lines":["9"],"wikidata":"Q5317936"},"geometry":{"type":"Point","coordinates":[77.0224342,28.6158874]}},{"type":"Feature","properties":{"station_id":"n6541854255","station_name":"Dwarka - Kakrola (Blue Line)","station_name_local":"Dwarka - Kakrola (Blue Line)","network":"Delhi Metro","network_local":"Delhi Metro","operator":"Delhi Metro Rail Corporation Limited","city":"Delhi","country":"India","lines":["3;4"],"wikidata":"Q5317936"},"geometry":{"type":"Point","coordinates":[77.0227628,28.6149362]}},{"type":"Feature","properties":{"station_id":"n6541854256","station_name":"Dwarka Sector 14","station_name_local":"Dwarka Sector 14","network":"Delhi Metro","network_local":"Delhi Metro","operator":"Delhi Metro Rail Corporation Limited","city":"Delhi","country":"India","lines":["3;4"],"wikidata":"Q5317948"},"geometry":{"type":"Point","coordinates":[77.0259765,28.6022218]}},{"type":"Feature","properties":{"station_id":"n6541854257","station_name":"Dwarka Sector 13","station_name_local":"Dwarka Sector 13","network":"Delhi Metro","network_local":"Delhi Metro","operator":"Delhi Metro Rail Corporation Limited","city":"Delhi","country":"India","lines":["3;4"],"wikidata":"Q5317947"},"geometry":{"type":"Point","coordinates":[77.0335407,28.597009]}},{"type":"Feature","properties":{"station_id":"n6547772109","station_name":"Adarsh Nagar","station_name_local":"Adarsh Nagar","network":"Delhi Metro","network_local":"Delhi Metro","operator":"Delhi Metro Rail Corporation Limited","city":"Delhi","country":"India","lines":["2"],"wikidata":"Q4680843"},"geometry":{"type":"Point","coordinates":[77.1704223,28.7165805]}},{"type":"Feature","properties":{"station_id":"n6547772110","station_name":"Jahangirpuri","station_name_local":"Jahangirpuri","network":"Delhi Metro","network_local":"Delhi Metro","operator":"Delhi Metro Rail Corporation Limited","city":"Delhi","country":"India","lines":["2"],"wikidata":"Q862598"},"geometry":{"type":"Point","coordinates":[77.162658,28.7259717]}},{"type":"Feature","properties":{"station_id":"n6548798518","station_name":"Janakpuri East","station_name_local":"Janakpuri East","network":"Delhi Metro","network_local":"Delhi Metro","operator":"Delhi Metro Rail Corporation Limited","city":"Delhi","country":"India","lines":["3;4"],"wikidata":"Q11309886"},"geometry":{"type":"Point","coordinates":[77.086757,28.633021]}},{"type":"Feature","properties":{"station_id":"n6548798519","station_name":"Tilak Nagar","station_name_local":"Tilak Nagar","network":"Delhi Metro","network_local":"Delhi Metro","operator":"Delhi Metro Rail Corporation Limited","city":"Delhi","country":"India","lines":["3;4"],"wikidata":"Q11318978"},"geometry":{"type":"Point","coordinates":[77.0964961,28.6365482]}},{"type":"Feature","properties":{"station_id":"n6548798520","station_name":"Subhash Nagar","station_name_local":"Subhash Nagar","network":"Delhi Metro","network_local":"Delhi Metro","operator":"Delhi Metro Rail Corporation Limited","city":"Delhi","country":"India","lines":["3;4"],"wikidata":"Q7631236"},"geometry":{"type":"Point","coordinates":[77.1051815,28.6404593]}},{"type":"Feature","properties":{"station_id":"n6548798521","station_name":"Tagore Garden","station_name_local":"Tagore Garden","network":"Delhi Metro","network_local":"Delhi Metro","operator":"Delhi Metro Rail Corporation Limited","city":"Delhi","country":"India","lines":["3;4"],"wikidata":"Q11316094"},"geometry":{"type":"Point","coordinates":[77.11282,28.6437265]}},{"type":"Feature","properties":{"station_id":"n7018301879","station_name":"Guru Dronacharya","station_name_local":"Guru Dronacharya","network":"Delhi Metro","network_local":"Delhi Metro","operator":"Delhi Metro Rail Corporation Limited","city":"Delhi","country":"India","lines":["2"],"wikidata":"Q5620352"},"geometry":{"type":"Point","coordinates":[77.1022685,28.4820212]}},{"type":"Feature","properties":{"station_id":"n7018301880","station_name":"Model Town","station_name_local":"Model Town","network":"Delhi Metro","network_local":"Delhi Metro","operator":"Delhi Metro Rail Corporation Limited","city":"Delhi","country":"India","lines":["2"],"wikidata":"Q6888294"},"geometry":{"type":"Point","coordinates":[77.1939912,28.7027136]}},{"type":"Feature","properties":{"station_id":"n7018301881","station_name":"M G Road","station_name_local":"M G Road","network":"Delhi Metro","network_local":"Delhi Metro","operator":"Delhi Metro Rail Corporation Limited","city":"Delhi","country":"India","lines":["2"],"wikidata":null},"geometry":{"type":"Point","coordinates":[77.0798926,28.4795543]}},{"type":"Feature","properties":{"station_id":"n7018301882","station_name":"IFFCO Chowk","station_name_local":"IFFCO Chowk","network":"Delhi Metro","network_local":"Delhi Metro","operator":"Delhi Metro Rail Corporation Limited","city":"Delhi","country":"India","lines":["2"],"wikidata":"Q5970668"},"geometry":{"type":"Point","coordinates":[77.0724222,28.4723277]}},{"type":"Feature","properties":{"station_id":"n7018301883","station_name":"A.I.I.M.S.","station_name_local":"A.I.I.M.S.","network":"Delhi Metro","network_local":"Delhi Metro","operator":"Delhi Metro Rail Corporation Limited","city":"Delhi","country":"India","lines":["2"],"wikidata":"Q4651928"},"geometry":{"type":"Point","coordinates":[77.2078058,28.5668602]}},{"type":"Feature","properties":{"station_id":"n7018316585","station_name":"Green Park","station_name_local":"Green Park","network":"Delhi Metro","network_local":"Delhi Metro","operator":"Delhi Metro Rail Corporation Limited","city":"Delhi","country":"India","lines":["2"],"wikidata":"Q5602948"},"geometry":{"type":"Point","coordinates":[77.2067933,28.5580071]}},{"type":"Feature","properties":{"station_id":"n7018316586","station_name":"Civil Lines","station_name_local":"Civil Lines","network":"Delhi Metro","network_local":"Delhi Metro","operator":"Delhi Metro Rail Corporation Limited","city":"Delhi","country":"India","lines":["2"],"wikidata":"Q5124512"},"geometry":{"type":"Point","coordinates":[77.2250299,28.6768508]}},{"type":"Feature","properties":{"station_id":"n7018316587","station_name":"Vidhan Sabha","station_name_local":"Vidhan Sabha","network":"Delhi Metro","network_local":"Delhi Metro","operator":"Delhi Metro Rail Corporation Limited","city":"Delhi","country":"India","lines":["2"],"wikidata":"Q11352050"},"geometry":{"type":"Point","coordinates":[77.2217271,28.6863222]}},{"type":"Feature","properties":{"station_id":"n7018316588","station_name":"Vishwa Vidyalaya","station_name_local":"Vishwa Vidyalaya","network":"Delhi Metro","network_local":"Delhi Metro","operator":"Delhi Metro Rail Corporation Limited","city":"Delhi","country":"India","lines":["2"],"wikidata":"Q7936037"},"geometry":{"type":"Point","coordinates":[77.2147459,28.6950772]}},{"type":"Feature","properties":{"station_id":"n7018316590","station_name":"Millennium City Centre Gurugram","station_name_local":"Millennium City Centre Gurugram","network":"Delhi Metro","network_local":"Delhi Metro","operator":"Delhi Metro Rail Corporation Limited","city":"Delhi","country":"India","lines":["2"],"wikidata":"Q888667"},"geometry":{"type":"Point","coordinates":[77.0726571,28.4593429]}},{"type":"Feature","properties":{"station_id":"n7018316591","station_name":"Malviya Nagar","station_name_local":"Malviya Nagar","network":"Delhi Metro","network_local":"Delhi Metro","operator":"Delhi Metro Rail Corporation Limited","city":"Delhi","country":"India","lines":["2"],"wikidata":"Q6745134"},"geometry":{"type":"Point","coordinates":[77.2048241,28.5290656]}},{"type":"Feature","properties":{"station_id":"n7018316592","station_name":"Chhatarpur","station_name_local":"Chhatarpur","network":"Delhi Metro","network_local":"Delhi Metro","operator":"Delhi Metro Rail Corporation Limited","city":"Delhi","country":"India","lines":["2"],"wikidata":"Q5094801"},"geometry":{"type":"Point","coordinates":[77.1750019,28.5067242]}},{"type":"Feature","properties":{"station_id":"n7018711118","station_name":"Sultanpur","station_name_local":"Sultanpur","network":"Delhi Metro","network_local":"Delhi Metro","operator":"Delhi Metro Rail Corporation Limited","city":"Delhi","country":"India","lines":["2"],"wikidata":"Q11313479"},"geometry":{"type":"Point","coordinates":[77.1613745,28.4991235]}},{"type":"Feature","properties":{"station_id":"n7018886724","station_name":"Chandni Chowk","station_name_local":"Chandni Chowk","network":"Delhi Metro","network_local":"Delhi Metro","operator":"Delhi Metro Rail Corporation Limited","city":"Delhi","country":"India","lines":["2"],"wikidata":"Q5071227"},"geometry":{"type":"Point","coordinates":[77.2303375,28.6584227]}},{"type":"Feature","properties":{"station_id":"n7018886725","station_name":"Chawri Bazaar","station_name_local":"Chawri Bazaar","network":"Delhi Metro","network_local":"Delhi Metro","operator":"Delhi Metro Rail Corporation Limited","city":"Delhi","country":"India","lines":["2"],"wikidata":"Q5088577"},"geometry":{"type":"Point","coordinates":[77.2265153,28.6492649]}},{"type":"Feature","properties":{"station_id":"n7018886726","station_name":"Patel Chowk","station_name_local":"Patel Chowk","network":"Delhi Metro","network_local":"Delhi Metro","operator":"Delhi Metro Rail Corporation Limited","city":"Delhi","country":"India","lines":["2"],"wikidata":"Q7144407","merged_from":2},"geometry":{"type":"Point","coordinates":[77.21426105,28.6231669]}},{"type":"Feature","properties":{"station_id":"n7018886727","station_name":"Seva Teerth","station_name_local":"Seva Teerth","network":"Delhi Metro","network_local":"Delhi Metro","operator":"Delhi Metro Rail Corporation Limited","city":"Delhi","country":"India","lines":["2"],"wikidata":"Q7877392"},"geometry":{"type":"Point","coordinates":[77.211796,28.6095136]}},{"type":"Feature","properties":{"station_id":"n7018886728","station_name":"Lok Kalyan Marg","station_name_local":"Lok Kalyan Marg","network":"Delhi Metro","network_local":"Delhi Metro","operator":"Delhi Metro Rail Corporation Limited","city":"Delhi","country":"India","lines":["2"],"wikidata":"Q7278893"},"geometry":{"type":"Point","coordinates":[77.2110967,28.5973513]}},{"type":"Feature","properties":{"station_id":"n7018886729","station_name":"Jor Bagh","station_name_local":"Jor Bagh","network":"Delhi Metro","network_local":"Delhi Metro","operator":"Delhi Metro Rail Corporation Limited","city":"Delhi","country":"India","lines":["2"],"wikidata":"Q6276226"},"geometry":{"type":"Point","coordinates":[77.2125273,28.5865094]}},{"type":"Feature","properties":{"station_id":"n7018886730","station_name":"Qutab Minar","station_name_local":"Qutab Minar","network":"Delhi Metro","network_local":"Delhi Metro","operator":"Delhi Metro Rail Corporation Limited","city":"Delhi","country":"India","lines":["2"],"wikidata":"Q7273002"},"geometry":{"type":"Point","coordinates":[77.1864532,28.512951]}},{"type":"Feature","properties":{"station_id":"n7018886731","station_name":"Ghitorni","station_name_local":"Ghitorni","network":"Delhi Metro","network_local":"Delhi Metro","operator":"Delhi Metro Rail Corporation Limited","city":"Delhi","country":"India","lines":["2"],"wikidata":"Q271195"},"geometry":{"type":"Point","coordinates":[77.1491866,28.493751]}},{"type":"Feature","properties":{"station_id":"n7018886732","station_name":"Arjan Garh","station_name_local":"Arjan Garh","network":"Delhi Metro","network_local":"Delhi Metro","operator":"Delhi Metro Rail Corporation Limited","city":"Delhi","country":"India","lines":["2"],"wikidata":"Q271195"},"geometry":{"type":"Point","coordinates":[77.1257622,28.4807352]}},{"type":"Feature","properties":{"station_id":"n7039532905","station_name":"Nangli","station_name_local":"Nangli","network":"Delhi Metro","network_local":"Delhi Metro","operator":"Delhi Metro Rail Corporation Limited","city":"Delhi","country":"India","lines":["9"],"wikidata":"Q28172632"},"geometry":{"type":"Point","coordinates":[77.0104375,28.6173003]}},{"type":"Feature","properties":{"station_id":"n7267374894","station_name":"Nehru Place","station_name_local":"Nehru Place","network":"Delhi Metro","network_local":"Delhi Metro","operator":"Delhi Metro Rail Corporation Limited","city":"Delhi","country":"India","lines":["6"],"wikidata":"Q6987901"},"geometry":{"type":"Point","coordinates":[77.2517386,28.5514171]}},{"type":"Feature","properties":{"station_id":"n7267374895","station_name":"Kailash Colony","station_name_local":"Kailash Colony","network":"Delhi Metro","network_local":"Delhi Metro","operator":"Delhi Metro Rail Corporation Limited","city":"Delhi","country":"India","lines":["6"],"wikidata":"Q17067477"},"geometry":{"type":"Point","coordinates":[77.2419637,28.5553298]}},{"type":"Feature","properties":{"station_id":"n7282286730","station_name":"Lal Quila","station_name_local":"Lal Quila","network":"Delhi Metro","network_local":"Delhi Metro","operator":"Delhi Metro Rail Corporation Limited","city":"Delhi","country":"India","lines":["6"],"wikidata":"Q19581000"},"geometry":{"type":"Point","coordinates":[77.2366607,28.657483]}},{"type":"Feature","properties":{"station_id":"n7282286731","station_name":"Khan Market","station_name_local":"Khan Market","network":"Delhi Metro","network_local":"Delhi Metro","operator":"Delhi Metro Rail Corporation Limited","city":"Delhi","country":"India","lines":["6"],"wikidata":null},"geometry":{"type":"Point","coordinates":[77.2291281,28.6022446]}},{"type":"Feature","properties":{"station_id":"n7282286733","station_name":"Delhi Gate","station_name_local":"Delhi Gate","network":"Delhi Metro","network_local":"Delhi Metro","operator":"Delhi Metro Rail Corporation Limited","city":"Delhi","country":"India","lines":["6"],"wikidata":"Q19580569"},"geometry":{"type":"Point","coordinates":[77.2407795,28.6392174]}},{"type":"Feature","properties":{"station_id":"n9066465094","station_name":"Paschim Vihar West","station_name_local":"Paschim Vihar West","network":"Delhi Metro","network_local":"Delhi Metro","operator":"Delhi Metro Rail Corporation Limited","city":"Delhi","country":"India","lines":["5"],"wikidata":"Q7141809"},"geometry":{"type":"Point","coordinates":[77.1022154,28.6786018]}},{"type":"Feature","properties":{"station_id":"n9144051094","station_name":"Shaheed Sthal","station_name_local":"Shaheed Sthal","network":"Delhi Metro","network_local":"Delhi Metro","operator":"Delhi Metro Rail Corporation Limited","city":"Delhi","country":"India","lines":["1"],"wikidata":"Q29467146"},"geometry":{"type":"Point","coordinates":[77.4154736,28.6706449]}},{"type":"Feature","properties":{"station_id":"n9172459622","station_name":"Najafgarh","station_name_local":"Najafgarh","network":"Delhi Metro","network_local":"Delhi Metro","operator":"Delhi Metro Rail Corporation Limited","city":"Delhi","country":"India","lines":["9"],"wikidata":"Q28172634"},"geometry":{"type":"Point","coordinates":[76.9865067,28.6124504]}},{"type":"Feature","properties":{"station_id":"n9415047898","station_name":"Laxmi Nagar","station_name_local":"Laxmi Nagar","network":"Delhi Metro","network_local":"Delhi Metro","operator":"Delhi Metro Rail Corporation Limited","city":"Delhi","country":"India","lines":["3;4"],"wikidata":"Q6505213"},"geometry":{"type":"Point","coordinates":[77.277523,28.6305974]}},{"type":"Feature","properties":{"station_id":"n9415047899","station_name":"Preet Vihar","station_name_local":"Preet Vihar","network":"Delhi Metro","network_local":"Delhi Metro","operator":"Delhi Metro Rail Corporation Limited","city":"Delhi","country":"India","lines":["3;4"],"wikidata":"Q7239761"},"geometry":{"type":"Point","coordinates":[77.2952819,28.6414176]}},{"type":"Feature","properties":{"station_id":"n9552724758","station_name":"Badhkal Mor","station_name_local":"Badhkal Mor","network":"Delhi Metro","network_local":"Delhi Metro","operator":"Delhi Metro Rail Corporation Limited","city":"Delhi","country":"India","lines":["6"],"wikidata":"Q20967574"},"geometry":{"type":"Point","coordinates":[77.3103481,28.4227134]}},{"type":"Feature","properties":{"station_id":"n9565595809","station_name":"Raja Nahar Singh","station_name_local":"Raja Nahar Singh","network":"Delhi Metro","network_local":"Delhi Metro","operator":"Delhi Metro Rail Corporation Limited","city":"Delhi","country":"India","lines":["6"],"wikidata":"Q27962771"},"geometry":{"type":"Point","coordinates":[77.3164509,28.340002]}},{"type":"Feature","properties":{"station_id":"n9584236504","station_name":"Moolchand","station_name_local":"Moolchand","network":"Delhi Metro","network_local":"Delhi Metro","operator":"Delhi Metro Rail Corporation Limited","city":"Delhi","country":"India","lines":["6"],"wikidata":"Q6907367"},"geometry":{"type":"Point","coordinates":[77.2342555,28.5644044]}},{"type":"Feature","properties":{"station_id":"n9584236505","station_name":"Jangpura","station_name_local":"Jangpura","network":"Delhi Metro","network_local":"Delhi Metro","operator":"Delhi Metro Rail Corporation Limited","city":"Delhi","country":"India","lines":["6"],"wikidata":"Q6154100"},"geometry":{"type":"Point","coordinates":[77.2393151,28.5830386]}},{"type":"Feature","properties":{"station_id":"n9584236506","station_name":"Jawaharlal Nehru Stadium","station_name_local":"Jawaharlal Nehru Stadium","network":"Delhi Metro","network_local":"Delhi Metro","operator":"Delhi Metro Rail Corporation Limited","city":"Delhi","country":"India","lines":["6"],"wikidata":"Q6165993"},"geometry":{"type":"Point","coordinates":[77.2337833,28.5882347]}},{"type":"Feature","properties":{"station_id":"n9584236507","station_name":"Janpath","station_name_local":"Janpath","network":"Delhi Metro","network_local":"Delhi Metro","operator":"Delhi Metro Rail Corporation Limited","city":"Delhi","country":"India","lines":["6"],"wikidata":"Q16850982"},"geometry":{"type":"Point","coordinates":[77.2192587,28.6240485]}},{"type":"Feature","properties":{"station_id":"n9584236508","station_name":"ITO","station_name_local":"ITO","network":"Delhi Metro","network_local":"Delhi Metro","operator":"Delhi Metro Rail Corporation Limited","city":"Delhi","country":"India","lines":["6"],"wikidata":"Q19580817"},"geometry":{"type":"Point","coordinates":[77.2410437,28.6281909]}},