{"type":"FeatureCollection","metro_system":{"continent":"asia","country":"India","city":"Amroli","osm_networks":["Surat Metro","Surat Metro Green Line"],"operator":null,"official_website":null,"official_map":null,"wikidata":null,"line_count":0,"station_count":27},"features":[{"type":"Feature","properties":{"station_id":"n7944681327","station_name":"Adajan Gam","station_name_local":"Adajan Gam","network":"Surat Metro Green Line","network_local":"Surat Metro Green Line","operator":"GMRC","city":"Amroli","country":"India","lines":null,"wikidata":null},"geometry":{"type":"Point","coordinates":[72.7890318,21.1901059]}},{"type":"Feature","properties":{"station_id":"n7944685514","station_name":"Ugat Vaarigruh","station_name_local":"Ugat Vaarigruh","network":"Surat Metro Green Line","network_local":"Surat Metro Green Line","operator":"GMRC","city":"Amroli","country":"India","lines":null,"wikidata":null},"geometry":{"type":"Point","coordinates":[72.7811788,21.2185073]}},{"type":"Feature","properties":{"station_id":"n7944685803","station_name":"Bharat Cancer Hospital","station_name_local":"Bharat Cancer Hospital","network":"Surat Metro Green Line","network_local":"Surat Metro Green Line","operator":"GMRC","city":"Amroli","country":"India","lines":null,"wikidata":null},"geometry":{"type":"Point","coordinates":[72.8796512,21.1897025]}},{"type":"Feature","properties":{"station_id":"n7944686103","station_name":"Performing Art Centre","station_name_local":"Performing Art Centre","network":"Surat Metro Green Line","network_local":"Surat Metro Green Line","operator":"GMRC","city":"Amroli","country":"India","lines":null,"wikidata":null},"geometry":{"type":"Point","coordinates":[72.7857985,21.1953202]}},{"type":"Feature","properties":{"station_id":"n7944686191","station_name":"Palanpur Road","station_name_local":"Palanpur Road","network":"Surat Metro Green Line","network_local":"Surat Metro Green Line","operator":"GMRC","city":"Amroli","country":"India","lines":null,"wikidata":null},"geometry":{"type":"Point","coordinates":[72.7825931,21.2087435]}},{"type":"Feature","properties":{"station_id":"n7944686216","station_name":"Botanical Garden","station_name_local":"Botanical Garden","network":"Surat Metro Green Line","network_local":"Surat Metro Green Line","operator":"GMRC","city":"Amroli","country":"India","lines":null,"wikidata":null},"geometry":{"type":"Point","coordinates":[72.7769411,21.2214427]}},{"type":"Feature","properties":{"station_id":"n7944686379","station_name":"Anjana Farm","station_name_local":"Anjana Farm","network":"Surat Metro Green Line","network_local":"Surat Metro Green Line","operator":"GMRC","city":"Amroli","country":"India","lines":null,"wikidata":null},"geometry":{"type":"Point","coordinates":[72.8492992,21.1852262]}},{"type":"Feature","properties":{"station_id":"n7944686516","station_name":"Majura Gate","station_name_local":"Majura Gate","network":"Surat Metro","network_local":"Surat Metro","operator":"GMRC","city":"Amroli","country":"India","lines":null,"wikidata":null},"geometry":{"type":"Point","coordinates":[72.8183933,21.1809637]}},{"type":"Feature","properties":{"station_id":"n7944686517","station_name":"LP Savani School","station_name_local":"LP Savani School","network":"Surat Metro Green Line","network_local":"Surat Metro Green Line","operator":"GMRC","city":"Amroli","country":"India","lines":null,"wikidata":null},"geometry":{"type":"Point","coordinates":[72.7828411,21.1996868]}},{"type":"Feature","properties":{"station_id":"n7944686610","station_name":"Badri Narayan Temple","station_name_local":"Badri Narayan Temple","network":"Surat Metro Green Line","network_local":"Surat Metro Green Line","operator":"GMRC","city":"Amroli","country":"India","lines":null,"wikidata":null},"geometry":{"type":"Point","coordinates":[72.800609,21.1875752]}},{"type":"Feature","properties":{"station_id":"n7944687288","station_name":"Saroli","station_name_local":"Saroli","network":"Surat Metro Green Line","network_local":"Surat Metro Green Line","operator":"GMRC","city":"Amroli","country":"India","lines":null,"wikidata":null},"geometry":{"type":"Point","coordinates":[72.892983,21.1890207]}},{"type":"Feature","properties":{"station_id":"n7944687322","station_name":"Athwa Chopati","station_name_local":"Athwa Chopati","network":"Surat Metro Green Line","network_local":"Surat Metro Green Line","operator":"GMRC","city":"Amroli","country":"India","lines":null,"wikidata":null},"geometry":{"type":"Point","coordinates":[72.8079714,21.1846971]}},{"type":"Feature","properties":{"station_id":"n7944687381","station_name":"Magob","station_name_local":"Magob","network":"Surat Metro Green Line","network_local":"Surat Metro Green Line","operator":"GMRC","city":"Amroli","country":"India","lines":null,"wikidata":null},"geometry":{"type":"Point","coordinates":[72.8685756,21.1902027]}},{"type":"Feature","properties":{"station_id":"n13629719905","station_name":"Aquarium","station_name_local":"Aquarium","network":"Surat Metro Green Line","network_local":"Surat Metro Green Line","operator":"GMRC","city":"Amroli","country":"India","lines":null,"wikidata":null},"geometry":{"type":"Point","coordinates":[72.7925147,21.1861257]}},{"type":"Feature","properties":{"station_id":"n1486844815","station_name":"n1486844815","station_name_local":null,"network":"Surat Metro Green Line","network_local":"Surat Metro Green Line","operator":"GMRC","city":"Amroli","country":"India","lines":null,"wikidata":null},"geometry":{"type":"Point","coordinates":[72.8005931,21.1875909]}},{"type":"Feature","properties":{"station_id":"n1486844823","station_name":"n1486844823","station_name_local":null,"network":"Surat Metro Green Line","network_local":"Surat Metro Green Line","operator":"GMRC","city":"Amroli","country":"India","lines":null,"wikidata":null},"geometry":{"type":"Point","coordinates":[72.7923053,21.186226]}},{"type":"Feature","properties":{"station_id":"n1486852405","station_name":"n1486852405","station_name_local":null,"network":"Surat Metro Green Line","network_local":"Surat Metro Green Line","operator":"GMRC","city":"Amroli","country":"India","lines":null,"wikidata":null},"geometry":{"type":"Point","coordinates":[72.789028,21.1901222]}},{"type":"Feature","properties":{"station_id":"n1486852416","station_name":"n1486852416","station_name_local":null,"network":"Surat Metro Green Line","network_local":"Surat Metro Green Line","operator":"GMRC","city":"Amroli","country":"India","lines":null,"wikidata":null},"geometry":{"type":"Point","coordinates":[72.7857955,21.1953058]}},{"type":"Feature","properties":{"station_id":"n1486852419","station_name":"n1486852419","station_name_local":null,"network":"Surat Metro Green Line","network_local":"Surat Metro Green Line","operator":"GMRC","city":"Amroli","country":"India","lines":null,"wikidata":null},"geometry":{"type":"Point","coordinates":[72.7828122,21.1997315]}},{"type":"Feature","properties":{"station_id":"n1486857566","station_name":"n1486857566","station_name_local":null,"network":"Surat Metro Green Line","network_local":"Surat Metro Green Line","operator":"GMRC","city":"Amroli","country":"India","lines":null,"wikidata":null},"geometry":{"type":"Point","coordinates":[72.7825951,21.2087571]}},{"type":"Feature","properties":{"station_id":"n1486892579","station_name":"n1486892579","station_name_local":null,"network":"Surat Metro Green Line","network_local":"Surat Metro Green Line","operator":"GMRC","city":"Amroli","country":"India","lines":null,"wikidata":null},"geometry":{"type":"Point","coordinates":[72.7811746,21.2185969]}},{"type":"Feature","properties":{"station_id":"n1486892586","station_name":"n1486892586","station_name_local":null,"network":"Surat Metro Green Line","network_local":"Surat Metro Green Line","operator":"GMRC","city":"Amroli","country":"India","lines":null,"wikidata":null},"geometry":{"type":"Point","coordinates":[72.7769401,21.2214505]}},{"type":"Feature","properties":{"station_id":"n1486898524","station_name":"n1486898524","station_name_local":null,"network":"Surat Metro Green Line","network_local":"Surat Metro Green Line","operator":"GMRC","city":"Amroli","country":"India","lines":null,"wikidata":null},"geometry":{"type":"Point","coordinates":[72.7690076,21.2197223]}},{"type":"Feature","properties":{"station_id":"n1487254693","station_name":"n1487254693","station_name_local":null,"network":"Surat Metro Green Line","network_local":"Surat Metro Green Line","operator":"GMRC","city":"Amroli","country":"India","lines":null,"wikidata":null},"geometry":{"type":"Point","coordinates":[72.8492372,21.1852552]}},{"type":"Feature","properties":{"station_id":"n1487264814","station_name":"n1487264814","station_name_local":null,"network":"Surat Metro Green Line","network_local":"Surat Metro Green Line","operator":"GMRC","city":"Amroli","country":"India","lines":null,"wikidata":null},"geometry":{"type":"Point","coordinates":[72.8685779,21.1902144]}},{"type":"Feature","properties":{"station_id":"n1487264821","station_name":"n1487264821","station_name_local":null,"network":"Surat Metro Green Line","network_local":"Surat Metro Green Line","operator":"GMRC","city":"Amroli","country":"India","lines":null,"wikidata":null},"geometry":{"type":"Point","coordinates":[72.8796487,21.1897211]}},{"type":"Feature","properties":{"station_id":"n1487264832","station_name":"n1487264832","station_name_local":null,"network":"Surat Metro Green Line","network_local":"Surat Metro Green Line","operator":"GMRC","city":"Amroli","country":"India","lines":null,"wikidata":null},"geometry":{"type":"Point","coordinates":[72.8929844,21.1890261]}}]}