{"type":"FeatureCollection","metro_system":{"continent":"south-america","country":"Venezuela","city":"Valencia","osm_networks":["Metro de Valencia","Unknown"],"operator":null,"official_website":null,"official_map":null,"wikidata":null,"line_count":1,"station_count":10,"audit":null},"features":[{"type":"Feature","properties":{"route_id":"rm20038260","route_name":"Línea 1: Francisco de Miranda ↔ Monumental","route_name_local":"Línea 1: Francisco de Miranda ↔ Monumental","route_ref":"1","route_color":"#cc0000","network":"Metro de Valencia","network_local":"Metro de Valencia","operator":null,"city":"Valencia","country":"Venezuela","wikidata":null,"wikipedia":null,"osm_route_ids":[7680781,7734070]},"geometry":{"type":"MultiLineString","coordinates":[[[-67.99729113333333,10.146467433333333],[-67.9993837,10.1536468],[-68.0002005,10.1595766],[-68.0009602,10.1650331],[-68.0019468,10.171219],[-68.0028783,10.1772068],[-68.0045151,10.1877335],[-68.0054623,10.1938318],[-68.0065855,10.2012405]],[[-68.0065855,10.2012405],[-68.0054623,10.1938318],[-68.0045151,10.1877335],[-68.0028783,10.1772068],[-68.0019468,10.171219],[-68.0009602,10.1650331],[-68.0002005,10.1595766],[-67.9993837,10.1536468],[-67.99729113333333,10.146467433333333]]]}},{"type":"Feature","properties":{"station_id":"n1214856964","station_name":"Monumental","station_name_local":"Monumental","network":"Unknown","network_local":null,"operator":null,"city":"Valencia","country":"Venezuela","lines":["1"],"wikidata":null,"merged_from":3},"geometry":{"type":"Point","coordinates":[-67.99729113333333,10.146467433333333]}},{"type":"Feature","properties":{"station_id":"n13426663615","station_name":"Palotal","station_name_local":"Palotal","network":"Unknown","network_local":null,"operator":null,"city":"Valencia","country":"Venezuela","lines":["1"],"wikidata":"Q21007049"},"geometry":{"type":"Point","coordinates":[-68.0002005,10.1595766]}},{"type":"Feature","properties":{"station_id":"n13426663616","station_name":"Francisco de Miranda","station_name_local":"Francisco de Miranda","network":"Unknown","network_local":null,"operator":null,"city":"Valencia","country":"Venezuela","lines":["1"],"wikidata":"Q20994814"},"geometry":{"type":"Point","coordinates":[-68.0065855,10.2012405]}},{"type":"Feature","properties":{"station_id":"n13426663617","station_name":"Rafael Urdaneta","station_name_local":"Rafael Urdaneta","network":"Unknown","network_local":null,"operator":null,"city":"Valencia","country":"Venezuela","lines":["1"],"wikidata":"Q21007050"},"geometry":{"type":"Point","coordinates":[-68.0054623,10.1938318]}},{"type":"Feature","properties":{"station_id":"n13426663618","station_name":"Cedeño","station_name_local":"Cedeño","network":"Unknown","network_local":null,"operator":null,"city":"Valencia","country":"Venezuela","lines":["1"],"wikidata":null},"geometry":{"type":"Point","coordinates":[-68.0045151,10.1877335]}},{"type":"Feature","properties":{"station_id":"n13426663619","station_name":"Lara","station_name_local":"Lara","network":"Unknown","network_local":null,"operator":null,"city":"Valencia","country":"Venezuela","lines":["1"],"wikidata":null},"geometry":{"type":"Point","coordinates":[-68.0028783,10.1772068]}},{"type":"Feature","properties":{"station_id":"n13426663620","station_name":"Las Ferias","station_name_local":"Las Ferias","network":"Unknown","network_local":null,"operator":null,"city":"Valencia","country":"Venezuela","lines":["1"],"wikidata":"Q21007047"},"geometry":{"type":"Point","coordinates":[-67.9993837,10.1536468]}},{"type":"Feature","properties":{"station_id":"n13426685855","station_name":"Santa Rosa","station_name_local":"Santa Rosa","network":"Unknown","network_local":null,"operator":null,"city":"Valencia","country":"Venezuela","lines":["1"],"wikidata":null},"geometry":{"type":"Point","coordinates":[-68.0009602,10.1650331]}},{"type":"Feature","properties":{"station_id":"n13426685856","station_name":"Michelena","station_name_local":"Michelena","network":"Unknown","network_local":null,"operator":null,"city":"Valencia","country":"Venezuela","lines":["1"],"wikidata":"Q27842294"},"geometry":{"type":"Point","coordinates":[-68.0019468,10.171219]}},{"type":"Feature","properties":{"station_id":"n13852236935","station_name":"Los Sauces","station_name_local":"Los Sauces","network":"Metro de Valencia","network_local":"Metro de Valencia","operator":"C.A. Metro de Valencia","city":"Valencia","country":"Venezuela","lines":["1"],"wikidata":null},"geometry":{"type":"Point","coordinates":[-68.0075801,10.2079071]}}]}