{"type":"FeatureCollection","metro_system":{"continent":"europe","country":"Germany","city":"Ratingen","osm_networks":["Ruhrbahn","Unknown","VRR","VRR;Bogestra","Verkehrsverbund Rhein-Ruhr"],"operator":"Ruhrbahn;BOGESTRA","official_website":null,"official_map":"https://de.wikipedia.org/wiki/Stadtbahn_Essen","wikidata":"Q110928761","line_count":2,"segment_count":2,"station_count":72,"audit":{"strategies_tried":[],"passed":true,"checks":[{"id":"has_lines","ok":true,"detail":"2 lines","level":"error"},{"id":"has_stations","ok":true,"detail":"72 stations","level":"error"},{"id":"stations_have_lines","ok":true,"detail":"72/72 站皆有所屬路線","level":"error"},{"id":"line_geometry_stations","ok":true,"detail":"71 個折點/端點皆為車站","level":"error"},{"id":"stations_named","ok":true,"detail":"72/72 站有名稱","level":"warn"},{"id":"station_order","ok":true,"detail":"所有線路站序合理","level":"warn"}],"reasons":[],"warnings":[],"audited_at":"2026-07-10T10:08:51.665Z"}},"features":[{"type":"Feature","properties":{"seg_id":"ratingen-0","routes":[{"route_id":"rm5311905","route_name":"Subway line U11","route_name_local":"U-Bahn U11","route_ref":"U11","route_color":"#342a82","network":"VRR","network_local":"VRR","operator":"Ruhrbahn;BOGESTRA","wikidata":"Q110928761","wikipedia":"de:Stadtbahn Essen","osm_route_ids":[70128,5311904],"order_suspect":0}],"route_count":1,"route_refs":["U11"],"route_colors":["#342a82"],"route_color":"#342a82","city":"Ratingen","country":"Germany"},"geometry":{"type":"MultiLineString","coordinates":[[[7.0261425,51.539418],[7.0237988,51.5361761],[7.0172025,51.5341264],[7.0100895,51.5282597],[7.0084357,51.5244468],[7.0072669,51.5182926],[7.0073357,51.5093052],[7.0076861,51.5056859],[7.007829,51.5007506],[7.0084195,51.4958722],[7.0094364,51.4910383],[7.0090769,51.4840804],[7.004181,51.4793386],[7.0005447,51.4741044],[7.0018777,51.466033],[7.0042344,51.4592856],[7.0101794,51.4544066],[7.0126609,51.4501992],[7.0088602,51.4453835],[7.0055612,51.4377665],[7.0045746,51.4343482],[7.0000993,51.4301962],[6.9921994,51.4249529]]]}},{"type":"Feature","properties":{"seg_id":"ratingen-1","routes":[{"route_id":"rm28424","route_name":"Subway U79","route_name_local":"Subway U79","route_ref":"U79","route_color":"#009a93","network":"VRR","network_local":"VRR","operator":"Rheinbahn;DVG","wikidata":"Q1272295","wikipedia":"en:Düsseldorf Stadtbahn","osm_route_ids":[1804557,1804558,3227753,3227754],"order_suspect":0}],"route_count":1,"route_refs":["U79"],"route_colors":["#009a93"],"route_color":"#009a93","city":"Ratingen","country":"Germany"},"geometry":{"type":"MultiLineString","coordinates":[[[6.7790659,51.4675457],[6.7728786,51.4658201],[6.782966,51.4391941],[6.777205,51.431848],[6.7675078,51.4331339],[6.7599425,51.4320261],[6.7554854,51.42675],[6.7590675,51.4255559],[6.7645204,51.4259654],[6.7677597,51.4199973],[6.7700301,51.4129683],[6.7682333,51.4096001],[6.764814,51.4056922],[6.7629572,51.401865],[6.7600756,51.3931302],[6.7609135,51.3839006],[6.7598547,51.3759208],[6.7565891,51.3707711],[6.7526108,51.3648766],[6.7466119,51.3567469],[6.7513819,51.3390005],[6.7453245,51.3181011],[6.7448759,51.3129257],[6.7433994,51.3053587],[6.7393291,51.3006089],[6.7387759,51.2948681],[6.7390622,51.2890645],[6.7479155,51.2742085],[6.7525772,51.2653156],[6.7543273,51.2604202],[6.7555994,51.256471],[6.7589441,51.2532819],[6.7648087,51.2499957],[6.7680891,51.2465904],[6.7719783,51.2434703],[6.7750943,51.2390465],[6.7768425,51.2255316],[6.7809945,51.2229951],[6.7876095,51.2223412],[6.7939398,51.219709],[6.8030259,51.2167032],[6.8058331,51.213655],[6.8081807,51.2085483],[6.8106839,51.2036048],[6.8118476,51.1989685],[6.8148695,51.1928034],[6.8012264,51.1952096],[6.8001428,51.1904358]]]}},{"type":"Feature","properties":{"station_id":"n1078606426","station_name":"Buerer Straße","station_name_local":"Buerer Straße","network":"VRR","network_local":"VRR","operator":null,"city":"Ratingen","country":"Germany","lines":["U11"],"wikidata":null},"geometry":{"type":"Point","coordinates":[7.0261425,51.539418]}},{"type":"Feature","properties":{"station_id":"n1920297533","station_name":"St.-Anna-Krankenhaus","station_name_local":"St.-Anna-Krankenhaus","network":"Unknown","network_local":null,"operator":null,"city":"Ratingen","country":"Germany","lines":["U79"],"wikidata":null},"geometry":{"type":"Point","coordinates":[6.7526108,51.3648766]}},{"type":"Feature","properties":{"station_id":"n2445867152","station_name":"Im Schlenk","station_name_local":"Im Schlenk","network":"Unknown","network_local":null,"operator":null,"city":"Ratingen","country":"Germany","lines":["U79"],"wikidata":null},"geometry":{"type":"Point","coordinates":[6.7629572,51.401865]}},{"type":"Feature","properties":{"station_id":"n2445867153","station_name":"Kulturstraße","station_name_local":"Kulturstraße","network":"Unknown","network_local":null,"operator":null,"city":"Ratingen","country":"Germany","lines":["U79"],"wikidata":null},"geometry":{"type":"Point","coordinates":[6.764814,51.4056922]}},{"type":"Feature","properties":{"station_id":"n2445867428","station_name":"Waldfriedhof","station_name_local":"Waldfriedhof","network":"Unknown","network_local":null,"operator":null,"city":"Ratingen","country":"Germany","lines":["U79"],"wikidata":null},"geometry":{"type":"Point","coordinates":[6.7600756,51.3931302]}},{"type":"Feature","properties":{"station_id":"n3318362889","station_name":"Altenessen Bf","station_name_local":"Altenessen Bf","network":"VRR","network_local":"VRR","operator":"Ruhrbahn","city":"Ratingen","country":"Germany","lines":["U11"],"wikidata":null},"geometry":{"type":"Point","coordinates":[7.0090769,51.4840804]}},{"type":"Feature","properties":{"station_id":"n3318362890","station_name":"Altenessen Mitte","station_name_local":"Altenessen Mitte","network":"VRR","network_local":"VRR","operator":"Ruhrbahn","city":"Ratingen","country":"Germany","lines":["U11"],"wikidata":"Q23785337"},"geometry":{"type":"Point","coordinates":[7.0084195,51.4958722]}},{"type":"Feature","properties":{"station_id":"n3318362891","station_name":"Bamlerstraße","station_name_local":"Bamlerstraße","network":"Ruhrbahn","network_local":null,"operator":"Ruhrbahn","city":"Ratingen","country":"Germany","lines":["U11"],"wikidata":"Q48971594"},"geometry":{"type":"Point","coordinates":[7.0005447,51.4741044]}},{"type":"Feature","properties":{"station_id":"n3318362892","station_name":"Bäuminghausstraße","station_name_local":"Bäuminghausstraße","network":"Ruhrbahn","network_local":null,"operator":"Ruhrbahn","city":"Ratingen","country":"Germany","lines":["U11"],"wikidata":null},"geometry":{"type":"Point","coordinates":[7.004181,51.4793386]}},{"type":"Feature","properties":{"station_id":"n3318362893","station_name":"Kaiser-Wilhelm-Park","station_name_local":"Kaiser-Wilhelm-Park","network":"VRR","network_local":"VRR","operator":"Ruhrbahn","city":"Ratingen","country":"Germany","lines":["U11"],"wikidata":null},"geometry":{"type":"Point","coordinates":[7.0094364,51.4910383]}},{"type":"Feature","properties":{"station_id":"n3318371326","station_name":"Universität Essen","station_name_local":"Universität Essen","network":"Ruhrbahn","network_local":null,"operator":"Ruhrbahn","city":"Ratingen","country":"Germany","lines":["U11"],"wikidata":"Q23786530"},"geometry":{"type":"Point","coordinates":[7.0018777,51.466033]}},{"type":"Feature","properties":{"station_id":"n3318452880","station_name":"Heßlerstraße","station_name_local":"Heßlerstraße","network":"Ruhrbahn","network_local":null,"operator":"Ruhrbahn","city":"Ratingen","country":"Germany","lines":["U11"],"wikidata":null},"geometry":{"type":"Point","coordinates":[7.0073357,51.5093052]}},{"type":"Feature","properties":{"station_id":"n3318452882","station_name":"II. Schichtstraße","station_name_local":"II. Schichtstraße","network":"VRR","network_local":"VRR","operator":"Ruhrbahn","city":"Ratingen","country":"Germany","lines":["U11"],"wikidata":null},"geometry":{"type":"Point","coordinates":[7.0076861,51.5056859]}},{"type":"Feature","properties":{"station_id":"n3482710766","station_name":"Arenbergstraße","station_name_local":"Arenbergstraße","network":"Ruhrbahn","network_local":null,"operator":"Ruhrbahn","city":"Ratingen","country":"Germany","lines":["U11"],"wikidata":null},"geometry":{"type":"Point","coordinates":[7.0072669,51.5182926]}},{"type":"Feature","properties":{"station_id":"n3881680782","station_name":"Duissern","station_name_local":"Duissern","network":"Unknown","network_local":null,"operator":null,"city":"Ratingen","country":"Germany","lines":["U79"],"wikidata":"Q21036566"},"geometry":{"type":"Point","coordinates":[6.782966,51.4391941]}},{"type":"Feature","properties":{"station_id":"n3881680783","station_name":"König-Heinrich-Platz","station_name_local":"König-Heinrich-Platz","network":"Unknown","network_local":null,"operator":null,"city":"Ratingen","country":"Germany","lines":["U79"],"wikidata":"Q15132788"},"geometry":{"type":"Point","coordinates":[6.7675078,51.4331339]}},{"type":"Feature","properties":{"station_id":"n3881681607","station_name":"Rathaus","station_name_local":"Rathaus","network":"Unknown","network_local":null,"operator":null,"city":"Ratingen","country":"Germany","lines":["U79"],"wikidata":null},"geometry":{"type":"Point","coordinates":[6.7618662,51.4344863]}},{"type":"Feature","properties":{"station_id":"n3883984229","station_name":"Auf dem Damm","station_name_local":"Auf dem Damm","network":"Unknown","network_local":null,"operator":null,"city":"Ratingen","country":"Germany","lines":["U79"],"wikidata":"Q4820312"},"geometry":{"type":"Point","coordinates":[6.7728786,51.4658201]}},{"type":"Feature","properties":{"station_id":"n3883984230","station_name":"Duisburg-Meiderich Bf","station_name_local":"Duisburg-Meiderich Bf","network":"Unknown","network_local":null,"operator":null,"city":"Ratingen","country":"Germany","lines":["U79"],"wikidata":null},"geometry":{"type":"Point","coordinates":[6.7790659,51.4675457]}},{"type":"Feature","properties":{"station_id":"n3893958139","station_name":"Hirschlandplatz","station_name_local":"Hirschlandplatz","network":"Ruhrbahn","network_local":null,"operator":"Ruhrbahn","city":"Ratingen","country":"Germany","lines":["U11"],"wikidata":"Q46192815"},"geometry":{"type":"Point","coordinates":[7.0101794,51.4544066]}},{"type":"Feature","properties":{"station_id":"n3907189707","station_name":"Berliner Platz","station_name_local":"Berliner Platz","network":"Ruhrbahn","network_local":null,"operator":"Ruhrbahn","city":"Ratingen","country":"Germany","lines":["U11"],"wikidata":"Q18632067"},"geometry":{"type":"Point","coordinates":[7.0042344,51.4592856]}},{"type":"Feature","properties":{"station_id":"n3939759928","station_name":"Philharmonie","station_name_local":"Philharmonie","network":"VRR","network_local":"VRR","operator":"Ruhrbahn","city":"Ratingen","country":"Germany","lines":["U11"],"wikidata":"Q25089267"},"geometry":{"type":"Point","coordinates":[7.0088602,51.4453835]}},{"type":"Feature","properties":{"station_id":"n3939763456","station_name":"Rüttenscheider Stern","station_name_local":"Rüttenscheider Stern","network":"Ruhrbahn","network_local":null,"operator":"Ruhrbahn","city":"Ratingen","country":"Germany","lines":["U11"],"wikidata":"Q7386788"},"geometry":{"type":"Point","coordinates":[7.0055612,51.4377665]}},{"type":"Feature","properties":{"station_id":"n3940430491","station_name":"Martinstraße","station_name_local":"Martinstraße","network":"Ruhrbahn","network_local":null,"operator":"Ruhrbahn","city":"Ratingen","country":"Germany","lines":["U11"],"wikidata":null},"geometry":{"type":"Point","coordinates":[7.0045746,51.4343482]}},{"type":"Feature","properties":{"station_id":"n3941934563","station_name":"Steinsche Gasse","station_name_local":"Steinsche Gasse","network":"Unknown","network_local":null,"operator":null,"city":"Ratingen","country":"Germany","lines":["U79"],"wikidata":"Q20182296"},"geometry":{"type":"Point","coordinates":[6.7599425,51.4320261]}},{"type":"Feature","properties":{"station_id":"n3946728817","station_name":"Messe Ost/Gruga","station_name_local":"Messe Ost/Gruga","network":"Ruhrbahn","network_local":null,"operator":"Ruhrbahn","city":"Ratingen","country":"Germany","lines":["U11"],"wikidata":null},"geometry":{"type":"Point","coordinates":[7.0000993,51.4301962]}},{"type":"Feature","properties":{"station_id":"n3946728819","station_name":"Messe West/Süd/Gruga","station_name_local":"Messe West/Süd/Gruga","network":"Ruhrbahn","network_local":null,"operator":"Ruhrbahn","city":"Ratingen","country":"Germany","lines":["U11"],"wikidata":null},"geometry":{"type":"Point","coordinates":[6.9921994,51.4249529]}},{"type":"Feature","properties":{"station_id":"n3948583064","station_name":"Essen Hauptbahnhof","station_name_local":"Essen Hauptbahnhof","network":"Ruhrbahn","network_local":null,"operator":"Ruhrbahn","city":"Ratingen","country":"Germany","lines":["U11"],"wikidata":"Q19888031"},"geometry":{"type":"Point","coordinates":[7.0126609,51.4501992]}},{"type":"Feature","properties":{"station_id":"n4865003732","station_name":"Boyer Straße","station_name_local":"Boyer Straße","network":"Verkehrsverbund Rhein-Ruhr","network_local":"Verkehrsverbund Rhein-Ruhr","operator":"Ruhrbahn","city":"Ratingen","country":"Germany","lines":["U11"],"wikidata":null},"geometry":{"type":"Point","coordinates":[7.0084357,51.5244468]}},{"type":"Feature","properties":{"station_id":"n4865020734","station_name":"Alte Landstraße","station_name_local":"Alte Landstraße","network":"Ruhrbahn","network_local":null,"operator":"Ruhrbahn","city":"Ratingen","country":"Germany","lines":["U11"],"wikidata":null},"geometry":{"type":"Point","coordinates":[7.0100895,51.5282597]}},{"type":"Feature","properties":{"station_id":"n4865068397","station_name":"Fischerstraße","station_name_local":"Fischerstraße","network":"VRR","network_local":"VRR","operator":null,"city":"Ratingen","country":"Germany","lines":["U11"],"wikidata":null},"geometry":{"type":"Point","coordinates":[7.0172025,51.5341264]}},{"type":"Feature","properties":{"station_id":"n6114172387","station_name":"Oststraße","station_name_local":"Oststraße","network":"Unknown","network_local":null,"operator":null,"city":"Ratingen","country":"Germany","lines":["U79"],"wikidata":null},"geometry":{"type":"Point","coordinates":[6.7876095,51.2223412]}},{"type":"Feature","properties":{"station_id":"n6114172388","station_name":"Steinstraße/Königsallee","station_name_local":"Steinstraße/Königsallee","network":"Unknown","network_local":null,"operator":null,"city":"Ratingen","country":"Germany","lines":["U79"],"wikidata":null},"geometry":{"type":"Point","coordinates":[6.7809945,51.2229951]}},{"type":"Feature","properties":{"station_id":"n6114172389","station_name":"Heinrich-Heine-Allee","station_name_local":"Heinrich-Heine-Allee","network":"Unknown","network_local":null,"operator":null,"city":"Ratingen","country":"Germany","lines":["U79"],"wikidata":null},"geometry":{"type":"Point","coordinates":[6.7768425,51.2255316]}},{"type":"Feature","properties":{"station_id":"n6114260156","station_name":"Werstener Dorfstraße","station_name_local":"Werstener Dorfstraße","network":"Unknown","network_local":null,"operator":null,"city":"Ratingen","country":"Germany","lines":["U79"],"wikidata":null},"geometry":{"type":"Point","coordinates":[6.8148695,51.1928034]}},{"type":"Feature","properties":{"station_id":"n6114260157","station_name":"Provinzialplatz","station_name_local":"Provinzialplatz","network":"Unknown","network_local":null,"operator":null,"city":"Ratingen","country":"Germany","lines":["U79"],"wikidata":null},"geometry":{"type":"Point","coordinates":[6.8118476,51.1989685]}},{"type":"Feature","properties":{"station_id":"n6114260158","station_name":"Kaiserslauterner Straße","station_name_local":"Kaiserslauterner Straße","network":"Unknown","network_local":null,"operator":null,"city":"Ratingen","country":"Germany","lines":["U79"],"wikidata":null},"geometry":{"type":"Point","coordinates":[6.8106839,51.2036048]}},{"type":"Feature","properties":{"station_id":"n6114260159","station_name":"Oberbilk S","station_name_local":"Oberbilk S","network":"Unknown","network_local":null,"operator":null,"city":"Ratingen","country":"Germany","lines":["U79"],"wikidata":null},"geometry":{"type":"Point","coordinates":[6.8081807,51.2085483]}},{"type":"Feature","properties":{"station_id":"n6114260160","station_name":"Ellerstraße","station_name_local":"Ellerstraße","network":"Unknown","network_local":null,"operator":null,"city":"Ratingen","country":"Germany","lines":["U79"],"wikidata":null},"geometry":{"type":"Point","coordinates":[6.8058331,51.213655]}},{"type":"Feature","properties":{"station_id":"n6114260161","station_name":"Oberbilker Markt/Warschauer Straße","station_name_local":"Oberbilker Markt/Warschauer Straße","network":"Unknown","network_local":null,"operator":null,"city":"Ratingen","country":"Germany","lines":["U79"],"wikidata":null},"geometry":{"type":"Point","coordinates":[6.8030259,51.2167032]}},{"type":"Feature","properties":{"station_id":"n6120050223","station_name":"Freiligrathplatz","station_name_local":"Freiligrathplatz","network":"Unknown","network_local":null,"operator":null,"city":"Ratingen","country":"Germany","lines":["U79"],"wikidata":null},"geometry":{"type":"Point","coordinates":[6.7525772,51.2653156]}},{"type":"Feature","properties":{"station_id":"n6120050224","station_name":"Messe Ost/Stockumer Kirchstraße","station_name_local":"Messe Ost/Stockumer Kirchstraße","network":"Unknown","network_local":null,"operator":null,"city":"Ratingen","country":"Germany","lines":["U79"],"wikidata":null},"geometry":{"type":"Point","coordinates":[6.7543273,51.2604202]}},{"type":"Feature","properties":{"station_id":"n6120050225","station_name":"Nordpark/Aquazoo","station_name_local":"Nordpark/Aquazoo","network":"Unknown","network_local":null,"operator":null,"city":"Ratingen","country":"Germany","lines":["U79"],"wikidata":null},"geometry":{"type":"Point","coordinates":[6.7555994,51.256471]}},{"type":"Feature","properties":{"station_id":"n6120050226","station_name":"Reeser Platz","station_name_local":"Reeser Platz","network":"Unknown","network_local":null,"operator":null,"city":"Ratingen","country":"Germany","lines":["U79"],"wikidata":null},"geometry":{"type":"Point","coordinates":[6.7589441,51.2532819]}},{"type":"Feature","properties":{"station_id":"n6120050227","station_name":"Theodor-Heuss-Brücke","station_name_local":"Theodor-Heuss-Brücke","network":"Verkehrsverbund Rhein-Ruhr","network_local":"Verkehrsverbund Rhein-Ruhr","operator":"Rheinbahn AG","city":"Ratingen","country":"Germany","lines":["U79"],"wikidata":null},"geometry":{"type":"Point","coordinates":[6.7648087,51.2499957]}},{"type":"Feature","properties":{"station_id":"n6120050228","station_name":"Golzheimer Platz","station_name_local":"Golzheimer Platz","network":"Unknown","network_local":null,"operator":null,"city":"Ratingen","country":"Germany","lines":["U79"],"wikidata":null},"geometry":{"type":"Point","coordinates":[6.7680891,51.2465904]}},{"type":"Feature","properties":{"station_id":"n6120050229","station_name":"Kennedydamm","station_name_local":"Kennedydamm","network":"Verkehrsverbund Rhein-Ruhr","network_local":"Verkehrsverbund Rhein-Ruhr","operator":"Rheinbahn AG","city":"Ratingen","country":"Germany","lines":["U79"],"wikidata":null},"geometry":{"type":"Point","coordinates":[6.7719783,51.2434703]}},{"type":"Feature","properties":{"station_id":"n6120050230","station_name":"ERGO-Platz/Klever Straße","station_name_local":"ERGO-Platz/Klever Straße","network":"Verkehrsverbund Rhein-Ruhr","network_local":"Verkehrsverbund Rhein-Ruhr","operator":"Rheinbahn AG","city":"Ratingen","country":"Germany","lines":["U79"],"wikidata":null},"geometry":{"type":"Point","coordinates":[6.7750943,51.2390465]}},{"type":"Feature","properties":{"station_id":"n6120149106","station_name":"Universität Ost/Botanischer Garten","station_name_local":"Universität Ost/Botanischer Garten","network":"Unknown","network_local":null,"operator":null,"city":"Ratingen","country":"Germany","lines":["U79"],"wikidata":null},"geometry":{"type":"Point","coordinates":[6.8001428,51.1904358]}},{"type":"Feature","properties":{"station_id":"n6120149107","station_name":"Südpark","station_name_local":"Südpark","network":"Unknown","network_local":null,"operator":null,"city":"Ratingen","country":"Germany","lines":["U79"],"wikidata":null},"geometry":{"type":"Point","coordinates":[6.8012264,51.1952096]}},{"type":"Feature","properties":{"station_id":"n6120149110","station_name":"Platanenhof","station_name_local":"Platanenhof","network":"Unknown","network_local":null,"operator":null,"city":"Ratingen","country":"Germany","lines":["U79"],"wikidata":null},"geometry":{"type":"Point","coordinates":[6.7554854,51.42675]}},{"type":"Feature","properties":{"station_id":"n6120149111","station_name":"Musfeldstraße","station_name_local":"Musfeldstraße","network":"Unknown","network_local":null,"operator":null,"city":"Ratingen","country":"Germany","lines":["U79"],"wikidata":null},"geometry":{"type":"Point","coordinates":[6.7590675,51.4255559]}},{"type":"Feature","properties":{"station_id":"n6120149112","station_name":"Kremerstraße","station_name_local":"Kremerstraße","network":"Unknown","network_local":null,"operator":null,"city":"Ratingen","country":"Germany","lines":["U79"],"wikidata":null},"geometry":{"type":"Point","coordinates":[6.7645204,51.4259654]}},{"type":"Feature","properties":{"station_id":"n6120149115","station_name":"Karl-Jarres-Straße","station_name_local":"Karl-Jarres-Straße","network":"Unknown","network_local":null,"operator":null,"city":"Ratingen","country":"Germany","lines":["U79"],"wikidata":null},"geometry":{"type":"Point","coordinates":[6.7677597,51.4199973]}},{"type":"Feature","properties":{"station_id":"n6120149116","station_name":"Grunewald","station_name_local":"Grunewald","network":"Unknown","network_local":null,"operator":null,"city":"Ratingen","country":"Germany","lines":["U79"],"wikidata":null},"geometry":{"type":"Point","coordinates":[6.7700301,51.4129683]}},{"type":"Feature","properties":{"station_id":"n6120149117","station_name":"Grunewald Betriebshof","station_name_local":"Grunewald Betriebshof","network":"Unknown","network_local":null,"operator":null,"city":"Ratingen","country":"Germany","lines":["U79"],"wikidata":null},"geometry":{"type":"Point","coordinates":[6.7682333,51.4096001]}},{"type":"Feature","properties":{"station_id":"n6120149118","station_name":"Münchener Straße","station_name_local":"Münchener Straße","network":"Unknown","network_local":null,"operator":null,"city":"Ratingen","country":"Germany","lines":["U79"],"wikidata":null},"geometry":{"type":"Point","coordinates":[6.7609135,51.3839006]}},{"type":"Feature","properties":{"station_id":"n6120149119","station_name":"Sittardsberg","station_name_local":"Sittardsberg","network":"Unknown","network_local":null,"operator":null,"city":"Ratingen","country":"Germany","lines":["U79"],"wikidata":null},"geometry":{"type":"Point","coordinates":[6.7598547,51.3759208]}},{"type":"Feature","properties":{"station_id":"n6120149120","station_name":"Am Mühlenkamp","station_name_local":"Am Mühlenkamp","network":"Unknown","network_local":null,"operator":null,"city":"Ratingen","country":"Germany","lines":["U79"],"wikidata":null},"geometry":{"type":"Point","coordinates":[6.7565891,51.3707711]}},{"type":"Feature","properties":{"station_id":"n6120149121","station_name":"Duisburg - Kesselsberg","station_name_local":"Duisburg - Kesselsberg","network":"Unknown","network_local":null,"operator":null,"city":"Ratingen","country":"Germany","lines":["U79"],"wikidata":null},"geometry":{"type":"Point","coordinates":[6.7466119,51.3567469]}},{"type":"Feature","properties":{"station_id":"n6120149122","station_name":"Froschenteich","station_name_local":"Froschenteich","network":"Unknown","network_local":null,"operator":null,"city":"Ratingen","country":"Germany","lines":["U79"],"wikidata":null},"geometry":{"type":"Point","coordinates":[6.7513819,51.3390005]}},{"type":"Feature","properties":{"station_id":"n6120149123","station_name":"Wittlaer","station_name_local":"Wittlaer","network":"Unknown","network_local":null,"operator":null,"city":"Ratingen","country":"Germany","lines":["U79"],"wikidata":null},"geometry":{"type":"Point","coordinates":[6.7453245,51.3181011]}},{"type":"Feature","properties":{"station_id":"n6120149124","station_name":"Am Mühlenacker","station_name_local":"Am Mühlenacker","network":"Unknown","network_local":null,"operator":null,"city":"Ratingen","country":"Germany","lines":["U79"],"wikidata":null},"geometry":{"type":"Point","coordinates":[6.7448759,51.3129257]}},{"type":"Feature","properties":{"station_id":"n6120149125","station_name":"Kalkumer Schloßallee","station_name_local":"Kalkumer Schloßallee","network":"Unknown","network_local":null,"operator":null,"city":"Ratingen","country":"Germany","lines":["U79"],"wikidata":null},"geometry":{"type":"Point","coordinates":[6.7433994,51.3053587]}},{"type":"Feature","properties":{"station_id":"n6120149126","station_name":"Klemensplatz","station_name_local":"Klemensplatz","network":"Unknown","network_local":null,"operator":null,"city":"Ratingen","country":"Germany","lines":["U79"],"wikidata":null},"geometry":{"type":"Point","coordinates":[6.7393291,51.3006089]}},{"type":"Feature","properties":{"station_id":"n6120149127","station_name":"Kittelbachstraße","station_name_local":"Kittelbachstraße","network":"Unknown","network_local":null,"operator":null,"city":"Ratingen","country":"Germany","lines":["U79"],"wikidata":null},"geometry":{"type":"Point","coordinates":[6.7387759,51.2948681]}},{"type":"Feature","properties":{"station_id":"n6120149128","station_name":"Alte Landstraße","station_name_local":"Alte Landstraße","network":"Unknown","network_local":null,"operator":null,"city":"Ratingen","country":"Germany","lines":["U79"],"wikidata":"Q30897321"},"geometry":{"type":"Point","coordinates":[6.7390622,51.2890645]}},{"type":"Feature","properties":{"station_id":"n6120149129","station_name":"Lohausen","station_name_local":"Lohausen","network":"Unknown","network_local":null,"operator":null,"city":"Ratingen","country":"Germany","lines":["U79"],"wikidata":null},"geometry":{"type":"Point","coordinates":[6.7479155,51.2742085]}},{"type":"Feature","properties":{"station_id":"n6755327958","station_name":"Karlsplatz","station_name_local":"Karlsplatz","network":"Ruhrbahn","network_local":null,"operator":"Ruhrbahn","city":"Ratingen","country":"Germany","lines":["U11"],"wikidata":"Q25089110"},"geometry":{"type":"Point","coordinates":[7.007829,51.5007506]}},{"type":"Feature","properties":{"station_id":"n10359659188","station_name":"Schloß Horst","station_name_local":"Schloß Horst","network":"VRR","network_local":"VRR","operator":null,"city":"Ratingen","country":"Germany","lines":["U11"],"wikidata":null},"geometry":{"type":"Point","coordinates":[7.0237988,51.5361761]}},{"type":"Feature","properties":{"station_id":"n10537619278","station_name":"Düsseldorf Hauptbahnhof","station_name_local":"Düsseldorf Hauptbahnhof","network":"Unknown","network_local":null,"operator":null,"city":"Ratingen","country":"Germany","lines":["U79"],"wikidata":"Q2465866"},"geometry":{"type":"Point","coordinates":[6.7939398,51.219709]}},{"type":"Feature","properties":{"station_id":"n10537641503","station_name":"Duisburg Hauptbahnhof U","station_name_local":"Duisburg Hauptbahnhof U","network":"Unknown","network_local":null,"operator":null,"city":"Ratingen","country":"Germany","lines":["U79"],"wikidata":"Q2465861"},"geometry":{"type":"Point","coordinates":[6.777205,51.431848]}}]}