{"type":"FeatureCollection","metro_system":{"continent":"europe","country":"Germany","city":"Nuremberg","osm_networks":["DB Station&Service AG","Infra Fürth GmbH","U-Bahn Nürnberg","VAG Verkehrs-Aktiengesellschaft Nürnberg","VGN","Verkehrsverbund Großraum Nürnberg"],"operator":"VAG Verkehrs-Aktiengesellschaft Nürnberg","official_website":"http://www.vgn.de/komfortauskunft/ttb/?lineName=U1&exactMatch=1","official_map":"https://de.wikipedia.org/wiki/U-Bahn_Nürnberg","wikidata":"Q3433210","line_count":3,"station_count":50,"audit":null},"features":[{"type":"Feature","properties":{"route_id":"rm1857639","route_name":"U-Bahn U1: Fürth Hardhöhe <=> Nürnberg Langwasser Süd","route_name_local":"U-Bahn U1: Fürth Hardhöhe <=> Nürnberg Langwasser Süd","route_ref":"U1","route_color":"#000066","network":"Verkehrsverbund Großraum Nürnberg","network_local":"Verkehrsverbund Großraum Nürnberg","operator":"VAG Verkehrs-Aktiengesellschaft Nürnberg","city":"Nuremberg","country":"Germany","wikidata":"Q3433210","wikipedia":"de:U-Bahn Nürnberg","osm_route_ids":[538906,538907,10517754,10517755,10517756,10517757,10517758,10517759,10517760,10517761,10517762]},"geometry":{"type":"MultiLineString","coordinates":[[[10.9575331,49.4804447],[10.9689867,49.4825899],[10.9813273,49.4803272],[10.988416,49.4774065],[10.9912982,49.4703063],[11.0004867,49.4682501],[11.0110628,49.4654237],[11.0227221,49.4616933],[11.0334097,49.4581883],[11.0421337,49.4552824],[11.0507114,49.4523829],[11.0568643,49.4505216],[11.0650391,49.4483345],[11.0702023,49.4501207],[11.0777299,49.4509469],[11.0818486,49.4468617],[11.0802485,49.440791],[11.0839059,49.435726],[11.0863535,49.4301614],[11.0904098,49.4240758],[11.1079747,49.4171218],[11.1141473,49.4159156],[11.1215182,49.4123871],[11.1265763,49.4085609],[11.1319417,49.4046292],[11.1359091,49.4012628],[11.1405809,49.3987241]],[[11.1405809,49.3987241],[11.1359091,49.4012628],[11.1319417,49.4046292],[11.1265763,49.4085609],[11.1215182,49.4123871],[11.1141473,49.4159156],[11.1079747,49.4171218],[11.0904098,49.4240758],[11.0863535,49.4301614],[11.0839059,49.435726],[11.0802485,49.440791],[11.0818486,49.4468617],[11.0777299,49.4509469],[11.0702023,49.4501207],[11.0650391,49.4483345],[11.0568643,49.4505216],[11.0507114,49.4523829],[11.0421337,49.4552824],[11.0334097,49.4581883],[11.0227221,49.4616933],[11.0110628,49.4654237],[11.0004867,49.4682501],[10.9912982,49.4703063],[10.988416,49.4774065],[10.9813273,49.4803272],[10.9689867,49.4825899],[10.9575331,49.4804447]]]}},{"type":"Feature","properties":{"route_id":"rm1676043","route_name":"U-Bahn U2: Nürnberg Röthenbach <=> Nürnberg Flughafen","route_name_local":"U-Bahn U2: Nürnberg Röthenbach <=> Nürnberg Flughafen","route_ref":"U2","route_color":"#e6194b","network":"Verkehrsverbund Großraum Nürnberg","network_local":"Verkehrsverbund Großraum Nürnberg","operator":"Verkehrs-Aktiengesellschaft Nürnberg","city":"Nuremberg","country":"Germany","wikidata":"Q3433227","wikipedia":"de:U-Bahn Nürnberg","osm_route_ids":[905096,1168226]},"geometry":{"type":"MultiLineString","coordinates":[[[11.0316395,49.4208907],[11.0439165,49.4289706],[11.0483933,49.4343552],[11.0499412,49.4387845],[11.055062,49.444406],[11.0650391,49.4483345],[11.0747141,49.4468916],[11.0818486,49.4468617],[11.0868851,49.4525541],[11.0894789,49.4569018],[11.0935138,49.461048],[11.1004389,49.4646488],[11.1044729,49.4721808],[11.1099562,49.4785309],[11.1052318,49.4850606],[11.0782003,49.4939999]],[[11.0782003,49.4939999],[11.1052318,49.4850606],[11.1099562,49.4785309],[11.1044729,49.4721808],[11.1004389,49.4646488],[11.0935138,49.461048],[11.0894789,49.4569018],[11.0868851,49.4525541],[11.0818486,49.4468617],[11.0747141,49.4468916],[11.0650391,49.4483345],[11.055062,49.444406],[11.0499412,49.4387845],[11.0483933,49.4343552],[11.0439165,49.4289706],[11.0316395,49.4208907]]]}},{"type":"Feature","properties":{"route_id":"rm1857497","route_name":"U-Bahn U3: Nürnberg Großreuth bei Schweinau <=> Nürnberg Nordwestring","route_name_local":"U-Bahn U3: Nürnberg Großreuth bei Schweinau <=> Nürnberg Nordwestring","route_ref":"U3","route_color":"#00868b","network":"Verkehrsverbund Großraum Nürnberg","network_local":"Verkehrsverbund Großraum Nürnberg","operator":"Verkehrs-Aktiengesellschaft Nürnberg","city":"Nuremberg","country":"Germany","wikidata":"Q697512","wikipedia":"de:U-Bahn Nürnberg","osm_route_ids":[905097,1168225]},"geometry":{"type":"MultiLineString","coordinates":[[[11.0243069,49.4392918],[11.0363169,49.4391448],[11.0435757,49.4418265],[11.055062,49.444406],[11.0650391,49.4483345],[11.0747141,49.4468916],[11.0818486,49.4468617],[11.0868851,49.4525541],[11.0894789,49.4569018],[11.0849499,49.4633221],[11.0785347,49.4633227],[11.0713142,49.4624712],[11.0645891,49.463987],[11.0549278,49.4657174]],[[11.0549278,49.4657174],[11.0645891,49.463987],[11.0713142,49.4624712],[11.0785347,49.4633227],[11.0849499,49.4633221],[11.0894789,49.4569018],[11.0868851,49.4525541],[11.0818486,49.4468617],[11.0747141,49.4468916],[11.0650391,49.4483345],[11.055062,49.444406],[11.0435757,49.4418265],[11.0363169,49.4391448],[11.0243069,49.4392918]]]}},{"type":"Feature","properties":{"station_id":"n317954429","station_name":"Nürnberg-Sandreuth","station_name_local":"Nürnberg-Sandreuth","network":"DB Station&Service AG","network_local":null,"operator":"DB Station&Service AG","city":"Nuremberg","country":"Germany","lines":["U2"],"wikidata":null,"merged_from":2},"geometry":{"type":"Point","coordinates":[11.05482965,49.4296323]}},{"type":"Feature","properties":{"station_id":"n904158186","station_name":"Fürth Jakobinenstraße","station_name_local":"Fürth Jakobinenstraße","network":"Infra Fürth GmbH","network_local":null,"operator":"Infra Fürth GmbH","city":"Nuremberg","country":"Germany","lines":["U1"],"wikidata":"Q831661"},"geometry":{"type":"Point","coordinates":[11.0004867,49.4682501]}},{"type":"Feature","properties":{"station_id":"n904363731","station_name":"Fürth Hardhöhe","station_name_local":"Fürth Hardhöhe","network":"Infra Fürth GmbH","network_local":null,"operator":"Infra Fürth GmbH","city":"Nuremberg","country":"Germany","lines":["U1"],"wikidata":"Q832013"},"geometry":{"type":"Point","coordinates":[10.9575331,49.4804447]}},{"type":"Feature","properties":{"station_id":"n1113282688","station_name":"Hohe Marter","station_name_local":"Hohe Marter","network":"VAG Verkehrs-Aktiengesellschaft Nürnberg","network_local":null,"operator":"VAG Verkehrs-Aktiengesellschaft Nürnberg","city":"Nuremberg","country":"Germany","lines":["U2"],"wikidata":"Q833611"},"geometry":{"type":"Point","coordinates":[11.0439165,49.4289706]}},{"type":"Feature","properties":{"station_id":"n1539236964","station_name":"Aufseßplatz","station_name_local":"Aufseßplatz","network":"VAG Verkehrs-Aktiengesellschaft Nürnberg","network_local":null,"operator":"VAG Verkehrs-Aktiengesellschaft Nürnberg","city":"Nuremberg","country":"Germany","lines":["U1"],"wikidata":"Q770706"},"geometry":{"type":"Point","coordinates":[11.0802485,49.440791]}},{"type":"Feature","properties":{"station_id":"n1585044529","station_name":"Frankenstraße","station_name_local":"Frankenstraße","network":"VAG Verkehrs-Aktiengesellschaft Nürnberg","network_local":null,"operator":"VAG Verkehrs-Aktiengesellschaft Nürnberg","city":"Nuremberg","country":"Germany","lines":["U1"],"wikidata":"Q831678"},"geometry":{"type":"Point","coordinates":[11.0863535,49.4301614]}},{"type":"Feature","properties":{"station_id":"n1585044532","station_name":"Hasenbuck","station_name_local":"Hasenbuck","network":"VAG Verkehrs-Aktiengesellschaft Nürnberg","network_local":null,"operator":"VAG Verkehrs-Aktiengesellschaft Nürnberg","city":"Nuremberg","country":"Germany","lines":["U1"],"wikidata":"Q831978"},"geometry":{"type":"Point","coordinates":[11.0904098,49.4240758]}},{"type":"Feature","properties":{"station_id":"n2606135477","station_name":"Gostenhof","station_name_local":"Gostenhof","network":"VAG Verkehrs-Aktiengesellschaft Nürnberg","network_local":null,"operator":"VAG Verkehrs-Aktiengesellschaft Nürnberg","city":"Nuremberg","country":"Germany","lines":["U1"],"wikidata":"Q833242"},"geometry":{"type":"Point","coordinates":[11.0568643,49.4505216]}},{"type":"Feature","properties":{"station_id":"n2606135478","station_name":"Bärenschanze","station_name_local":"Bärenschanze","network":"VAG Verkehrs-Aktiengesellschaft Nürnberg","network_local":null,"operator":"VAG Verkehrs-Aktiengesellschaft Nürnberg","city":"Nuremberg","country":"Germany","lines":["U1"],"wikidata":"Q833524"},"geometry":{"type":"Point","coordinates":[11.0507114,49.4523829]}},{"type":"Feature","properties":{"station_id":"n2606135480","station_name":"Eberhardshof","station_name_local":"Eberhardshof","network":"VAG Verkehrs-Aktiengesellschaft Nürnberg","network_local":null,"operator":"VAG Verkehrs-Aktiengesellschaft Nürnberg","city":"Nuremberg","country":"Germany","lines":["U1"],"wikidata":"Q288099"},"geometry":{"type":"Point","coordinates":[11.0334097,49.4581883]}},{"type":"Feature","properties":{"station_id":"n2616227985","station_name":"Nürnberg Hauptbahnhof","station_name_local":"Nürnberg Hauptbahnhof","network":"VAG Verkehrs-Aktiengesellschaft Nürnberg","network_local":null,"operator":"VAG Verkehrs-Aktiengesellschaft Nürnberg","city":"Nuremberg","country":"Germany","lines":["U2","U3"],"wikidata":"Q2465927"},"geometry":{"type":"Point","coordinates":[11.0818486,49.4468617]}},{"type":"Feature","properties":{"station_id":"n4333553202","station_name":"Rathenauplatz","station_name_local":"Rathenauplatz","network":"VAG Verkehrs-Aktiengesellschaft Nürnberg","network_local":null,"operator":"VAG Verkehrs-Aktiengesellschaft Nürnberg","city":"Nuremberg","country":"Germany","lines":["U2","U3"],"wikidata":"Q833478"},"geometry":{"type":"Point","coordinates":[11.0894789,49.4569018]}},{"type":"Feature","properties":{"station_id":"n4344458580","station_name":"Rothenburger Straße","station_name_local":"Rothenburger Straße","network":"VAG Verkehrs-Aktiengesellschaft Nürnberg","network_local":null,"operator":"VAG Verkehrs-Aktiengesellschaft Nürnberg","city":"Nuremberg","country":"Germany","lines":["U2","U3"],"wikidata":"Q833588"},"geometry":{"type":"Point","coordinates":[11.055062,49.444406]}},{"type":"Feature","properties":{"station_id":"n4757400222","station_name":"Wöhrder Wiese","station_name_local":"Wöhrder Wiese","network":"VAG Verkehrs-Aktiengesellschaft Nürnberg","network_local":null,"operator":"VAG Verkehrs-Aktiengesellschaft Nürnberg","city":"Nuremberg","country":"Germany","lines":["U2","U3"],"wikidata":"Q833549"},"geometry":{"type":"Point","coordinates":[11.0868851,49.4525541]}},{"type":"Feature","properties":{"station_id":"n4757400223","station_name":"Weißer Turm","station_name_local":"Weißer Turm","network":"VAG Verkehrs-Aktiengesellschaft Nürnberg","network_local":null,"operator":"VAG Verkehrs-Aktiengesellschaft Nürnberg","city":"Nuremberg","country":"Germany","lines":["U1"],"wikidata":"Q833557"},"geometry":{"type":"Point","coordinates":[11.0702023,49.4501207]}},{"type":"Feature","properties":{"station_id":"n4757608375","station_name":"Stadtgrenze","station_name_local":"Stadtgrenze","network":"Verkehrsverbund Großraum Nürnberg","network_local":"Verkehrsverbund Großraum Nürnberg","operator":"VAG Verkehrs-Aktiengesellschaft Nürnberg","city":"Nuremberg","country":"Germany","lines":["U1"],"wikidata":"Q1549536"},"geometry":{"type":"Point","coordinates":[11.0110628,49.4654237]}},{"type":"Feature","properties":{"station_id":"n4757622622","station_name":"St. Leonhard","station_name_local":"St. Leonhard","network":"VAG Verkehrs-Aktiengesellschaft Nürnberg","network_local":null,"operator":"VAG Verkehrs-Aktiengesellschaft Nürnberg","city":"Nuremberg","country":"Germany","lines":["U2"],"wikidata":"Q281375"},"geometry":{"type":"Point","coordinates":[11.0499412,49.4387845]}},{"type":"Feature","properties":{"station_id":"n4757717237","station_name":"Schweinau","station_name_local":"Schweinau","network":"VAG Verkehrs-Aktiengesellschaft Nürnberg","network_local":null,"operator":"VAG Verkehrs-Aktiengesellschaft Nürnberg","city":"Nuremberg","country":"Germany","lines":["U2"],"wikidata":"Q255816"},"geometry":{"type":"Point","coordinates":[11.0483933,49.4343552]}},{"type":"Feature","properties":{"station_id":"n4759152761","station_name":"Schoppershof","station_name_local":"Schoppershof","network":"VAG Verkehrs-Aktiengesellschaft Nürnberg","network_local":null,"operator":"VAG Verkehrs-Aktiengesellschaft Nürnberg","city":"Nuremberg","country":"Germany","lines":["U2"],"wikidata":"Q833621"},"geometry":{"type":"Point","coordinates":[11.1004389,49.4646488]}},{"type":"Feature","properties":{"station_id":"n4759187459","station_name":"Scharfreiterring","station_name_local":"Scharfreiterring","network":"VAG Verkehrs-Aktiengesellschaft Nürnberg","network_local":null,"operator":"VAG Verkehrs-Aktiengesellschaft Nürnberg","city":"Nuremberg","country":"Germany","lines":["U1"],"wikidata":"Q831696"},"geometry":{"type":"Point","coordinates":[11.1265763,49.4085609]}},{"type":"Feature","properties":{"station_id":"n4759413821","station_name":"Röthenbach","station_name_local":"Röthenbach","network":"Verkehrsverbund Großraum Nürnberg","network_local":"Verkehrsverbund Großraum Nürnberg","operator":"VAG Verkehrs-Aktiengesellschaft Nürnberg","city":"Nuremberg","country":"Germany","lines":["U2"],"wikidata":"Q833482"},"geometry":{"type":"Point","coordinates":[11.0316395,49.4208907]}},{"type":"Feature","properties":{"station_id":"n4759421223","station_name":"Rennweg","station_name_local":"Rennweg","network":"VAG Verkehrs-Aktiengesellschaft Nürnberg","network_local":null,"operator":"VAG Verkehrs-Aktiengesellschaft Nürnberg","city":"Nuremberg","country":"Germany","lines":["U2"],"wikidata":"Q831845"},"geometry":{"type":"Point","coordinates":[11.0935138,49.461048]}},{"type":"Feature","properties":{"station_id":"n4761338549","station_name":"Plärrer","station_name_local":"Plärrer","network":"VAG Verkehrs-Aktiengesellschaft Nürnberg","network_local":null,"operator":"VAG Verkehrs-Aktiengesellschaft Nürnberg","city":"Nuremberg","country":"Germany","lines":["U2","U3"],"wikidata":"Q833261"},"geometry":{"type":"Point","coordinates":[11.0650391,49.4483345]}},{"type":"Feature","properties":{"station_id":"n4763971452","station_name":"Langwasser Mitte","station_name_local":"Langwasser Mitte","network":"VAG Verkehrs-Aktiengesellschaft Nürnberg","network_local":null,"operator":"VAG Verkehrs-Aktiengesellschaft Nürnberg","city":"Nuremberg","country":"Germany","lines":["U1"],"wikidata":"Q831955"},"geometry":{"type":"Point","coordinates":[11.1319417,49.4046292]}},{"type":"Feature","properties":{"station_id":"n4763985965","station_name":"Langwasser Nord","station_name_local":"Langwasser Nord","network":"VAG Verkehrs-Aktiengesellschaft Nürnberg","network_local":null,"operator":"VAG Verkehrs-Aktiengesellschaft Nürnberg","city":"Nuremberg","country":"Germany","lines":["U1"],"wikidata":"Q181023"},"geometry":{"type":"Point","coordinates":[11.1215182,49.4123871]}},{"type":"Feature","properties":{"station_id":"n4772350540","station_name":"Opernhaus","station_name_local":"Opernhaus","network":"U-Bahn Nürnberg","network_local":"U-Bahn Nürnberg","operator":"VAG Verkehrs-Aktiengesellschaft Nürnberg","city":"Nuremberg","country":"Germany","lines":["U2","U3"],"wikidata":"Q833628"},"geometry":{"type":"Point","coordinates":[11.0747141,49.4468916]}},{"type":"Feature","properties":{"station_id":"n4772451721","station_name":"Nordostbahnhof","station_name_local":"Nordostbahnhof","network":"VAG Verkehrs-Aktiengesellschaft Nürnberg","network_local":null,"operator":"VAG Verkehrs-Aktiengesellschaft Nürnberg","city":"Nuremberg","country":"Germany","lines":["U2"],"wikidata":"Q382626"},"geometry":{"type":"Point","coordinates":[11.1044729,49.4721808]}},{"type":"Feature","properties":{"station_id":"n4772500005","station_name":"Muggenhof","station_name_local":"Muggenhof","network":"VAG Verkehrs-Aktiengesellschaft Nürnberg","network_local":null,"operator":"VAG Verkehrs-Aktiengesellschaft Nürnberg","city":"Nuremberg","country":"Germany","lines":["U1"],"wikidata":"Q1600764"},"geometry":{"type":"Point","coordinates":[11.0227221,49.4616933]}},{"type":"Feature","properties":{"station_id":"n4774103687","station_name":"Messe","station_name_local":"Messe","network":"VAG Verkehrs-Aktiengesellschaft Nürnberg","network_local":null,"operator":"VAG Verkehrs-Aktiengesellschaft Nürnberg","city":"Nuremberg","country":"Germany","lines":["U1"],"wikidata":"Q832002"},"geometry":{"type":"Point","coordinates":[11.1141473,49.4159156]}},{"type":"Feature","properties":{"station_id":"n4774135615","station_name":"Maximilianstraße","station_name_local":"Maximilianstraße","network":"VAG Verkehrs-Aktiengesellschaft Nürnberg","network_local":null,"operator":"VAG Verkehrs-Aktiengesellschaft Nürnberg","city":"Nuremberg","country":"Germany","lines":["U1"],"wikidata":"Q833636"},"geometry":{"type":"Point","coordinates":[11.0421337,49.4552824]}},{"type":"Feature","properties":{"station_id":"n4774180523","station_name":"Maxfeld","station_name_local":"Maxfeld","network":"VAG Verkehrs-Aktiengesellschaft Nürnberg","network_local":null,"operator":"VAG Verkehrs-Aktiengesellschaft Nürnberg","city":"Nuremberg","country":"Germany","lines":["U3"],"wikidata":"Q833249"},"geometry":{"type":"Point","coordinates":[11.0849499,49.4633221]}},{"type":"Feature","properties":{"station_id":"n4774196233","station_name":"Maffeiplatz","station_name_local":"Maffeiplatz","network":"VGN","network_local":"VGN","operator":"VAG Verkehrs-Aktiengesellschaft Nürnberg","city":"Nuremberg","country":"Germany","lines":["U1"],"wikidata":"Q831988"},"geometry":{"type":"Point","coordinates":[11.0839059,49.435726]}},{"type":"Feature","properties":{"station_id":"n5377012523","station_name":"Lorenzkirche","station_name_local":"Lorenzkirche","network":"VAG Verkehrs-Aktiengesellschaft Nürnberg","network_local":null,"operator":"VAG Verkehrs-Aktiengesellschaft Nürnberg","city":"Nuremberg","country":"Germany","lines":["U1"],"wikidata":"Q833497"},"geometry":{"type":"Point","coordinates":[11.0777299,49.4509469]}},{"type":"Feature","properties":{"station_id":"n5407589294","station_name":"Fürth Hauptbahnhof","station_name_local":"Fürth Hauptbahnhof","network":"Infra Fürth GmbH","network_local":null,"operator":"Infra Fürth GmbH","city":"Nuremberg","country":"Germany","lines":["U1"],"wikidata":"Q834829"},"geometry":{"type":"Point","coordinates":[10.9912982,49.4703063]}},{"type":"Feature","properties":{"station_id":"n5781540166","station_name":"Nordwestring","station_name_local":"Nordwestring","network":"VAG Verkehrs-Aktiengesellschaft Nürnberg","network_local":null,"operator":"VAG Verkehrs-Aktiengesellschaft Nürnberg","city":"Nuremberg","country":"Germany","lines":["U3"],"wikidata":"Q30016604"},"geometry":{"type":"Point","coordinates":[11.0549278,49.4657174]}},{"type":"Feature","properties":{"station_id":"n7204798211","station_name":"Fürth-Stadthalle","station_name_local":"Fürth-Stadthalle","network":"Infra Fürth GmbH","network_local":null,"operator":"Infra Fürth GmbH","city":"Nuremberg","country":"Germany","lines":["U1"],"wikidata":"Q2465892"},"geometry":{"type":"Point","coordinates":[10.9813273,49.4803272]}},{"type":"Feature","properties":{"station_id":"n7204798212","station_name":"Fürth Rathaus","station_name_local":"Fürth Rathaus","network":"Infra Fürth GmbH","network_local":null,"operator":"Infra Fürth GmbH","city":"Nuremberg","country":"Germany","lines":["U1"],"wikidata":"Q831966"},"geometry":{"type":"Point","coordinates":[10.988416,49.4774065]}},{"type":"Feature","properties":{"station_id":"n7214634664","station_name":"Kaulbachplatz","station_name_local":"Kaulbachplatz","network":"VAG Verkehrs-Aktiengesellschaft Nürnberg","network_local":null,"operator":"VAG Verkehrs-Aktiengesellschaft Nürnberg","city":"Nuremberg","country":"Germany","lines":["U3"],"wikidata":"Q2465958"},"geometry":{"type":"Point","coordinates":[11.0785347,49.4633227]}},{"type":"Feature","properties":{"station_id":"n7656308810","station_name":"Großreuth bei Schweinau","station_name_local":"Großreuth bei Schweinau","network":"VAG Verkehrs-Aktiengesellschaft Nürnberg","network_local":null,"operator":"VAG Verkehrs-Aktiengesellschaft Nürnberg","city":"Nuremberg","country":"Germany","lines":["U3"],"wikidata":"Q83980591"},"geometry":{"type":"Point","coordinates":[11.0243069,49.4392918]}},{"type":"Feature","properties":{"station_id":"n8155373602","station_name":"Gustav-Adolf-Straße","station_name_local":"Gustav-Adolf-Straße","network":"VAG Verkehrs-Aktiengesellschaft Nürnberg","network_local":null,"operator":"VAG Verkehrs-Aktiengesellschaft Nürnberg","city":"Nuremberg","country":"Germany","lines":["U3"],"wikidata":"Q475153"},"geometry":{"type":"Point","coordinates":[11.0363169,49.4391448]}},{"type":"Feature","properties":{"station_id":"n8155420737","station_name":"Friedrich-Ebert-Platz","station_name_local":"Friedrich-Ebert-Platz","network":"VAG Verkehrs-Aktiengesellschaft Nürnberg","network_local":null,"operator":"VAG Verkehrs-Aktiengesellschaft Nürnberg","city":"Nuremberg","country":"Germany","lines":["U3"],"wikidata":"Q1796309"},"geometry":{"type":"Point","coordinates":[11.0713142,49.4624712]}},{"type":"Feature","properties":{"station_id":"n8155445039","station_name":"Klinikum Nord","station_name_local":"Klinikum Nord","network":"VAG Verkehrs-Aktiengesellschaft Nürnberg","network_local":null,"operator":"VAG Verkehrs-Aktiengesellschaft Nürnberg","city":"Nuremberg","country":"Germany","lines":["U3"],"wikidata":"Q30016605"},"geometry":{"type":"Point","coordinates":[11.0645891,49.463987]}},{"type":"Feature","properties":{"station_id":"n8155524094","station_name":"Sündersbühl","station_name_local":"Sündersbühl","network":"VAG Verkehrs-Aktiengesellschaft Nürnberg","network_local":null,"operator":"VAG Verkehrs-Aktiengesellschaft Nürnberg","city":"Nuremberg","country":"Germany","lines":["U3"],"wikidata":"Q831626"},"geometry":{"type":"Point","coordinates":[11.0435757,49.4418265]}},{"type":"Feature","properties":{"station_id":"n9334116510","station_name":"Langwasser Süd","station_name_local":"Langwasser Süd","network":"VAG Verkehrs-Aktiengesellschaft Nürnberg","network_local":null,"operator":"VAG Verkehrs-Aktiengesellschaft Nürnberg","city":"Nuremberg","country":"Germany","lines":["U1"],"wikidata":"Q831712"},"geometry":{"type":"Point","coordinates":[11.1405809,49.3987241]}},{"type":"Feature","properties":{"station_id":"n9334116511","station_name":"Gemeinschaftshaus","station_name_local":"Gemeinschaftshaus","network":"VAG Verkehrs-Aktiengesellschaft Nürnberg","network_local":null,"operator":"VAG Verkehrs-Aktiengesellschaft Nürnberg","city":"Nuremberg","country":"Germany","lines":["U1"],"wikidata":"Q831687"},"geometry":{"type":"Point","coordinates":[11.1359091,49.4012628]}},{"type":"Feature","properties":{"station_id":"n9663499371","station_name":"Klinikum","station_name_local":"Klinikum","network":"Verkehrsverbund Großraum Nürnberg","network_local":"Verkehrsverbund Großraum Nürnberg","operator":"Infra Fürth GmbH","city":"Nuremberg","country":"Germany","lines":["U1"],"wikidata":"Q833511"},"geometry":{"type":"Point","coordinates":[10.9689867,49.4825899]}},{"type":"Feature","properties":{"station_id":"n12919643011","station_name":"Ziegelstein","station_name_local":"Ziegelstein","network":"VAG Verkehrs-Aktiengesellschaft Nürnberg","network_local":null,"operator":"VAG Verkehrs-Aktiengesellschaft Nürnberg","city":"Nuremberg","country":"Germany","lines":["U2"],"wikidata":"Q831982"},"geometry":{"type":"Point","coordinates":[11.1052318,49.4850606]}},{"type":"Feature","properties":{"station_id":"n12919643012","station_name":"Herrnhütte","station_name_local":"Herrnhütte","network":"VAG Verkehrs-Aktiengesellschaft Nürnberg","network_local":null,"operator":"VAG Verkehrs-Aktiengesellschaft Nürnberg","city":"Nuremberg","country":"Germany","lines":["U2"],"wikidata":"Q831816"},"geometry":{"type":"Point","coordinates":[11.1099562,49.4785309]}},{"type":"Feature","properties":{"station_id":"n12919643013","station_name":"Flughafen","station_name_local":"Flughafen","network":"VAG Verkehrs-Aktiengesellschaft Nürnberg","network_local":null,"operator":"VAG Verkehrs-Aktiengesellschaft Nürnberg","city":"Nuremberg","country":"Germany","lines":["U2"],"wikidata":"Q833533"},"geometry":{"type":"Point","coordinates":[11.0782003,49.4939999]}},{"type":"Feature","properties":{"station_id":"n12919643014","station_name":"Bauernfeindstraße","station_name_local":"Bauernfeindstraße","network":"VAG Verkehrs-Aktiengesellschaft Nürnberg","network_local":null,"operator":"VAG Verkehrs-Aktiengesellschaft Nürnberg","city":"Nuremberg","country":"Germany","lines":["U1"],"wikidata":"Q832027"},"geometry":{"type":"Point","coordinates":[11.1079747,49.4171218]}}]}