{"type":"FeatureCollection","metro_system":{"continent":"europe","country":"Germany","city":"Ratingen","osm_networks":["Ruhrbahn","Unknown","VRR","VRR;Bogestra","Verkehrsverbund Rhein-Ruhr"],"operator":"Ruhrbahn;BOGESTRA","official_website":null,"official_map":"https://de.wikipedia.org/wiki/Stadtbahn_Essen","wikidata":"Q110928761","line_count":2,"station_count":89,"audit":{"strategies_tried":[],"passed":true,"checks":[{"id":"has_lines","ok":true,"detail":"2 lines","level":"error"},{"id":"has_stations","ok":true,"detail":"89 stations","level":"error"},{"id":"stations_have_lines","ok":true,"detail":"89/89 站皆有所屬路線","level":"error"},{"id":"stations_named","ok":true,"detail":"89/89 站有名稱","level":"warn"},{"id":"station_order","ok":true,"detail":"所有線路站序合理","level":"warn"}],"reasons":[],"warnings":[],"audited_at":"2026-07-10T07:57:11.079Z"}},"features":[{"type":"Feature","properties":{"route_id":"rm5311905","route_name":"Subway line U11","route_name_local":"U-Bahn U11","route_ref":"U11","route_color":"#342a82","network":"VRR","network_local":"VRR","operator":"Ruhrbahn;BOGESTRA","city":"Ratingen","country":"Germany","wikidata":"Q110928761","wikipedia":"de:Stadtbahn Essen","osm_route_ids":[70128,5311904]},"geometry":{"type":"MultiLineString","coordinates":[[[7.0261425,51.539418],[7.0237789,51.5362028],[7.0171737,51.5341519],[7.0100407,51.5282735],[7.0083779,51.5244511],[7.0072233,51.5182949],[7.0072847,51.5093023],[7.0076272,51.5056904],[7.007689,51.5007369],[7.0082432,51.4958925],[7.0093026,51.4910425],[7.0089776,51.48405],[7.0041305,51.4793852],[7.0004402,51.4741348],[7.0017939,51.4660331],[7.004258,51.4588564],[7.0104676,51.4543289],[7.0123272,51.450001],[7.008707,51.4452249],[7.0056203,51.4380605],[7.0045354,51.4343474],[7.0000638,51.4302573],[6.9921254,51.4249595]],[[6.9922353,51.4249094],[7.0001274,51.4301389],[7.0046048,51.4343397],[7.0056627,51.4380575],[7.0090262,51.4455532],[7.0128338,51.4503677],[7.0099482,51.4544746],[7.0044636,51.4590042],[7.0019601,51.4660333],[7.0006223,51.4741588],[7.0042499,51.4792896],[7.0091706,51.4840876],[7.0096034,51.4910211],[7.0085929,51.4959261],[7.0079657,51.5007453],[7.0077632,51.5056905],[7.0073888,51.509307],[7.007316,51.5182917],[7.0084862,51.5244464],[7.0101345,51.5282503],[7.0172233,51.5340988],[7.0238214,51.5361452],[7.0261425,51.539418]]]}},{"type":"Feature","properties":{"route_id":"rm28424","route_name":"Subway U79","route_name_local":"Subway U79","route_ref":"U79","route_color":"#009a93","network":"VRR","network_local":"VRR","operator":"Rheinbahn;DVG","city":"Ratingen","country":"Germany","wikidata":"Q1272295","wikipedia":"en:Düsseldorf Stadtbahn","osm_route_ids":[1804557,1804558,3227753,3227754]},"geometry":{"type":"MultiLineString","coordinates":[[[6.7790005,51.4676002],[6.772799,51.4658533],[6.7829389,51.4393221],[6.7772186,51.4319018],[6.7672777,51.4332361],[6.7597194,51.4319945],[6.7554619,51.4267544],[6.7597968,51.4256386],[6.7645076,51.4259321],[6.7677393,51.4199955],[6.7699754,51.4129773],[6.7681943,51.4096081],[6.764793,51.4057015],[6.7628998,51.40188],[6.7600298,51.3931233],[6.7608952,51.383899],[6.7598296,51.3759224],[6.7565673,51.3707768],[6.752587,51.364883],[6.7465875,51.3567521],[6.7513538,51.3389979],[6.7452188,51.3180236],[6.7448365,51.3129541],[6.7429282,51.3048646],[6.7393051,51.3006141],[6.738738,51.2945975],[6.7393687,51.288535],[6.7478882,51.2742053],[6.75252,51.2661131],[6.7542554,51.2604213],[6.7555363,51.2564747],[6.7588847,51.2532521],[6.7643414,51.2503778],[6.7685855,51.2461231],[6.7715892,51.2437544],[6.7750367,51.2390385],[6.7768812,51.2260695],[6.7811797,51.2230487],[6.7876346,51.2223842],[6.7940998,51.219611],[6.8029974,51.2167],[6.8059286,51.2135051],[6.8081734,51.2085244],[6.8106599,51.2036051],[6.8118225,51.1989676],[6.8143801,51.1934895],[6.8023734,51.1951481],[6.8002203,51.1900977]]]}},{"type":"Feature","properties":{"station_id":"n1078606426","station_name":"Buerer Straße","station_name_local":"Buerer Straße","network":"VRR","network_local":"VRR","operator":null,"city":"Ratingen","country":"Germany","lines":["U11"],"wikidata":null},"geometry":{"type":"Point","coordinates":[7.0261425,51.539418]}},{"type":"Feature","properties":{"station_id":"n1920297533","station_name":"St.-Anna-Krankenhaus","station_name_local":"St.-Anna-Krankenhaus","network":"Unknown","network_local":null,"operator":null,"city":"Ratingen","country":"Germany","lines":["U79"],"wikidata":null},"geometry":{"type":"Point","coordinates":[6.7526108,51.3648766]}},{"type":"Feature","properties":{"station_id":"n2445867152","station_name":"Im Schlenk","station_name_local":"Im Schlenk","network":"Unknown","network_local":null,"operator":null,"city":"Ratingen","country":"Germany","lines":["U79"],"wikidata":null},"geometry":{"type":"Point","coordinates":[6.7629572,51.401865]}},{"type":"Feature","properties":{"station_id":"n2445867153","station_name":"Kulturstraße","station_name_local":"Kulturstraße","network":"Unknown","network_local":null,"operator":null,"city":"Ratingen","country":"Germany","lines":["U79"],"wikidata":null},"geometry":{"type":"Point","coordinates":[6.764814,51.4056922]}},{"type":"Feature","properties":{"station_id":"n2445867428","station_name":"Waldfriedhof","station_name_local":"Waldfriedhof","network":"Unknown","network_local":null,"operator":null,"city":"Ratingen","country":"Germany","lines":["U79"],"wikidata":null},"geometry":{"type":"Point","coordinates":[6.7600756,51.3931302]}},{"type":"Feature","properties":{"station_id":"n3286791663","station_name":"Planckstraße","station_name_local":"Planckstraße","network":"Ruhrbahn","network_local":null,"operator":"Ruhrbahn","city":"Ratingen","country":"Germany","lines":["U17"],"wikidata":null},"geometry":{"type":"Point","coordinates":[7.000036,51.4452814]}},{"type":"Feature","properties":{"station_id":"n3318362889","station_name":"Altenessen Bf","station_name_local":"Altenessen Bf","network":"VRR","network_local":"VRR","operator":"Ruhrbahn","city":"Ratingen","country":"Germany","lines":["U11","U17"],"wikidata":null},"geometry":{"type":"Point","coordinates":[7.0090769,51.4840804]}},{"type":"Feature","properties":{"station_id":"n3318362890","station_name":"Altenessen Mitte","station_name_local":"Altenessen Mitte","network":"VRR","network_local":"VRR","operator":"Ruhrbahn","city":"Ratingen","country":"Germany","lines":["U11","U17"],"wikidata":"Q23785337"},"geometry":{"type":"Point","coordinates":[7.0084195,51.4958722]}},{"type":"Feature","properties":{"station_id":"n3318362891","station_name":"Bamlerstraße","station_name_local":"Bamlerstraße","network":"Ruhrbahn","network_local":null,"operator":"Ruhrbahn","city":"Ratingen","country":"Germany","lines":["U11","U17"],"wikidata":"Q48971594"},"geometry":{"type":"Point","coordinates":[7.0005447,51.4741044]}},{"type":"Feature","properties":{"station_id":"n3318362892","station_name":"Bäuminghausstraße","station_name_local":"Bäuminghausstraße","network":"Ruhrbahn","network_local":null,"operator":"Ruhrbahn","city":"Ratingen","country":"Germany","lines":["U11","U17"],"wikidata":null},"geometry":{"type":"Point","coordinates":[7.004181,51.4793386]}},{"type":"Feature","properties":{"station_id":"n3318362893","station_name":"Kaiser-Wilhelm-Park","station_name_local":"Kaiser-Wilhelm-Park","network":"VRR","network_local":"VRR","operator":"Ruhrbahn","city":"Ratingen","country":"Germany","lines":["U11","U17"],"wikidata":null},"geometry":{"type":"Point","coordinates":[7.0094364,51.4910383]}},{"type":"Feature","properties":{"station_id":"n3318371326","station_name":"Universität Essen","station_name_local":"Universität Essen","network":"Ruhrbahn","network_local":null,"operator":"Ruhrbahn","city":"Ratingen","country":"Germany","lines":["U11","U17"],"wikidata":"Q23786530"},"geometry":{"type":"Point","coordinates":[7.0018777,51.466033]}},{"type":"Feature","properties":{"station_id":"n3318452880","station_name":"Heßlerstraße","station_name_local":"Heßlerstraße","network":"Ruhrbahn","network_local":null,"operator":"Ruhrbahn","city":"Ratingen","country":"Germany","lines":["U11"],"wikidata":null},"geometry":{"type":"Point","coordinates":[7.0073357,51.5093052]}},{"type":"Feature","properties":{"station_id":"n3318452882","station_name":"II. Schichtstraße","station_name_local":"II. Schichtstraße","network":"VRR","network_local":"VRR","operator":"Ruhrbahn","city":"Ratingen","country":"Germany","lines":["U11"],"wikidata":null},"geometry":{"type":"Point","coordinates":[7.0076861,51.5056859]}},{"type":"Feature","properties":{"station_id":"n3482710766","station_name":"Arenbergstraße","station_name_local":"Arenbergstraße","network":"Ruhrbahn","network_local":null,"operator":"Ruhrbahn","city":"Ratingen","country":"Germany","lines":["U11"],"wikidata":null},"geometry":{"type":"Point","coordinates":[7.0072669,51.5182926]}},{"type":"Feature","properties":{"station_id":"n3881680782","station_name":"Duissern","station_name_local":"Duissern","network":"Unknown","network_local":null,"operator":null,"city":"Ratingen","country":"Germany","lines":["U79"],"wikidata":"Q21036566"},"geometry":{"type":"Point","coordinates":[6.782966,51.4391941]}},{"type":"Feature","properties":{"station_id":"n3881680783","station_name":"König-Heinrich-Platz","station_name_local":"König-Heinrich-Platz","network":"Unknown","network_local":null,"operator":null,"city":"Ratingen","country":"Germany","lines":["U79"],"wikidata":"Q15132788"},"geometry":{"type":"Point","coordinates":[6.7675078,51.4331339]}},{"type":"Feature","properties":{"station_id":"n3881681607","station_name":"Rathaus","station_name_local":"Rathaus","network":"Unknown","network_local":null,"operator":null,"city":"Ratingen","country":"Germany","lines":["U79"],"wikidata":null},"geometry":{"type":"Point","coordinates":[6.7618662,51.4344863]}},{"type":"Feature","properties":{"station_id":"n3883984229","station_name":"Auf dem Damm","station_name_local":"Auf dem Damm","network":"Unknown","network_local":null,"operator":null,"city":"Ratingen","country":"Germany","lines":["U79"],"wikidata":"Q4820312"},"geometry":{"type":"Point","coordinates":[6.7728786,51.4658201]}},{"type":"Feature","properties":{"station_id":"n3883984230","station_name":"Duisburg-Meiderich Bf","station_name_local":"Duisburg-Meiderich Bf","network":"Unknown","network_local":null,"operator":null,"city":"Ratingen","country":"Germany","lines":["U79"],"wikidata":null},"geometry":{"type":"Point","coordinates":[6.7790659,51.4675457]}},{"type":"Feature","properties":{"station_id":"n3893958139","station_name":"Hirschlandplatz","station_name_local":"Hirschlandplatz","network":"Ruhrbahn","network_local":null,"operator":"Ruhrbahn","city":"Ratingen","country":"Germany","lines":["U11","U17","U18"],"wikidata":"Q46192815"},"geometry":{"type":"Point","coordinates":[7.0101794,51.4544066]}},{"type":"Feature","properties":{"station_id":"n3893958943","station_name":"Savignystraße/ETEC","station_name_local":"Savignystraße/ETEC","network":"Ruhrbahn","network_local":null,"operator":"Ruhrbahn","city":"Ratingen","country":"Germany","lines":["U18"],"wikidata":"Q107015453"},"geometry":{"type":"Point","coordinates":[6.9946905,51.4460765]}},{"type":"Feature","properties":{"station_id":"n3907189707","station_name":"Berliner Platz","station_name_local":"Berliner Platz","network":"Ruhrbahn","network_local":null,"operator":"Ruhrbahn","city":"Ratingen","country":"Germany","lines":["U11","U17","U18"],"wikidata":"Q18632067"},"geometry":{"type":"Point","coordinates":[7.0042344,51.4592856]}},{"type":"Feature","properties":{"station_id":"n3939759928","station_name":"Philharmonie","station_name_local":"Philharmonie","network":"VRR","network_local":"VRR","operator":"Ruhrbahn","city":"Ratingen","country":"Germany","lines":["U11"],"wikidata":"Q25089267"},"geometry":{"type":"Point","coordinates":[7.0088602,51.4453835]}},{"type":"Feature","properties":{"station_id":"n3939763456","station_name":"Rüttenscheider Stern","station_name_local":"Rüttenscheider Stern","network":"Ruhrbahn","network_local":null,"operator":"Ruhrbahn","city":"Ratingen","country":"Germany","lines":["U11"],"wikidata":"Q7386788"},"geometry":{"type":"Point","coordinates":[7.0055612,51.4377665]}},{"type":"Feature","properties":{"station_id":"n3940430491","station_name":"Martinstraße","station_name_local":"Martinstraße","network":"Ruhrbahn","network_local":null,"operator":"Ruhrbahn","city":"Ratingen","country":"Germany","lines":["U11"],"wikidata":null},"geometry":{"type":"Point","coordinates":[7.0045746,51.4343482]}},{"type":"Feature","properties":{"station_id":"n3941934563","station_name":"Steinsche Gasse","station_name_local":"Steinsche Gasse","network":"Unknown","network_local":null,"operator":null,"city":"Ratingen","country":"Germany","lines":["U79"],"wikidata":"Q20182296"},"geometry":{"type":"Point","coordinates":[6.7599425,51.4320261]}},{"type":"Feature","properties":{"station_id":"n3946728817","station_name":"Messe Ost/Gruga","station_name_local":"Messe Ost/Gruga","network":"Ruhrbahn","network_local":null,"operator":"Ruhrbahn","city":"Ratingen","country":"Germany","lines":["U11"],"wikidata":null},"geometry":{"type":"Point","coordinates":[7.0000993,51.4301962]}},{"type":"Feature","properties":{"station_id":"n3946728819","station_name":"Messe West/Süd/Gruga","station_name_local":"Messe West/Süd/Gruga","network":"Ruhrbahn","network_local":null,"operator":"Ruhrbahn","city":"Ratingen","country":"Germany","lines":["U11"],"wikidata":null},"geometry":{"type":"Point","coordinates":[6.9921994,51.4249529]}},{"type":"Feature","properties":{"station_id":"n3948583063","station_name":"Bismarckplatz","station_name_local":"Bismarckplatz","network":"Ruhrbahn","network_local":null,"operator":"Ruhrbahn","city":"Ratingen","country":"Germany","lines":["U17","U18"],"wikidata":null},"geometry":{"type":"Point","coordinates":[7.0055092,51.4485381]}},{"type":"Feature","properties":{"station_id":"n3948583064","station_name":"Essen Hauptbahnhof","station_name_local":"Essen Hauptbahnhof","network":"Ruhrbahn","network_local":null,"operator":"Ruhrbahn","city":"Ratingen","country":"Germany","lines":["U11","U17","U18"],"wikidata":"Q19888031"},"geometry":{"type":"Point","coordinates":[7.0126609,51.4501992]}},{"type":"Feature","properties":{"station_id":"n3976609017","station_name":"Gemarkenplatz","station_name_local":"Gemarkenplatz","network":"Ruhrbahn","network_local":null,"operator":"Ruhrbahn","city":"Ratingen","country":"Germany","lines":["U17"],"wikidata":null},"geometry":{"type":"Point","coordinates":[6.9976918,51.4421779]}},{"type":"Feature","properties":{"station_id":"n4865003732","station_name":"Boyer Straße","station_name_local":"Boyer Straße","network":"Verkehrsverbund Rhein-Ruhr","network_local":"Verkehrsverbund Rhein-Ruhr","operator":"Ruhrbahn","city":"Ratingen","country":"Germany","lines":["U11"],"wikidata":null},"geometry":{"type":"Point","coordinates":[7.0084357,51.5244468]}},{"type":"Feature","properties":{"station_id":"n4865020734","station_name":"Alte Landstraße","station_name_local":"Alte Landstraße","network":"Ruhrbahn","network_local":null,"operator":"Ruhrbahn","city":"Ratingen","country":"Germany","lines":["U11"],"wikidata":null},"geometry":{"type":"Point","coordinates":[7.0100895,51.5282597]}},{"type":"Feature","properties":{"station_id":"n6120149128","station_name":"Alte Landstraße","station_name_local":"Alte Landstraße","network":"Unknown","network_local":null,"operator":null,"city":"Ratingen","country":"Germany","lines":["U79"],"wikidata":"Q30897321"},"geometry":{"type":"Point","coordinates":[6.7390622,51.2890645]}},{"type":"Feature","properties":{"station_id":"n4865068397","station_name":"Fischerstraße","station_name_local":"Fischerstraße","network":"VRR","network_local":"VRR","operator":null,"city":"Ratingen","country":"Germany","lines":["U11"],"wikidata":null},"geometry":{"type":"Point","coordinates":[7.0172025,51.5341264]}},{"type":"Feature","properties":{"station_id":"n5672762808","station_name":"Kettwiger Straße","station_name_local":"Kettwiger Straße","network":"Unknown","network_local":null,"operator":null,"city":"Ratingen","country":"Germany","lines":["U75","U77"],"wikidata":null,"merged_from":2},"geometry":{"type":"Point","coordinates":[6.809730399999999,51.2205248]}},{"type":"Feature","properties":{"station_id":"n6077686967","station_name":"Tonhalle/Ehrenhof","station_name_local":"Tonhalle/Ehrenhof","network":"Unknown","network_local":null,"operator":null,"city":"Ratingen","country":"Germany","lines":["U70","U75","U76","U77"],"wikidata":null},"geometry":{"type":"Point","coordinates":[6.7738592,51.2316524]}},{"type":"Feature","properties":{"station_id":"n6114172386","station_name":"Handelszentrum/Moskauer Straße","station_name_local":"Handelszentrum/Moskauer Straße","network":"Unknown","network_local":null,"operator":null,"city":"Ratingen","country":"Germany","lines":["U70","U75","U77"],"wikidata":null},"geometry":{"type":"Point","coordinates":[6.8017347,51.2188163]}},{"type":"Feature","properties":{"station_id":"n6114172387","station_name":"Oststraße","station_name_local":"Oststraße","network":"Unknown","network_local":null,"operator":null,"city":"Ratingen","country":"Germany","lines":["U70","U75","U76","U77"],"wikidata":null},"geometry":{"type":"Point","coordinates":[6.7876095,51.2223412]}},{"type":"Feature","properties":{"station_id":"n6114172388","station_name":"Steinstraße/Königsallee","station_name_local":"Steinstraße/Königsallee","network":"Unknown","network_local":null,"operator":null,"city":"Ratingen","country":"Germany","lines":["U78","U79"],"wikidata":null},"geometry":{"type":"Point","coordinates":[6.7809945,51.2229951]}},{"type":"Feature","properties":{"station_id":"n6114172389","station_name":"Heinrich-Heine-Allee","station_name_local":"Heinrich-Heine-Allee","network":"Unknown","network_local":null,"operator":null,"city":"Ratingen","country":"Germany","lines":["U78","U79"],"wikidata":null},"geometry":{"type":"Point","coordinates":[6.7768425,51.2255316]}},{"type":"Feature","properties":{"station_id":"n6114172405","station_name":"Barbarossaplatz","station_name_local":"Barbarossaplatz","network":"Unknown","network_local":null,"operator":null,"city":"Ratingen","country":"Germany","lines":["U75","U76","U77"],"wikidata":null},"geometry":{"type":"Point","coordinates":[6.754902,51.231548]}},{"type":"Feature","properties":{"station_id":"n6114260156","station_name":"Werstener Dorfstraße","station_name_local":"Werstener Dorfstraße","network":"Unknown","network_local":null,"operator":null,"city":"Ratingen","country":"Germany","lines":["U76","U79"],"wikidata":null},"geometry":{"type":"Point","coordinates":[6.8148695,51.1928034]}},{"type":"Feature","properties":{"station_id":"n6114260157","station_name":"Provinzialplatz","station_name_local":"Provinzialplatz","network":"Unknown","network_local":null,"operator":null,"city":"Ratingen","country":"Germany","lines":["U76","U79"],"wikidata":null},"geometry":{"type":"Point","coordinates":[6.8118476,51.1989685]}},{"type":"Feature","properties":{"station_id":"n6114260158","station_name":"Kaiserslauterner Straße","station_name_local":"Kaiserslauterner Straße","network":"Unknown","network_local":null,"operator":null,"city":"Ratingen","country":"Germany","lines":["U76","U79"],"wikidata":null},"geometry":{"type":"Point","coordinates":[6.8106839,51.2036048]}},{"type":"Feature","properties":{"station_id":"n6114260159","station_name":"Oberbilk S","station_name_local":"Oberbilk S","network":"Unknown","network_local":null,"operator":null,"city":"Ratingen","country":"Germany","lines":["U76","U79"],"wikidata":null},"geometry":{"type":"Point","coordinates":[6.8081807,51.2085483]}},{"type":"Feature","properties":{"station_id":"n6114260160","station_name":"Ellerstraße","station_name_local":"Ellerstraße","network":"Unknown","network_local":null,"operator":null,"city":"Ratingen","country":"Germany","lines":["U76","U79"],"wikidata":null},"geometry":{"type":"Point","coordinates":[6.8058331,51.213655]}},{"type":"Feature","properties":{"station_id":"n6114260161","station_name":"Oberbilker Markt/Warschauer Straße","station_name_local":"Oberbilker Markt/Warschauer Straße","network":"Unknown","network_local":null,"operator":null,"city":"Ratingen","country":"Germany","lines":["U76","U79"],"wikidata":null},"geometry":{"type":"Point","coordinates":[6.8030259,51.2167032]}},{"type":"Feature","properties":{"station_id":"n6120050223","station_name":"Freiligrathplatz","station_name_local":"Freiligrathplatz","network":"Unknown","network_local":null,"operator":null,"city":"Ratingen","country":"Germany","lines":["U79"],"wikidata":null},"geometry":{"type":"Point","coordinates":[6.7525772,51.2653156]}},{"type":"Feature","properties":{"station_id":"n6120050224","station_name":"Messe Ost/Stockumer Kirchstraße","station_name_local":"Messe Ost/Stockumer Kirchstraße","network":"Unknown","network_local":null,"operator":null,"city":"Ratingen","country":"Germany","lines":["U78","U79"],"wikidata":null},"geometry":{"type":"Point","coordinates":[6.7543273,51.2604202]}},{"type":"Feature","properties":{"station_id":"n6120050225","station_name":"Nordpark/Aquazoo","station_name_local":"Nordpark/Aquazoo","network":"Unknown","network_local":null,"operator":null,"city":"Ratingen","country":"Germany","lines":["U78","U79"],"wikidata":null},"geometry":{"type":"Point","coordinates":[6.7555994,51.256471]}},{"type":"Feature","properties":{"station_id":"n6120050226","station_name":"Reeser Platz","station_name_local":"Reeser Platz","network":"Unknown","network_local":null,"operator":null,"city":"Ratingen","country":"Germany","lines":["U78","U79"],"wikidata":null},"geometry":{"type":"Point","coordinates":[6.7589441,51.2532819]}},{"type":"Feature","properties":{"station_id":"n6120050227","station_name":"Theodor-Heuss-Brücke","station_name_local":"Theodor-Heuss-Brücke","network":"Verkehrsverbund Rhein-Ruhr","network_local":"Verkehrsverbund Rhein-Ruhr","operator":"Rheinbahn AG","city":"Ratingen","country":"Germany","lines":["U78","U79"],"wikidata":null},"geometry":{"type":"Point","coordinates":[6.7648087,51.2499957]}},{"type":"Feature","properties":{"station_id":"n6120050228","station_name":"Golzheimer Platz","station_name_local":"Golzheimer Platz","network":"Unknown","network_local":null,"operator":null,"city":"Ratingen","country":"Germany","lines":["U78","U79"],"wikidata":null},"geometry":{"type":"Point","coordinates":[6.7680891,51.2465904]}},{"type":"Feature","properties":{"station_id":"n6120050229","station_name":"Kennedydamm","station_name_local":"Kennedydamm","network":"Verkehrsverbund Rhein-Ruhr","network_local":"Verkehrsverbund Rhein-Ruhr","operator":"Rheinbahn AG","city":"Ratingen","country":"Germany","lines":["U78","U79"],"wikidata":null},"geometry":{"type":"Point","coordinates":[6.7719783,51.2434703]}},{"type":"Feature","properties":{"station_id":"n6120050230","station_name":"ERGO-Platz/Klever Straße","station_name_local":"ERGO-Platz/Klever Straße","network":"Verkehrsverbund Rhein-Ruhr","network_local":"Verkehrsverbund Rhein-Ruhr","operator":"Rheinbahn AG","city":"Ratingen","country":"Germany","lines":["U78","U79"],"wikidata":null},"geometry":{"type":"Point","coordinates":[6.7750943,51.2390465]}},{"type":"Feature","properties":{"station_id":"n6120050231","station_name":"Nordstraße","station_name_local":"Nordstraße","network":"Unknown","network_local":null,"operator":null,"city":"Ratingen","country":"Germany","lines":["U70","U75","U76","U77"],"wikidata":"Q135476626"},"geometry":{"type":"Point","coordinates":[6.7784932,51.2344]}},{"type":"Feature","properties":{"station_id":"n6120149106","station_name":"Universität Ost/Botanischer Garten","station_name_local":"Universität Ost/Botanischer Garten","network":"Unknown","network_local":null,"operator":null,"city":"Ratingen","country":"Germany","lines":["U73","U79"],"wikidata":null},"geometry":{"type":"Point","coordinates":[6.8001428,51.1904358]}},{"type":"Feature","properties":{"station_id":"n6120149107","station_name":"Südpark","station_name_local":"Südpark","network":"Unknown","network_local":null,"operator":null,"city":"Ratingen","country":"Germany","lines":["U73"],"wikidata":null},"geometry":{"type":"Point","coordinates":[6.8012264,51.1952096]}},{"type":"Feature","properties":{"station_id":"n6120149110","station_name":"Platanenhof","station_name_local":"Platanenhof","network":"Unknown","network_local":null,"operator":null,"city":"Ratingen","country":"Germany","lines":["U79"],"wikidata":null},"geometry":{"type":"Point","coordinates":[6.7554854,51.42675]}},{"type":"Feature","properties":{"station_id":"n6120149111","station_name":"Musfeldstraße","station_name_local":"Musfeldstraße","network":"Unknown","network_local":null,"operator":null,"city":"Ratingen","country":"Germany","lines":["U79"],"wikidata":null},"geometry":{"type":"Point","coordinates":[6.7590675,51.4255559]}},{"type":"Feature","properties":{"station_id":"n6120149112","station_name":"Kremerstraße","station_name_local":"Kremerstraße","network":"Unknown","network_local":null,"operator":null,"city":"Ratingen","country":"Germany","lines":["U79"],"wikidata":null},"geometry":{"type":"Point","coordinates":[6.7645204,51.4259654]}},{"type":"Feature","properties":{"station_id":"n6120149115","station_name":"Karl-Jarres-Straße","station_name_local":"Karl-Jarres-Straße","network":"Unknown","network_local":null,"operator":null,"city":"Ratingen","country":"Germany","lines":["U79"],"wikidata":null},"geometry":{"type":"Point","coordinates":[6.7677597,51.4199973]}},{"type":"Feature","properties":{"station_id":"n6120149116","station_name":"Grunewald","station_name_local":"Grunewald","network":"Unknown","network_local":null,"operator":null,"city":"Ratingen","country":"Germany","lines":["U79"],"wikidata":null},"geometry":{"type":"Point","coordinates":[6.7700301,51.4129683]}},{"type":"Feature","properties":{"station_id":"n6120149117","station_name":"Grunewald Betriebshof","station_name_local":"Grunewald Betriebshof","network":"Unknown","network_local":null,"operator":null,"city":"Ratingen","country":"Germany","lines":["U79"],"wikidata":null},"geometry":{"type":"Point","coordinates":[6.7682333,51.4096001]}},{"type":"Feature","properties":{"station_id":"n6120149118","station_name":"Münchener Straße","station_name_local":"Münchener Straße","network":"Unknown","network_local":null,"operator":null,"city":"Ratingen","country":"Germany","lines":["U79"],"wikidata":null},"geometry":{"type":"Point","coordinates":[6.7609135,51.3839006]}},{"type":"Feature","properties":{"station_id":"n6120149119","station_name":"Sittardsberg","station_name_local":"Sittardsberg","network":"Unknown","network_local":null,"operator":null,"city":"Ratingen","country":"Germany","lines":["U79"],"wikidata":null},"geometry":{"type":"Point","coordinates":[6.7598547,51.3759208]}},{"type":"Feature","properties":{"station_id":"n6120149120","station_name":"Am Mühlenkamp","station_name_local":"Am Mühlenkamp","network":"Unknown","network_local":null,"operator":null,"city":"Ratingen","country":"Germany","lines":["U79"],"wikidata":null},"geometry":{"type":"Point","coordinates":[6.7565891,51.3707711]}},{"type":"Feature","properties":{"station_id":"n6120149121","station_name":"Duisburg - Kesselsberg","station_name_local":"Duisburg - Kesselsberg","network":"Unknown","network_local":null,"operator":null,"city":"Ratingen","country":"Germany","lines":["U79"],"wikidata":null},"geometry":{"type":"Point","coordinates":[6.7466119,51.3567469]}},{"type":"Feature","properties":{"station_id":"n6120149122","station_name":"Froschenteich","station_name_local":"Froschenteich","network":"Unknown","network_local":null,"operator":null,"city":"Ratingen","country":"Germany","lines":["U79"],"wikidata":null},"geometry":{"type":"Point","coordinates":[6.7513819,51.3390005]}},{"type":"Feature","properties":{"station_id":"n6120149123","station_name":"Wittlaer","station_name_local":"Wittlaer","network":"Unknown","network_local":null,"operator":null,"city":"Ratingen","country":"Germany","lines":["U79"],"wikidata":null},"geometry":{"type":"Point","coordinates":[6.7453245,51.3181011]}},{"type":"Feature","properties":{"station_id":"n6120149124","station_name":"Am Mühlenacker","station_name_local":"Am Mühlenacker","network":"Unknown","network_local":null,"operator":null,"city":"Ratingen","country":"Germany","lines":["U79"],"wikidata":null},"geometry":{"type":"Point","coordinates":[6.7448759,51.3129257]}},{"type":"Feature","properties":{"station_id":"n6120149125","station_name":"Kalkumer Schloßallee","station_name_local":"Kalkumer Schloßallee","network":"Unknown","network_local":null,"operator":null,"city":"Ratingen","country":"Germany","lines":["U79"],"wikidata":null},"geometry":{"type":"Point","coordinates":[6.7433994,51.3053587]}},{"type":"Feature","properties":{"station_id":"n6120149126","station_name":"Klemensplatz","station_name_local":"Klemensplatz","network":"Unknown","network_local":null,"operator":null,"city":"Ratingen","country":"Germany","lines":["U79"],"wikidata":null},"geometry":{"type":"Point","coordinates":[6.7393291,51.3006089]}},{"type":"Feature","properties":{"station_id":"n6120149127","station_name":"Kittelbachstraße","station_name_local":"Kittelbachstraße","network":"Unknown","network_local":null,"operator":null,"city":"Ratingen","country":"Germany","lines":["U79"],"wikidata":null},"geometry":{"type":"Point","coordinates":[6.7387759,51.2948681]}},{"type":"Feature","properties":{"station_id":"n6120149129","station_name":"Lohausen","station_name_local":"Lohausen","network":"Unknown","network_local":null,"operator":null,"city":"Ratingen","country":"Germany","lines":["U79"],"wikidata":null},"geometry":{"type":"Point","coordinates":[6.7479155,51.2742085]}},{"type":"Feature","properties":{"station_id":"n6300147417","station_name":"Kirchplatz","station_name_local":"Kirchplatz","network":"Unknown","network_local":null,"operator":null,"city":"Ratingen","country":"Germany","lines":["U71","U72","U73","U83"],"wikidata":null},"geometry":{"type":"Point","coordinates":[6.775327,51.2134442]}},{"type":"Feature","properties":{"station_id":"n6300147418","station_name":"Graf-Adolf-Platz","station_name_local":"Graf-Adolf-Platz","network":"Unknown","network_local":null,"operator":null,"city":"Ratingen","country":"Germany","lines":["U71","U72","U73","U83"],"wikidata":null},"geometry":{"type":"Point","coordinates":[6.7754149,51.218274]}},{"type":"Feature","properties":{"station_id":"n6300147419","station_name":"Benrather Straße","station_name_local":"Benrather Straße","network":"Unknown","network_local":null,"operator":null,"city":"Ratingen","country":"Germany","lines":["U71","U72","U73","U83"],"wikidata":"Q1275545"},"geometry":{"type":"Point","coordinates":[6.7755597,51.2226918]}},{"type":"Feature","properties":{"station_id":"n6300147420","station_name":"Pempelforter Straße","station_name_local":"Pempelforter Straße","network":"Unknown","network_local":null,"operator":null,"city":"Ratingen","country":"Germany","lines":["U71","U72","U73","U83"],"wikidata":null},"geometry":{"type":"Point","coordinates":[6.7903326,51.2281637]}},{"type":"Feature","properties":{"station_id":"n6300147421","station_name":"Schadowstraße","station_name_local":"Schadowstraße","network":"Unknown","network_local":null,"operator":null,"city":"Ratingen","country":"Germany","lines":["U71","U72","U73","U83"],"wikidata":null,"merged_from":2},"geometry":{"type":"Point","coordinates":[6.783447,51.2266175]}},{"type":"Feature","properties":{"station_id":"n6755327958","station_name":"Karlsplatz","station_name_local":"Karlsplatz","network":"Ruhrbahn","network_local":null,"operator":"Ruhrbahn","city":"Ratingen","country":"Germany","lines":["U11","U17"],"wikidata":"Q25089110"},"geometry":{"type":"Point","coordinates":[7.007829,51.5007506]}},{"type":"Feature","properties":{"station_id":"n8233979659","station_name":"Luegplatz","station_name_local":"Luegplatz","network":"VRR","network_local":"VRR","operator":"Rheinbahn","city":"Ratingen","country":"Germany","lines":["U75","U76","U77"],"wikidata":null},"geometry":{"type":"Point","coordinates":[6.7619743,51.2315879]}},{"type":"Feature","properties":{"station_id":"n10359659188","station_name":"Schloß Horst","station_name_local":"Schloß Horst","network":"VRR","network_local":"VRR","operator":null,"city":"Ratingen","country":"Germany","lines":["U11"],"wikidata":null},"geometry":{"type":"Point","coordinates":[7.0237988,51.5361761]}},{"type":"Feature","properties":{"station_id":"n10536617810","station_name":"Universität Nord / Christophstraße","station_name_local":"Universität Nord / Christophstraße","network":"Unknown","network_local":null,"operator":null,"city":"Ratingen","country":"Germany","lines":["U72","U73"],"wikidata":null},"geometry":{"type":"Point","coordinates":[6.7963414,51.1969758]}},{"type":"Feature","properties":{"station_id":"n10537619278","station_name":"Düsseldorf Hauptbahnhof","station_name_local":"Düsseldorf Hauptbahnhof","network":"Unknown","network_local":null,"operator":null,"city":"Ratingen","country":"Germany","lines":["U78","U79"],"wikidata":"Q2465866"},"geometry":{"type":"Point","coordinates":[6.7939398,51.219709]}},{"type":"Feature","properties":{"station_id":"n10537641503","station_name":"Duisburg Hauptbahnhof U","station_name_local":"Duisburg Hauptbahnhof U","network":"Unknown","network_local":null,"operator":null,"city":"Ratingen","country":"Germany","lines":["U79"],"wikidata":"Q2465861"},"geometry":{"type":"Point","coordinates":[6.777205,51.431848]}},{"type":"Feature","properties":{"station_id":"n10538943858","station_name":"Wehrhahn S","station_name_local":"Wehrhahn S","network":"Unknown","network_local":null,"operator":null,"city":"Ratingen","country":"Germany","lines":["U71","U72","U73","U83"],"wikidata":null},"geometry":{"type":"Point","coordinates":[6.7982635,51.2299883]}}]}