{"type":"FeatureCollection","metro_system":{"continent":"europe","country":"Germany","city":"Bielefeld","osm_networks":["Unknown","WestfalenTarif"],"operator":"moBiel GmbH","official_website":null,"official_map":"https://de.wikipedia.org/wiki/Westfalentarif","wikidata":"Q117468882","line_count":4,"station_count":60,"audit":{"strategies_tried":[],"passed":true,"checks":[{"id":"has_lines","ok":true,"detail":"4 lines","level":"error"},{"id":"has_stations","ok":true,"detail":"60 stations","level":"error"},{"id":"stations_have_lines","ok":true,"detail":"60/60 站皆有所屬路線","level":"error"},{"id":"stations_named","ok":true,"detail":"60/60 站有名稱","level":"warn"},{"id":"station_order","ok":true,"detail":"所有線路站序合理","level":"warn"}],"reasons":[],"warnings":[],"audited_at":"2026-07-10T08:36:15.503Z"}},"features":[{"type":"Feature","properties":{"route_id":"rm2102391","route_name":"StadtBahn 2","route_name_local":"StadtBahn 2","route_ref":"2","route_color":"#3cb44b","network":"WestfalenTarif","network_local":"WestfalenTarif","operator":"moBiel GmbH","city":"Bielefeld","country":"Germany","wikidata":"Q117468882","wikipedia":"de:Westfalentarif","osm_route_ids":[29032,2068281]},"geometry":{"type":"MultiLineString","coordinates":[[[8.6268696,52.0575778],[8.6178581,52.0567218],[8.6105155,52.0572566],[8.6022131,52.0528935],[8.5963001,52.049831],[8.5911926,52.0481479],[8.5771128,52.0432607],[8.5689725,52.039284],[8.5636752,52.0380196],[8.5588122,52.0369829],[8.5551716,52.036123],[8.5431292,52.0333672],[8.5347933,52.0284587],[8.5340717,52.024048],[8.5345311,52.0203658],[8.5332814,52.0175011],[8.5360015,52.0129047],[8.5392358,52.0108415],[8.5431746,52.0085145],[8.5490756,52.0062433],[8.5580997,52.0048444]],[[8.5580667,52.0053797],[8.549133,52.0063093],[8.5432372,52.0085689],[8.5398131,52.0106232],[8.5368182,52.0126117],[8.5335004,52.0176694],[8.5346015,52.0205741],[8.534425,52.0243387],[8.5348453,52.0286635],[8.5431415,52.0333426],[8.5551979,52.0360684],[8.5588379,52.0369342],[8.5637055,52.0379729],[8.5690161,52.0392349],[8.5771763,52.0432235],[8.5901382,52.0478554],[8.5965919,52.0499388],[8.6025607,52.0530313],[8.6106358,52.0572436],[8.6178442,52.0566558],[8.6269032,52.0575151]]]}},{"type":"Feature","properties":{"route_id":"rm2102327","route_name":"StadtBahn 1","route_name_local":"StadtBahn 1","route_ref":"1","route_color":"#0000ff","network":"WestfalenTarif","network_local":"WestfalenTarif","operator":"moBiel GmbH","city":"Bielefeld","country":"Germany","wikidata":"Q117468577","wikipedia":"de:Westfalentarif","osm_route_ids":[29033,2068799]},"geometry":{"type":"MultiLineString","coordinates":[[[8.5156065,51.9873301],[8.5100983,51.9913946],[8.5070048,51.9938265],[8.5025359,51.9985828],[8.5106079,52.005751],[8.5170316,52.009683],[8.5213697,52.0133858],[8.5255072,52.017194],[8.5335004,52.0176694],[8.5346015,52.0205741],[8.534425,52.0243387],[8.5348453,52.0286635],[8.5390437,52.0363475],[8.5434001,52.040964],[8.5439921,52.0462221],[8.5441012,52.0498098],[8.5450831,52.0523047],[8.5456017,52.0555291]],[[8.5449593,52.05545],[8.5451562,52.0528154],[8.5439198,52.0495745],[8.5439021,52.0462245],[8.5431886,52.0409379],[8.5389947,52.0363496],[8.5347933,52.0284587],[8.5340717,52.024048],[8.5345311,52.0203658],[8.5332814,52.0175011],[8.5252916,52.0173092],[8.521192,52.0132019],[8.51696,52.0097184],[8.5105451,52.0057894],[8.5024651,51.9986138],[8.5069156,51.9937917],[8.5100061,51.9913508],[8.5155401,51.987286]]]}},{"type":"Feature","properties":{"route_id":"rm2102329","route_name":"StadtBahn 3","route_name_local":"StadtBahn 3","route_ref":"3","route_color":"#ffe119","network":"WestfalenTarif","network_local":"WestfalenTarif","operator":"moBiel GmbH","city":"Bielefeld","country":"Germany","wikidata":"Q117468931","wikipedia":"de:Westfalentarif","osm_route_ids":[29034,9976239]},"geometry":{"type":"MultiLineString","coordinates":[[[8.5183627,52.0549996],[8.5194272,52.0529551],[8.5216016,52.0495079],[8.5226159,52.0448496],[8.5230095,52.0411976],[8.5234477,52.0373174],[8.5264399,52.0323691],[8.5348632,52.0285057],[8.5340717,52.024048],[8.5345311,52.0203658],[8.5421192,52.0197564]],[[8.5421192,52.0197564],[8.5346015,52.0205741],[8.534425,52.0243387],[8.5348453,52.0286635],[8.5265123,52.0324289],[8.5236235,52.0373081],[8.5230919,52.0411998],[8.5227302,52.0443618],[8.5216869,52.0495174],[8.5193576,52.053159],[8.5187255,52.0552257]]]}},{"type":"Feature","properties":{"route_id":"rm2102392","route_name":"StadtBahn 4","route_name_local":"StadtBahn 4","route_ref":"4","route_color":"#e6194b","network":"WestfalenTarif","network_local":"WestfalenTarif","operator":"moBiel GmbH","city":"Bielefeld","country":"Germany","wikidata":"Q117468952","wikipedia":"de:Westfalentarif","osm_route_ids":[167114,2067326,2199563,2199564]},"geometry":{"type":"MultiLineString","coordinates":[[[8.4853598,52.0450835],[8.4897382,52.0425479],[8.4970672,52.0391049],[8.5044044,52.0358535],[8.5088664,52.032949],[8.5135456,52.0288212],[8.5223793,52.0279088],[8.5347208,52.0284818],[8.5340717,52.024048],[8.5345311,52.0203658],[8.5397255,52.0190449],[8.5455846,52.0156219],[8.5513955,52.0141532],[8.5604663,52.0129707],[8.5633793,52.0093971],[8.5710515,52.0073206],[8.5780714,52.0045414],[8.5847393,52.0020581],[8.5886573,52.0011006]],[[8.5886881,52.0011741],[8.5845935,52.002149],[8.5766085,52.0050569],[8.5708595,52.007479],[8.562834,52.0094827],[8.5604805,52.0130341],[8.5512128,52.0142686],[8.5456231,52.0156775],[8.5398246,52.0190453],[8.5346015,52.0205741],[8.534425,52.0243387],[8.5348453,52.0286635],[8.5222605,52.0279966],[8.5136304,52.0289411],[8.5089292,52.0330003],[8.5044568,52.0358951],[8.497172,52.0392164],[8.4898324,52.042609],[8.4855938,52.0452425]]]}},{"type":"Feature","properties":{"station_id":"n290135391","station_name":"Sieker","station_name_local":"Sieker","network":"WestfalenTarif","network_local":"WestfalenTarif","operator":"moBiel GmbH","city":"Bielefeld","country":"Germany","lines":["2"],"wikidata":null},"geometry":{"type":"Point","coordinates":[8.5580375,52.0051326]}},{"type":"Feature","properties":{"station_id":"n6443325902","station_name":"Jahnplatz","station_name_local":"Jahnplatz","network":"WestfalenTarif","network_local":"WestfalenTarif","operator":"moBiel GmbH","city":"Bielefeld","country":"Germany","lines":["1","2","3","4"],"wikidata":null},"geometry":{"type":"Point","coordinates":[8.5341803,52.0241327]}},{"type":"Feature","properties":{"station_id":"n6473446785","station_name":"Mozartstraße/Synagoge","station_name_local":"Mozartstraße/Synagoge","network":"WestfalenTarif","network_local":"WestfalenTarif","operator":"moBiel GmbH","city":"Bielefeld","country":"Germany","lines":["2"],"wikidata":null},"geometry":{"type":"Point","coordinates":[8.5432091,52.0085393]}},{"type":"Feature","properties":{"station_id":"n6473446805","station_name":"Prießallee","station_name_local":"Prießallee","network":"WestfalenTarif","network_local":"WestfalenTarif","operator":"moBiel GmbH","city":"Bielefeld","country":"Germany","lines":["2"],"wikidata":null},"geometry":{"type":"Point","coordinates":[8.5491011,52.0062764]}},{"type":"Feature","properties":{"station_id":"n6473926982","station_name":"Oststraße","station_name_local":"Oststraße","network":"WestfalenTarif","network_local":"WestfalenTarif","operator":"moBiel GmbH","city":"Bielefeld","country":"Germany","lines":["4"],"wikidata":null},"geometry":{"type":"Point","coordinates":[8.551297,52.014213]}},{"type":"Feature","properties":{"station_id":"n6474012708","station_name":"Krankenhaus Mitte","station_name_local":"Krankenhaus Mitte","network":"WestfalenTarif","network_local":"WestfalenTarif","operator":"moBiel GmbH","city":"Bielefeld","country":"Germany","lines":["4"],"wikidata":null},"geometry":{"type":"Point","coordinates":[8.5456019,52.0156469]}},{"type":"Feature","properties":{"station_id":"n6482922935","station_name":"Auf der Hufe","station_name_local":"Auf der Hufe","network":"WestfalenTarif","network_local":"WestfalenTarif","operator":"moBiel GmbH","city":"Bielefeld","country":"Germany","lines":["3"],"wikidata":"Q117466643"},"geometry":{"type":"Point","coordinates":[8.52305,52.0412299]}},{"type":"Feature","properties":{"station_id":"n6485194120","station_name":"Nordpark (U)","station_name_local":"Nordpark (U)","network":"WestfalenTarif","network_local":"WestfalenTarif","operator":"moBiel GmbH","city":"Bielefeld","country":"Germany","lines":["3"],"wikidata":"Q117466644"},"geometry":{"type":"Point","coordinates":[8.5235242,52.0372629]}},{"type":"Feature","properties":{"station_id":"n6513056508","station_name":"Rathaus","station_name_local":"Rathaus","network":"WestfalenTarif","network_local":"WestfalenTarif","operator":"moBiel GmbH","city":"Bielefeld","country":"Germany","lines":["1","2","3","4"],"wikidata":null},"geometry":{"type":"Point","coordinates":[8.5345732,52.0205023]}},{"type":"Feature","properties":{"station_id":"n6513056509","station_name":"Landgericht","station_name_local":"Landgericht","network":"WestfalenTarif","network_local":"WestfalenTarif","operator":"moBiel GmbH","city":"Bielefeld","country":"Germany","lines":["1","2"],"wikidata":null},"geometry":{"type":"Point","coordinates":[8.5333785,52.0175665]}},{"type":"Feature","properties":{"station_id":"n6521432260","station_name":"Hauptbahnhof (U)","station_name_local":"Hauptbahnhof (U)","network":"WestfalenTarif","network_local":"WestfalenTarif","operator":"moBiel GmbH","city":"Bielefeld","country":"Germany","lines":["4"],"wikidata":null},"geometry":{"type":"Point","coordinates":[8.5344783,52.0285639]}},{"type":"Feature","properties":{"station_id":"n6539128515","station_name":"Bethel","station_name_local":"Bethel","network":"WestfalenTarif","network_local":"WestfalenTarif","operator":"moBiel GmbH","city":"Bielefeld","country":"Germany","lines":["1"],"wikidata":null},"geometry":{"type":"Point","coordinates":[8.5212835,52.0132948]}},{"type":"Feature","properties":{"station_id":"n6572175981","station_name":"Adenauerplatz","station_name_local":"Adenauerplatz","network":"WestfalenTarif","network_local":"WestfalenTarif","operator":"moBiel GmbH","city":"Bielefeld","country":"Germany","lines":["1"],"wikidata":null},"geometry":{"type":"Point","coordinates":[8.5253463,52.017256]}},{"type":"Feature","properties":{"station_id":"n6586750076","station_name":"Dürkopp Tor 6","station_name_local":"Dürkopp Tor 6","network":"WestfalenTarif","network_local":"WestfalenTarif","operator":"moBiel GmbH","city":"Bielefeld","country":"Germany","lines":["3"],"wikidata":null},"geometry":{"type":"Point","coordinates":[8.5421208,52.0197201]}},{"type":"Feature","properties":{"station_id":"n6591755596","station_name":"Wittekindstraße (U)","station_name_local":"Wittekindstraße (U)","network":"WestfalenTarif","network_local":"WestfalenTarif","operator":"moBiel GmbH","city":"Bielefeld","country":"Germany","lines":["3"],"wikidata":"Q117466645"},"geometry":{"type":"Point","coordinates":[8.526481,52.0323987]}},{"type":"Feature","properties":{"station_id":"n6596445125","station_name":"Beckhausstraße (U)","station_name_local":"Beckhausstraße (U)","network":"WestfalenTarif","network_local":"WestfalenTarif","operator":"moBiel GmbH","city":"Bielefeld","country":"Germany","lines":["2"],"wikidata":null},"geometry":{"type":"Point","coordinates":[8.5431346,52.033353]}},{"type":"Feature","properties":{"station_id":"n6596520393","station_name":"Stadtheider Straße","station_name_local":"Stadtheider Straße","network":"WestfalenTarif","network_local":"WestfalenTarif","operator":"moBiel GmbH","city":"Bielefeld","country":"Germany","lines":["2"],"wikidata":null},"geometry":{"type":"Point","coordinates":[8.5551724,52.0360962]}},{"type":"Feature","properties":{"station_id":"n6596533291","station_name":"Schillerstraße","station_name_local":"Schillerstraße","network":"WestfalenTarif","network_local":"WestfalenTarif","operator":"moBiel GmbH","city":"Bielefeld","country":"Germany","lines":["2"],"wikidata":null},"geometry":{"type":"Point","coordinates":[8.5588544,52.0369659]}},{"type":"Feature","properties":{"station_id":"n6596552061","station_name":"Finkenstraße","station_name_local":"Finkenstraße","network":"WestfalenTarif","network_local":"WestfalenTarif","operator":"moBiel GmbH","city":"Bielefeld","country":"Germany","lines":["2"],"wikidata":null},"geometry":{"type":"Point","coordinates":[8.5637472,52.0380091]}},{"type":"Feature","properties":{"station_id":"n6596607418","station_name":"Ziegelstraße","station_name_local":"Ziegelstraße","network":"WestfalenTarif","network_local":"WestfalenTarif","operator":"moBiel GmbH","city":"Bielefeld","country":"Germany","lines":["2"],"wikidata":null},"geometry":{"type":"Point","coordinates":[8.5689892,52.0392599]}},{"type":"Feature","properties":{"station_id":"n6596746918","station_name":"Schüco","station_name_local":"Schüco","network":"WestfalenTarif","network_local":"WestfalenTarif","operator":"moBiel GmbH","city":"Bielefeld","country":"Germany","lines":["2"],"wikidata":null},"geometry":{"type":"Point","coordinates":[8.5771377,52.0432386]}},{"type":"Feature","properties":{"station_id":"n6596913121","station_name":"Seidenstickerstraße","station_name_local":"Seidenstickerstraße","network":"WestfalenTarif","network_local":"WestfalenTarif","operator":"moBiel GmbH","city":"Bielefeld","country":"Germany","lines":["2"],"wikidata":null},"geometry":{"type":"Point","coordinates":[8.590689,52.0480078]}},{"type":"Feature","properties":{"station_id":"n6597088544","station_name":"Baumheide (U)","station_name_local":"Baumheide (U)","network":"WestfalenTarif","network_local":"WestfalenTarif","operator":"moBiel GmbH","city":"Bielefeld","country":"Germany","lines":["2"],"wikidata":null},"geometry":{"type":"Point","coordinates":[8.5965087,52.0499135]}},{"type":"Feature","properties":{"station_id":"n6600288150","station_name":"Schelpmilser Weg","station_name_local":"Schelpmilser Weg","network":"WestfalenTarif","network_local":"WestfalenTarif","operator":"moBiel GmbH","city":"Bielefeld","country":"Germany","lines":["2"],"wikidata":null},"geometry":{"type":"Point","coordinates":[8.6024018,52.0529737]}},{"type":"Feature","properties":{"station_id":"n6600511054","station_name":"Milse","station_name_local":"Milse","network":"WestfalenTarif","network_local":"WestfalenTarif","operator":"moBiel GmbH","city":"Bielefeld","country":"Germany","lines":["2"],"wikidata":null},"geometry":{"type":"Point","coordinates":[8.6106147,52.0573851]}},{"type":"Feature","properties":{"station_id":"n6602951893","station_name":"Buschbachtal","station_name_local":"Buschbachtal","network":"WestfalenTarif","network_local":"WestfalenTarif","operator":"moBiel GmbH","city":"Bielefeld","country":"Germany","lines":["2"],"wikidata":null},"geometry":{"type":"Point","coordinates":[8.6178775,52.0566859]}},{"type":"Feature","properties":{"station_id":"n6603178642","station_name":"Altenhagen","station_name_local":"Altenhagen","network":"WestfalenTarif","network_local":"WestfalenTarif","operator":"moBiel GmbH","city":"Bielefeld","country":"Germany","lines":["2"],"wikidata":null},"geometry":{"type":"Point","coordinates":[8.6268225,52.0575371]}},{"type":"Feature","properties":{"station_id":"n6604443468","station_name":"Elpke","station_name_local":"Elpke","network":"WestfalenTarif","network_local":"WestfalenTarif","operator":"moBiel GmbH","city":"Bielefeld","country":"Germany","lines":["4"],"wikidata":null},"geometry":{"type":"Point","coordinates":[8.5772174,52.0048899]}},{"type":"Feature","properties":{"station_id":"n6604466872","station_name":"Roggenkamp","station_name_local":"Roggenkamp","network":"WestfalenTarif","network_local":"WestfalenTarif","operator":"moBiel GmbH","city":"Bielefeld","country":"Germany","lines":["4"],"wikidata":null},"geometry":{"type":"Point","coordinates":[8.5709428,52.007414]}},{"type":"Feature","properties":{"station_id":"n6604488639","station_name":"Lutherkirche","station_name_local":"Lutherkirche","network":"WestfalenTarif","network_local":"WestfalenTarif","operator":"moBiel GmbH","city":"Bielefeld","country":"Germany","lines":["4"],"wikidata":null},"geometry":{"type":"Point","coordinates":[8.5631394,52.0094419]}},{"type":"Feature","properties":{"station_id":"n6604558769","station_name":"Stieghorst Gesamtschule","station_name_local":"Stieghorst Gesamtschule","network":"WestfalenTarif","network_local":"WestfalenTarif","operator":"moBiel GmbH","city":"Bielefeld","country":"Germany","lines":["4"],"wikidata":null},"geometry":{"type":"Point","coordinates":[8.5847055,52.0020922]}},{"type":"Feature","properties":{"station_id":"n6604650788","station_name":"Stieghorst","station_name_local":"Stieghorst","network":"WestfalenTarif","network_local":"WestfalenTarif","operator":"moBiel GmbH","city":"Bielefeld","country":"Germany","lines":["4"],"wikidata":null},"geometry":{"type":"Point","coordinates":[8.5892054,52.0010565]}},{"type":"Feature","properties":{"station_id":"n6646653172","station_name":"Sudbrackstraße","station_name_local":"Sudbrackstraße","network":"WestfalenTarif","network_local":"WestfalenTarif","operator":"moBiel GmbH","city":"Bielefeld","country":"Germany","lines":["1"],"wikidata":null},"geometry":{"type":"Point","coordinates":[8.5390225,52.0363672]}},{"type":"Feature","properties":{"station_id":"n6647033149","station_name":"Johannesstift","station_name_local":"Johannesstift","network":"WestfalenTarif","network_local":"WestfalenTarif","operator":"moBiel GmbH","city":"Bielefeld","country":"Germany","lines":["1"],"wikidata":null},"geometry":{"type":"Point","coordinates":[8.5433161,52.0409585]}},{"type":"Feature","properties":{"station_id":"n6651066523","station_name":"Babenhausen Süd","station_name_local":"Babenhausen Süd","network":"WestfalenTarif","network_local":"WestfalenTarif","operator":"moBiel GmbH","city":"Bielefeld","country":"Germany","lines":["3"],"wikidata":null},"geometry":{"type":"Point","coordinates":[8.5185097,52.0551062]}},{"type":"Feature","properties":{"station_id":"n6687810906","station_name":"Deciusstraße","station_name_local":"Deciusstraße","network":"WestfalenTarif","network_local":"WestfalenTarif","operator":"moBiel GmbH","city":"Bielefeld","country":"Germany","lines":["1"],"wikidata":null},"geometry":{"type":"Point","coordinates":[8.5439463,52.0462471]}},{"type":"Feature","properties":{"station_id":"n6687924969","station_name":"Kattenkamp","station_name_local":"Kattenkamp","network":"WestfalenTarif","network_local":"WestfalenTarif","operator":"moBiel GmbH","city":"Bielefeld","country":"Germany","lines":["1"],"wikidata":null},"geometry":{"type":"Point","coordinates":[8.5440088,52.0496866]}},{"type":"Feature","properties":{"station_id":"n6688108151","station_name":"Heidegärten","station_name_local":"Heidegärten","network":"WestfalenTarif","network_local":"WestfalenTarif","operator":"moBiel GmbH","city":"Bielefeld","country":"Germany","lines":["1"],"wikidata":null},"geometry":{"type":"Point","coordinates":[8.5451535,52.0526058]}},{"type":"Feature","properties":{"station_id":"n6688296324","station_name":"Schildesche","station_name_local":"Schildesche","network":"WestfalenTarif","network_local":"WestfalenTarif","operator":"moBiel GmbH","city":"Bielefeld","country":"Germany","lines":["1"],"wikidata":null},"geometry":{"type":"Point","coordinates":[8.5453218,52.0557223]}},{"type":"Feature","properties":{"station_id":"n6708008011","station_name":"Koblenzer Straße","station_name_local":"Koblenzer Straße","network":"WestfalenTarif","network_local":"WestfalenTarif","operator":"moBiel GmbH","city":"Bielefeld","country":"Germany","lines":["3"],"wikidata":null},"geometry":{"type":"Point","coordinates":[8.5216405,52.0495324]}},{"type":"Feature","properties":{"station_id":"n6715812719","station_name":"Friedrich-List-Straße","station_name_local":"Friedrich-List-Straße","network":"WestfalenTarif","network_local":"WestfalenTarif","operator":"moBiel GmbH","city":"Bielefeld","country":"Germany","lines":["1"],"wikidata":null},"geometry":{"type":"Point","coordinates":[8.5170192,52.0097168]}},{"type":"Feature","properties":{"station_id":"n6715924488","station_name":"Eggeweg","station_name_local":"Eggeweg","network":"WestfalenTarif","network_local":"WestfalenTarif","operator":"moBiel GmbH","city":"Bielefeld","country":"Germany","lines":["1"],"wikidata":null},"geometry":{"type":"Point","coordinates":[8.5105756,52.005769]}},{"type":"Feature","properties":{"station_id":"n6723702429","station_name":"Brackwede Bahnhof","station_name_local":"Brackwede Bahnhof","network":"WestfalenTarif","network_local":"WestfalenTarif","operator":"moBiel GmbH","city":"Bielefeld","country":"Germany","lines":["1"],"wikidata":null},"geometry":{"type":"Point","coordinates":[8.5024977,51.9985972]}},{"type":"Feature","properties":{"station_id":"n6782322572","station_name":"Graf-von-Stauffenberg-Straße","station_name_local":"Graf-von-Stauffenberg-Straße","network":"WestfalenTarif","network_local":"WestfalenTarif","operator":"moBiel GmbH","city":"Bielefeld","country":"Germany","lines":["4"],"wikidata":null},"geometry":{"type":"Point","coordinates":[8.5088997,52.032975]}},{"type":"Feature","properties":{"station_id":"n6782634110","station_name":"Bültmannshof","station_name_local":"Bültmannshof","network":"WestfalenTarif","network_local":"WestfalenTarif","operator":"moBiel GmbH","city":"Bielefeld","country":"Germany","lines":["4"],"wikidata":null},"geometry":{"type":"Point","coordinates":[8.5044321,52.0358756]}},{"type":"Feature","properties":{"station_id":"n6783063692","station_name":"Universität","station_name_local":"Universität","network":"WestfalenTarif","network_local":"WestfalenTarif","operator":"moBiel GmbH","city":"Bielefeld","country":"Germany","lines":["4"],"wikidata":null},"geometry":{"type":"Point","coordinates":[8.4971244,52.0391618]}},{"type":"Feature","properties":{"station_id":"n6783170615","station_name":"Wellensiek","station_name_local":"Wellensiek","network":"WestfalenTarif","network_local":"WestfalenTarif","operator":"moBiel GmbH","city":"Bielefeld","country":"Germany","lines":["4"],"wikidata":null},"geometry":{"type":"Point","coordinates":[8.489786,52.0425782]}},{"type":"Feature","properties":{"station_id":"n6787778319","station_name":"Lohmannshof","station_name_local":"Lohmannshof","network":"WestfalenTarif","network_local":"WestfalenTarif","operator":"moBiel GmbH","city":"Bielefeld","country":"Germany","lines":["4"],"wikidata":null},"geometry":{"type":"Point","coordinates":[8.4854746,52.0451578]}},{"type":"Feature","properties":{"station_id":"n6882587162","station_name":"Marktstraße","station_name_local":"Marktstraße","network":"WestfalenTarif","network_local":"WestfalenTarif","operator":"moBiel GmbH","city":"Bielefeld","country":"Germany","lines":["4"],"wikidata":null},"geometry":{"type":"Point","coordinates":[8.5397785,52.0190471]}},{"type":"Feature","properties":{"station_id":"n6947742521","station_name":"Rudolf-Oetker-Halle (U)","station_name_local":"Rudolf-Oetker-Halle (U)","network":"WestfalenTarif","network_local":"WestfalenTarif","operator":"moBiel GmbH","city":"Bielefeld","country":"Germany","lines":["4"],"wikidata":null},"geometry":{"type":"Point","coordinates":[8.5135918,52.028882]}},{"type":"Feature","properties":{"station_id":"n7139824609","station_name":"Siegfriedplatz (U)","station_name_local":"Siegfriedplatz (U)","network":"WestfalenTarif","network_local":"WestfalenTarif","operator":"moBiel GmbH","city":"Bielefeld","country":"Germany","lines":["4"],"wikidata":null},"geometry":{"type":"Point","coordinates":[8.5223101,52.0279535]}},{"type":"Feature","properties":{"station_id":"n7191388107","station_name":"Gaswerkstraße","station_name_local":"Gaswerkstraße","network":"WestfalenTarif","network_local":"WestfalenTarif","operator":"moBiel GmbH","city":"Bielefeld","country":"Germany","lines":["1"],"wikidata":null},"geometry":{"type":"Point","coordinates":[8.5069687,51.9938087]}},{"type":"Feature","properties":{"station_id":"n7192626051","station_name":"Normannenstraße","station_name_local":"Normannenstraße","network":"WestfalenTarif","network_local":"WestfalenTarif","operator":"moBiel GmbH","city":"Bielefeld","country":"Germany","lines":["1"],"wikidata":null},"geometry":{"type":"Point","coordinates":[8.5100557,51.9913711]}},{"type":"Feature","properties":{"station_id":"n7192776165","station_name":"Windelsbleicher Straße","station_name_local":"Windelsbleicher Straße","network":"WestfalenTarif","network_local":"WestfalenTarif","operator":"moBiel GmbH","city":"Bielefeld","country":"Germany","lines":["1"],"wikidata":null},"geometry":{"type":"Point","coordinates":[8.5181618,51.9856111]}},{"type":"Feature","properties":{"station_id":"n7192776166","station_name":"Brackwede Kirche","station_name_local":"Brackwede Kirche","network":"WestfalenTarif","network_local":"WestfalenTarif","operator":"moBiel GmbH","city":"Bielefeld","country":"Germany","lines":["1"],"wikidata":null},"geometry":{"type":"Point","coordinates":[8.515587,51.9873108]}},{"type":"Feature","properties":{"station_id":"n8191506793","station_name":"Sieker Mitte","station_name_local":"Sieker Mitte","network":"WestfalenTarif","network_local":"WestfalenTarif","operator":"moBiel GmbH","city":"Bielefeld","country":"Germany","lines":["4"],"wikidata":null},"geometry":{"type":"Point","coordinates":[8.5604737,52.0130028]}},{"type":"Feature","properties":{"station_id":"n8296679663","station_name":"Voltmannstraße","station_name_local":"Voltmannstraße","network":"Unknown","network_local":null,"operator":null,"city":"Bielefeld","country":"Germany","lines":["3"],"wikidata":null},"geometry":{"type":"Point","coordinates":[8.519401,52.0530453]}},{"type":"Feature","properties":{"station_id":"n9300373190","station_name":"Teutoburger Straße","station_name_local":"Teutoburger Straße","network":"WestfalenTarif","network_local":"WestfalenTarif","operator":"moBiel GmbH","city":"Bielefeld","country":"Germany","lines":["2"],"wikidata":null},"geometry":{"type":"Point","coordinates":[8.5395662,52.0107118]}},{"type":"Feature","properties":{"station_id":"n9300373191","station_name":"August-Bebel-Straße","station_name_local":"August-Bebel-Straße","network":"WestfalenTarif","network_local":"WestfalenTarif","operator":"moBiel GmbH","city":"Bielefeld","country":"Germany","lines":["2"],"wikidata":null},"geometry":{"type":"Point","coordinates":[8.5366332,52.0126718]}},{"type":"Feature","properties":{"station_id":"n9302053898","station_name":"Lange Straße","station_name_local":"Lange Straße","network":"WestfalenTarif","network_local":"WestfalenTarif","operator":"moBiel GmbH","city":"Bielefeld","country":"Germany","lines":["3"],"wikidata":null},"geometry":{"type":"Point","coordinates":[8.5226991,52.0444164]}}]}