{"type":"FeatureCollection","metro_system":{"continent":"europe","country":"Germany","city":"Bochum","osm_networks":["BOGESTRA","Unknown","VRR","Verkehrsverbund Rhein-Ruhr"],"operator":"BOGESTRA","official_website":null,"official_map":"https://de.wikipedia.org/wiki/U-Bahn-Linie_35_(Bochum)","wikidata":"Q2466100","line_count":1,"station_count":23,"audit":null},"features":[{"type":"Feature","properties":{"route_id":"rm1228608","route_name":"U-Bahn U35 CampusLinie","route_name_local":"U-Bahn U35 CampusLinie","route_ref":"U35","route_color":"#294488","network":"VRR","network_local":"VRR","operator":"BOGESTRA","city":"Bochum","country":"Germany","wikidata":"Q2466100","wikipedia":"de:U-Bahn-Linie 35 (Bochum)","osm_route_ids":[72034,1202291]},"geometry":{"type":"MultiLineString","coordinates":[[[7.2721811,51.4518593],[7.2654779,51.4502039],[7.2585956,51.4470895],[7.2516132,51.4474052],[7.246858,51.4519547],[7.2387673,51.4569954],[7.2313859,51.4637808],[7.2270368,51.4689201],[7.2262242,51.4734618],[7.2228705,51.4789047],[7.2162364,51.4829757],[7.2139141,51.4881917],[7.2128366,51.4940998],[7.2123363,51.5023843],[7.2114156,51.5085963],[7.2113331,51.5142693],[7.2156924,51.5240312],[7.2214638,51.5302993],[7.2262384,51.5357225],[7.2219155,51.5412305],[7.2187538,51.5446284],[7.2139125,51.5524138]]]}},{"type":"Feature","properties":{"station_id":"n3925706334","station_name":"Archäologie-Museum/Kreuzkirche","station_name_local":"Archäologie-Museum/Kreuzkirche","network":"BOGESTRA","network_local":null,"operator":"BOGESTRA","city":"Bochum","country":"Germany","lines":["U35"],"wikidata":"Q20170663"},"geometry":{"type":"Point","coordinates":[7.2262384,51.5357225]}},{"type":"Feature","properties":{"station_id":"n3925706335","station_name":"Berninghausstraße","station_name_local":"Berninghausstraße","network":"Verkehrsverbund Rhein-Ruhr","network_local":"Verkehrsverbund Rhein-Ruhr","operator":"BOGESTRA","city":"Bochum","country":"Germany","lines":["U35"],"wikidata":"Q114418489"},"geometry":{"type":"Point","coordinates":[7.2156924,51.5240312]}},{"type":"Feature","properties":{"station_id":"n3925706336","station_name":"Brenscheder Straße","station_name_local":"Brenscheder Straße","network":"BOGESTRA","network_local":null,"operator":"BOGESTRA","city":"Bochum","country":"Germany","lines":["U35"],"wikidata":null},"geometry":{"type":"Point","coordinates":[7.2387673,51.4569954]}},{"type":"Feature","properties":{"station_id":"n3925706337","station_name":"Deutsches Bergbau-Museum","station_name_local":"Deutsches Bergbau-Museum","network":"BOGESTRA","network_local":null,"operator":"BOGESTRA","city":"Bochum","country":"Germany","lines":["U35"],"wikidata":"Q20170786"},"geometry":{"type":"Point","coordinates":[7.2139141,51.4881917]}},{"type":"Feature","properties":{"station_id":"n3925706338","station_name":"Feldsieper Straße","station_name_local":"Feldsieper Straße","network":"BOGESTRA","network_local":null,"operator":"BOGESTRA","city":"Bochum","country":"Germany","lines":["U35"],"wikidata":"Q105748108"},"geometry":{"type":"Point","coordinates":[7.2128366,51.4940998]}},{"type":"Feature","properties":{"station_id":"n3925706339","station_name":"Herne Bahnhof","station_name_local":"Herne Bahnhof","network":"BOGESTRA","network_local":null,"operator":"BOGESTRA","city":"Bochum","country":"Germany","lines":["U35"],"wikidata":"Q65552577"},"geometry":{"type":"Point","coordinates":[7.2187538,51.5446284]}},{"type":"Feature","properties":{"station_id":"n3925706340","station_name":"Herne Mitte","station_name_local":"Herne Mitte","network":"BOGESTRA","network_local":null,"operator":"BOGESTRA","city":"Bochum","country":"Germany","lines":["U35"],"wikidata":"Q20181470"},"geometry":{"type":"Point","coordinates":[7.2219155,51.5412305]}},{"type":"Feature","properties":{"station_id":"n3925706341","station_name":"Hustadt (TQ)","station_name_local":"Hustadt (TQ)","network":"BOGESTRA","network_local":null,"operator":"BOGESTRA","city":"Bochum","country":"Germany","lines":["U35"],"wikidata":"Q108837048"},"geometry":{"type":"Point","coordinates":[7.2721811,51.4518593]}},{"type":"Feature","properties":{"station_id":"n3925706342","station_name":"Hölkeskampring","station_name_local":"Hölkeskampring","network":"Verkehrsverbund Rhein-Ruhr","network_local":"Verkehrsverbund Rhein-Ruhr","operator":"BOGESTRA","city":"Bochum","country":"Germany","lines":["U35"],"wikidata":"Q111178255"},"geometry":{"type":"Point","coordinates":[7.2214638,51.5302993]}},{"type":"Feature","properties":{"station_id":"n3925706343","station_name":"Lennershof","station_name_local":"Lennershof","network":"BOGESTRA","network_local":null,"operator":"BOGESTRA","city":"Bochum","country":"Germany","lines":["U35"],"wikidata":null},"geometry":{"type":"Point","coordinates":[7.2654779,51.4502039]}},{"type":"Feature","properties":{"station_id":"n3925706344","station_name":"Markstraße","station_name_local":"Markstraße","network":"BOGESTRA","network_local":null,"operator":"BOGESTRA","city":"Bochum","country":"Germany","lines":["U35"],"wikidata":"Q114419381"},"geometry":{"type":"Point","coordinates":[7.246858,51.4519547]}},{"type":"Feature","properties":{"station_id":"n3925706345","station_name":"Oskar-Hoffmann-Straße","station_name_local":"Oskar-Hoffmann-Straße","network":"BOGESTRA","network_local":null,"operator":"BOGESTRA","city":"Bochum","country":"Germany","lines":["U35"],"wikidata":null},"geometry":{"type":"Point","coordinates":[7.2262242,51.4734618]}},{"type":"Feature","properties":{"station_id":"n3925706346","station_name":"Rensingstraße","station_name_local":"Rensingstraße","network":"BOGESTRA","network_local":null,"operator":"BOGESTRA","city":"Bochum","country":"Germany","lines":["U35"],"wikidata":null},"geometry":{"type":"Point","coordinates":[7.2113331,51.5142693]}},{"type":"Feature","properties":{"station_id":"n3925706347","station_name":"Riemke Markt","station_name_local":"Riemke Markt","network":"BOGESTRA","network_local":null,"operator":"BOGESTRA","city":"Bochum","country":"Germany","lines":["U35"],"wikidata":"Q23786177"},"geometry":{"type":"Point","coordinates":[7.2114156,51.5085963]}},{"type":"Feature","properties":{"station_id":"n3925706349","station_name":"Schloss Strünkede","station_name_local":"Schloss Strünkede","network":"VRR","network_local":"VRR","operator":"BOGESTRA","city":"Bochum","country":"Germany","lines":["U35"],"wikidata":"Q20182181"},"geometry":{"type":"Point","coordinates":[7.2139125,51.5524138]}},{"type":"Feature","properties":{"station_id":"n3925706350","station_name":"Waldring","station_name_local":"Waldring","network":"BOGESTRA","network_local":null,"operator":"BOGESTRA","city":"Bochum","country":"Germany","lines":["U35"],"wikidata":null},"geometry":{"type":"Point","coordinates":[7.2270368,51.4689201]}},{"type":"Feature","properties":{"station_id":"n3925706351","station_name":"Wasserstraße","station_name_local":"Wasserstraße","network":"BOGESTRA","network_local":null,"operator":"BOGESTRA","city":"Bochum","country":"Germany","lines":["U35"],"wikidata":"Q114419423"},"geometry":{"type":"Point","coordinates":[7.2313859,51.4637808]}},{"type":"Feature","properties":{"station_id":"n3925706352","station_name":"Zeche Constantin","station_name_local":"Zeche Constantin","network":"BOGESTRA","network_local":null,"operator":"BOGESTRA","city":"Bochum","country":"Germany","lines":["U35"],"wikidata":"Q23786176"},"geometry":{"type":"Point","coordinates":[7.2123363,51.5023843]}},{"type":"Feature","properties":{"station_id":"n4783197567","station_name":"Gesundheitscampus","station_name_local":"Gesundheitscampus","network":"Verkehrsverbund Rhein-Ruhr","network_local":"Verkehrsverbund Rhein-Ruhr","operator":"Bochum-Gelsenkirchener Straßenbahnen AG","city":"Bochum","country":"Germany","lines":["U35"],"wikidata":"Q114419340"},"geometry":{"type":"Point","coordinates":[7.2516132,51.4474052]}},{"type":"Feature","properties":{"station_id":"n5155131075","station_name":"Bochum Rathaus (Nord)","station_name_local":"Bochum Rathaus (Nord)","network":"BOGESTRA","network_local":null,"operator":"BOGESTRA","city":"Bochum","country":"Germany","lines":["U35"],"wikidata":"Q18920564"},"geometry":{"type":"Point","coordinates":[7.2162364,51.4829757]}},{"type":"Feature","properties":{"station_id":"n6603876760","station_name":"Bochum Rathaus (Süd)","station_name_local":"Bochum Rathaus (Süd)","network":"BOGESTRA","network_local":null,"operator":"BOGESTRA","city":"Bochum","country":"Germany","lines":["U35"],"wikidata":null},"geometry":{"type":"Point","coordinates":[7.21589,51.4818721]}},{"type":"Feature","properties":{"station_id":"n7683094155","station_name":"Ruhr-Universität","station_name_local":"Ruhr-Universität","network":"BOGESTRA","network_local":null,"operator":"BOGESTRA","city":"Bochum","country":"Germany","lines":["U35"],"wikidata":null},"geometry":{"type":"Point","coordinates":[7.2585956,51.4470895]}},{"type":"Feature","properties":{"station_id":"n7683094156","station_name":"Bochum Hauptbahnhof","station_name_local":"Bochum Hauptbahnhof","network":"Unknown","network_local":null,"operator":null,"city":"Bochum","country":"Germany","lines":["U35"],"wikidata":null},"geometry":{"type":"Point","coordinates":[7.2228705,51.4789047]}}]}