{"type":"FeatureCollection","metro_system":{"continent":"africa","country":"Nigeria","city":"Lagos","osm_networks":["Lagos Rail Mass Transit","Unknown"],"operator":"Lagos Metropolitan Area Transport Authority","official_website":null,"official_map":null,"wikidata":"Q116413296","line_count":1,"station_count":5},"features":[{"type":"Feature","properties":{"route_id":"rm15668739","route_name":"Blue Line","route_name_local":"Blue Line","route_ref":"Blue","route_color":"#0000ff","network":"Lagos Rail Mass Transit","network_local":"Lagos Rail Mass Transit","operator":"Lagos Metropolitan Area Transport Authority","city":"Lagos","country":"Nigeria","wikidata":"Q116413296","wikipedia":null,"osm_route_ids":[15668733,15668734]},"geometry":{"type":"MultiLineString","coordinates":[[[3.3117544,6.4599763],[3.3244856,6.4643778],[3.3431241,6.4775402],[3.3687373,6.4745595],[3.3948073,6.4461291]]]}},{"type":"Feature","properties":{"station_id":"n10776098576","station_name":"Marina","station_name_local":"Marina","network":"Unknown","network_local":null,"operator":null,"city":"Lagos","country":"Nigeria","lines":["Blue"],"wikidata":null},"geometry":{"type":"Point","coordinates":[3.3950293,6.4461596]}},{"type":"Feature","properties":{"station_id":"n10777382244","station_name":"Iganmu","station_name_local":"Iganmu","network":"Unknown","network_local":null,"operator":null,"city":"Lagos","country":"Nigeria","lines":["Blue"],"wikidata":null},"geometry":{"type":"Point","coordinates":[3.3431174,6.4775535]}},{"type":"Feature","properties":{"station_id":"n10777382245","station_name":"Mile 2","station_name_local":"Mile 2","network":"Unknown","network_local":null,"operator":null,"city":"Lagos","country":"Nigeria","lines":["Blue"],"wikidata":null},"geometry":{"type":"Point","coordinates":[3.3117268,6.4599295]}},{"type":"Feature","properties":{"station_id":"n10777382246","station_name":"Alaba","station_name_local":"Alaba","network":"Unknown","network_local":null,"operator":null,"city":"Lagos","country":"Nigeria","lines":["Blue"],"wikidata":null},"geometry":{"type":"Point","coordinates":[3.324479,6.4643875]}},{"type":"Feature","properties":{"station_id":"n10777382247","station_name":"National Theatre","station_name_local":"National Theatre","network":"Unknown","network_local":null,"operator":null,"city":"Lagos","country":"Nigeria","lines":["Blue"],"wikidata":null},"geometry":{"type":"Point","coordinates":[3.3687699,6.4746792]}}]}