{"type":"FeatureCollection","metro_system":{"continent":"asia","country":"Qatar","city":"Doha","osm_networks":["Doha Metro","RKH Qitarat","Red Line","Unknown"],"operator":"RKH Qitarat","official_website":null,"official_map":null,"wikidata":"Q25343681","line_count":3,"station_count":41,"audit":{"strategies_tried":["Z1","Z2"],"notes":{"Z1":"29 station candidates fetched (r=13km)","Z2":"43 stations derived from stop nodes"},"passed":false,"checks":[{"id":"system_exists","ok":true,"detail":"matched OSM system systems/unknown/qatar/qatar-doha.geojson","level":"error"},{"id":"has_lines","ok":true,"detail":"4 lines","level":"error"},{"id":"has_stations","ok":true,"detail":"22 stations","level":"error"},{"id":"station_ratio_low","ok":false,"detail":"站數偏少：OSM 22 vs Wikipedia 37（比值 0.59）","level":"error"},{"id":"stations_have_lines","ok":true,"detail":"22/22 站皆有所屬路線","level":"error"},{"id":"stations_named","ok":true,"detail":"22/22 站有名稱","level":"warn"},{"id":"station_order","ok":false,"detail":"2 條線站序可疑（路徑長 > 1.6× MST）：Lusaii LRT - Purple Line 1.85×、Lusail Tram Orange Line: Legtaifiya → Al Yasmeen → Legtaifiya 1.64×，需以 Wikipedia 線路條目與 urbanrail.net 人工確認","level":"warn"}],"reasons":["站數偏少：OSM 22 vs Wikipedia 37（比值 0.59）"],"warnings":["2 條線站序可疑（路徑長 > 1.6× MST）：Lusaii LRT - Purple Line 1.85×、Lusail Tram Orange Line: Legtaifiya → Al Yasmeen → Legtaifiya 1.64×，需以 Wikipedia 線路條目與 urbanrail.net 人工確認"],"audited_at":"2026-07-10T07:57:06.975Z"}},"features":[{"type":"Feature","properties":{"route_id":"rm9573815","route_name":"Metro Red Line","route_name_local":"الخط الأحمر للمترو","route_ref":"Red","route_color":"#e2251c","network":"Doha Metro","network_local":"Doha Metro","operator":"RKH Qitarat","city":"Doha","country":"Qatar","wikidata":"Q25343681","wikipedia":null,"osm_route_ids":[9573801,9573802,10402958,10402959]},"geometry":{"type":"MultiLineString","coordinates":[[[51.487636,25.4150252],[51.4929957,25.3823228],[51.5247577,25.3706974],[51.5217027,25.3621106],[51.523871,25.3501377],[51.5277025,25.3229874],[51.5198106,25.3151717],[51.5154056,25.3077795],[51.520166,25.2912693],[51.5255622,25.2829114],[51.5396427,25.2747851],[51.5494194,25.2693968],[51.5580303,25.2633419],[51.5667466,25.2496709],[51.5782784,25.2284695],[51.5864566,25.2115347],[51.5961968,25.1931164]]]}},{"type":"Feature","properties":{"route_id":"rm10322047","route_name":"Metro Gold Line","route_name_local":"الخط الذهبي للمترو","route_ref":"Gold","route_color":"#f9b428","network":"Doha Metro","network_local":"Doha Metro","operator":"RKH Qitarat","city":"Doha","country":"Qatar","wikidata":"Q22948672","wikipedia":null,"osm_route_ids":[10322045,10322046]},"geometry":{"type":"MultiLineString","coordinates":[[[51.4441748,25.2576338],[51.4524705,25.2593512],[51.4688621,25.2675429],[51.4851476,25.2726857],[51.4969274,25.2806969],[51.5050181,25.2824799],[51.5149449,25.2803825],[51.5257673,25.2827122],[51.5362473,25.2865171],[51.5493265,25.2846804],[51.5709283,25.2790439]]]}},{"type":"Feature","properties":{"route_id":"rm10403427","route_name":"Metro Green Line","route_name_local":"الخط الأخضر للمترو","route_ref":"Green","route_color":"#009530","network":"Doha Metro","network_local":"Doha Metro","operator":"RKH Qitarat","city":"Doha","country":"Qatar","wikidata":"Q25343673","wikipedia":null,"osm_route_ids":[10403416,10403424]},"geometry":{"type":"MultiLineString","coordinates":[[[51.5349929,25.2704667],[51.5254413,25.2827894],[51.5199642,25.2912326],[51.506012,25.2924524],[51.5005138,25.2905647],[51.4840186,25.2931844],[51.4609181,25.3014161],[51.4531895,25.3093647],[51.4418356,25.3193519],[51.4260888,25.3171038],[51.3480011,25.3243336]]]}},{"type":"Feature","properties":{"station_id":"n684422116","station_name":"n684422116","station_name_local":null,"network":"Unknown","network_local":null,"operator":null,"city":"Doha","country":"Qatar","lines":["Red"],"wikidata":null},"geometry":{"type":"Point","coordinates":[51.5201239,25.2910443]}},{"type":"Feature","properties":{"station_id":"n684434367","station_name":"n684434367","station_name_local":null,"network":"Unknown","network_local":null,"operator":null,"city":"Doha","country":"Qatar","lines":["Red"],"wikidata":null},"geometry":{"type":"Point","coordinates":[51.6152783,25.2572149]}},{"type":"Feature","properties":{"station_id":"n5079684559","station_name":"Qatar University","station_name_local":"جامعة قطر","network":"RKH Qitarat","network_local":null,"operator":"RKH Qitarat","city":"Doha","country":"Qatar","lines":["Red"],"wikidata":null},"geometry":{"type":"Point","coordinates":[51.4930047,25.3823405]}},{"type":"Feature","properties":{"station_id":"n5997671286","station_name":"Ras Bu Fontas","station_name_local":"رأس بوفنطاس","network":"RKH Qitarat","network_local":null,"operator":"RKH Qitarat","city":"Doha","country":"Qatar","lines":["Red"],"wikidata":null},"geometry":{"type":"Point","coordinates":[51.5864827,25.2115468]}},{"type":"Feature","properties":{"station_id":"n5997671384","station_name":"Free Zone","station_name_local":"المنطقة الاقتصادية","network":"RKH Qitarat","network_local":null,"operator":"RKH Qitarat","city":"Doha","country":"Qatar","lines":["Red"],"wikidata":null},"geometry":{"type":"Point","coordinates":[51.5783011,25.2284683]}},{"type":"Feature","properties":{"station_id":"n7052243283","station_name":"Lusail QNB","station_name_local":"لوسيل QNB","network":"RKH Qitarat","network_local":null,"operator":"RKH Qitarat","city":"Doha","country":"Qatar","lines":["Purple Line","Red","TQ"],"wikidata":null,"merged_from":4},"geometry":{"type":"Point","coordinates":[51.487764425,25.414265425]}},{"type":"Feature","properties":{"station_id":"n7052290435","station_name":"Hamad International Airport","station_name_local":"مطار حمد الدولي مبنى 1","network":"RKH Qitarat","network_local":null,"operator":"RKH Qitarat","city":"Doha","country":"Qatar","lines":["Red"],"wikidata":null},"geometry":{"type":"Point","coordinates":[51.6148616,25.2570362]}},{"type":"Feature","properties":{"station_id":"n7052555289","station_name":"Al Bidda","station_name_local":"البدع","network":"RKH Qitarat","network_local":null,"operator":"RKH Qitarat","city":"Doha","country":"Qatar","lines":["Red"],"wikidata":null},"geometry":{"type":"Point","coordinates":[51.52008,25.2912622]}},{"type":"Feature","properties":{"station_id":"n7052555290","station_name":"Hamad Hospital","station_name_local":"مستشفى حمد","network":"Doha Metro","network_local":"Doha Metro","operator":"RKH Qitarat","city":"Doha","country":"Qatar","lines":["Green"],"wikidata":null},"geometry":{"type":"Point","coordinates":[51.5005254,25.2905448]}},{"type":"Feature","properties":{"station_id":"n7052555306","station_name":"Al Riffa","station_name_local":"الرفاع","network":"Doha Metro","network_local":"Doha Metro","operator":null,"city":"Doha","country":"Qatar","lines":["Green"],"wikidata":null},"geometry":{"type":"Point","coordinates":[51.3479911,25.3243141]}},{"type":"Feature","properties":{"station_id":"n7052555307","station_name":"Al Rayyan Al Qadeem","station_name_local":"الريان القديم","network":"Doha Metro","network_local":"Doha Metro","operator":null,"city":"Doha","country":"Qatar","lines":["Green"],"wikidata":null},"geometry":{"type":"Point","coordinates":[51.460906,25.3013965]}},{"type":"Feature","properties":{"station_id":"n7052555309","station_name":"Al Shaqab","station_name_local":"الشقب","network":"Doha Metro","network_local":"Doha Metro","operator":null,"city":"Doha","country":"Qatar","lines":["Green"],"wikidata":null},"geometry":{"type":"Point","coordinates":[51.4531676,25.3093541]}},{"type":"Feature","properties":{"station_id":"n7052555311","station_name":"Qatar National Library","station_name_local":"مكتبة قطر الوطنية","network":"Doha Metro","network_local":"Doha Metro","operator":null,"city":"Doha","country":"Qatar","lines":["Green"],"wikidata":null},"geometry":{"type":"Point","coordinates":[51.4418356,25.3193295]}},{"type":"Feature","properties":{"station_id":"n7052555312","station_name":"Education City","station_name_local":"المدينة التعليمية","network":"Doha Metro","network_local":"Doha Metro","operator":null,"city":"Doha","country":"Qatar","lines":["Green"],"wikidata":null},"geometry":{"type":"Point","coordinates":[51.4260979,25.3170829]}},{"type":"Feature","properties":{"station_id":"n7052555313","station_name":"Al Mansoura","station_name_local":"المنصورة","network":"Unknown","network_local":null,"operator":null,"city":"Doha","country":"Qatar","lines":["Green"],"wikidata":null},"geometry":{"type":"Point","coordinates":[51.5349742,25.270452]}},{"type":"Feature","properties":{"station_id":"n7052555315","station_name":"Al Messila","station_name_local":"المسيلة","network":"Doha Metro","network_local":"Doha Metro","operator":null,"city":"Doha","country":"Qatar","lines":["Green"],"wikidata":null},"geometry":{"type":"Point","coordinates":[51.484007,25.2931645]}},{"type":"Feature","properties":{"station_id":"n7053538427","station_name":"The White Palace","station_name_local":"القصر الأبيض","network":"Doha Metro","network_local":"Doha Metro","operator":"RKH Qitarat","city":"Doha","country":"Qatar","lines":["Green"],"wikidata":null},"geometry":{"type":"Point","coordinates":[51.5060185,25.2924307]}},{"type":"Feature","properties":{"station_id":"n7062658394","station_name":"Joaan","station_name_local":"جوعان","network":"Unknown","network_local":null,"operator":null,"city":"Doha","country":"Qatar","lines":["Gold"],"wikidata":null},"geometry":{"type":"Point","coordinates":[51.4969266,25.2807129]}},{"type":"Feature","properties":{"station_id":"n9960498797","station_name":"National Museum","station_name_local":"المتحف الوطني","network":"Unknown","network_local":null,"operator":null,"city":"Doha","country":"Qatar","lines":["Gold"],"wikidata":"Q108463897"},"geometry":{"type":"Point","coordinates":[51.5493374,25.2846925]}},{"type":"Feature","properties":{"station_id":"n11075856460","station_name":"Sport City","station_name_local":"المدينة الرياضية","network":"RKH Qitarat","network_local":null,"operator":"RKH Qitarat","city":"Doha","country":"Qatar","lines":["Gold"],"wikidata":null},"geometry":{"type":"Point","coordinates":[51.4524642,25.2593658]}},{"type":"Feature","properties":{"station_id":"n11075856461","station_name":"Umm Ghuwailina","station_name_local":"أم غويلينة","network":"RKH Qitarat","network_local":null,"operator":"RKH Qitarat","city":"Doha","country":"Qatar","lines":["Red"],"wikidata":null},"geometry":{"type":"Point","coordinates":[51.5494346,25.2694146]}},{"type":"Feature","properties":{"station_id":"n11075856462","station_name":"West Bay","station_name_local":"الخليج الغربي","network":"RKH Qitarat","network_local":null,"operator":"RKH Qitarat","city":"Doha","country":"Qatar","lines":["Red"],"wikidata":null},"geometry":{"type":"Point","coordinates":[51.5198233,25.3151524]}},{"type":"Feature","properties":{"station_id":"n12396311895","station_name":"Msheireb","station_name_local":"مشيرب","network":"RKH Qitarat","network_local":null,"operator":"RKH Qitarat","city":"Doha","country":"Qatar","lines":["Red"],"wikidata":"Q25343654"},"geometry":{"type":"Point","coordinates":[51.5255767,25.282817]}},{"type":"Feature","properties":{"station_id":"n12484260351","station_name":"Legtaifiya","station_name_local":"لقطيفية","network":"Unknown","network_local":null,"operator":null,"city":"Doha","country":"Qatar","lines":["OR","PK"],"wikidata":null,"merged_from":4},"geometry":{"type":"Point","coordinates":[51.524892825,25.3708347]}},{"type":"Feature","properties":{"station_id":"n12484260353","station_name":"Marina - South","station_name_local":"المارينا - جنوب","network":"Unknown","network_local":null,"operator":null,"city":"Doha","country":"Qatar","lines":["OR","PK"],"wikidata":null,"merged_from":3},"geometry":{"type":"Point","coordinates":[51.526950866666674,25.385592333333335]}},{"type":"Feature","properties":{"station_id":"n12484260354","station_name":"Marina - Central","station_name_local":"المارينا - سنترال","network":"Unknown","network_local":null,"operator":null,"city":"Doha","country":"Qatar","lines":["OR","PK"],"wikidata":null,"merged_from":3},"geometry":{"type":"Point","coordinates":[51.52574609999999,25.388929199999996]}},{"type":"Feature","properties":{"station_id":"n684433706","station_name":"Al Wakra","station_name_local":"الوكرة","network":"RKH Qitarat","network_local":null,"operator":"RKH Qitarat","city":"Doha","country":"Qatar","lines":["Red"],"wikidata":null},"geometry":{"type":"Point","coordinates":[51.5960563,25.1935879]}},{"type":"Feature","properties":{"station_id":"n684433712","station_name":"Oqba Ibn Nafie","station_name_local":"عقبة بن نافع","network":"RKH Qitarat","network_local":null,"operator":"RKH Qitarat","city":"Doha","country":"Qatar","lines":["Red"],"wikidata":null},"geometry":{"type":"Point","coordinates":[51.5668027,25.249651]}},{"type":"Feature","properties":{"station_id":"n684433714","station_name":"Al Matar Al Qadeem","station_name_local":"المطار القديم","network":"RKH Qitarat","network_local":null,"operator":"RKH Qitarat","city":"Doha","country":"Qatar","lines":["Red"],"wikidata":"Q108447772"},"geometry":{"type":"Point","coordinates":[51.5580949,25.2634211]}},{"type":"Feature","properties":{"station_id":"n684433716","station_name":"Al Doha Al Jadeda","station_name_local":"الدوحة الجديدة","network":"RKH Qitarat","network_local":null,"operator":"RKH Qitarat","city":"Doha","country":"Qatar","lines":["Red"],"wikidata":null},"geometry":{"type":"Point","coordinates":[51.5396752,25.2747959]}},{"type":"Feature","properties":{"station_id":"n684433721","station_name":"Souq Waqif","station_name_local":"سوق واقف","network":"Unknown","network_local":null,"operator":null,"city":"Doha","country":"Qatar","lines":["Gold"],"wikidata":null},"geometry":{"type":"Point","coordinates":[51.536215,25.2866063]}},{"type":"Feature","properties":{"station_id":"n684437105","station_name":"DECC","station_name_local":"مركز المعارض","network":"Red Line","network_local":"Red Line","operator":"Doha Metro","city":"Doha","country":"Qatar","lines":["Red"],"wikidata":null,"merged_from":2},"geometry":{"type":"Point","coordinates":[51.52808665,25.32315095]}},{"type":"Feature","properties":{"station_id":"n684437117","station_name":"Corniche","station_name_local":"الكورنيش","network":"RKH Qitarat","network_local":null,"operator":"RKH Qitarat","city":"Doha","country":"Qatar","lines":["Red"],"wikidata":null},"geometry":{"type":"Point","coordinates":[51.5157229,25.3076242]}},{"type":"Feature","properties":{"station_id":"n684438146","station_name":"Katara","station_name_local":"كتارا","network":"RKH Qitarat","network_local":null,"operator":"RKH Qitarat","city":"Doha","country":"Qatar","lines":["Red"],"wikidata":null},"geometry":{"type":"Point","coordinates":[51.5217094,25.3620972]}},{"type":"Feature","properties":{"station_id":"n684438147","station_name":"Al Qassar","station_name_local":"القصار","network":"RKH Qitarat","network_local":null,"operator":"RKH Qitarat","city":"Doha","country":"Qatar","lines":["Red"],"wikidata":null},"geometry":{"type":"Point","coordinates":[51.5239979,25.3501386]}},{"type":"Feature","properties":{"station_id":"n684485415","station_name":"Bin Mahmoud","station_name_local":"بن محمود","network":"Unknown","network_local":null,"operator":null,"city":"Doha","country":"Qatar","lines":["Gold"],"wikidata":null},"geometry":{"type":"Point","coordinates":[51.5149383,25.2804272]}},{"type":"Feature","properties":{"station_id":"n684485424","station_name":"Al Sadd","station_name_local":"السد","network":"Unknown","network_local":null,"operator":null,"city":"Doha","country":"Qatar","lines":["Gold"],"wikidata":null},"geometry":{"type":"Point","coordinates":[51.5050408,25.2824187]}},{"type":"Feature","properties":{"station_id":"n684487486","station_name":"Al Aziziyah","station_name_local":"العزيزية","network":"Unknown","network_local":null,"operator":null,"city":"Doha","country":"Qatar","lines":["Gold"],"wikidata":null},"geometry":{"type":"Point","coordinates":[51.4441353,25.2576566]}},{"type":"Feature","properties":{"station_id":"n684487493","station_name":"Al Waab","station_name_local":"الوعب","network":"Unknown","network_local":null,"operator":null,"city":"Doha","country":"Qatar","lines":["Gold"],"wikidata":null},"geometry":{"type":"Point","coordinates":[51.4688304,25.2675731]}},{"type":"Feature","properties":{"station_id":"n684487501","station_name":"Al Sudan","station_name_local":"السودان","network":"Unknown","network_local":null,"operator":null,"city":"Doha","country":"Qatar","lines":["Gold"],"wikidata":null},"geometry":{"type":"Point","coordinates":[51.4852542,25.2727426]}},{"type":"Feature","properties":{"station_id":"n684494003","station_name":"Ras Bu Abboud","station_name_local":"راس بو عبود","network":"Unknown","network_local":null,"operator":null,"city":"Doha","country":"Qatar","lines":["Gold"],"wikidata":null},"geometry":{"type":"Point","coordinates":[51.5708483,25.2790351]}}]}