{"type":"FeatureCollection","metro_system":{"continent":"asia","country":"Taiwan","city":"Taipei","osm_networks":["Skytrain","Taipei Metro","Taoyuan Metro","Unknown","新北捷運","桃園機場捷運","臺北捷運"],"operator":"臺北大眾捷運股份有限公司","official_website":"http://www.trtc.com.tw/","official_map":"https://zh.wikipedia.org/wiki/板南線","wikidata":"Q708378","line_count":9,"station_count":146,"audit":null},"features":[{"type":"Feature","properties":{"route_id":"rm9437778","route_name":"Bannan line","route_name_local":"捷運板南線","route_ref":"BL","route_color":"#007ec7","network":"Taipei Metro","network_local":"臺北捷運","operator":"臺北大眾捷運股份有限公司","city":"Taipei","country":"Taiwan","wikidata":"Q708378","wikipedia":"zh:板南線","osm_route_ids":[199038,9437776]},"geometry":{"type":"MultiLineString","coordinates":[[[121.4194295,24.95965405],[121.4362698,24.9668719],[121.444391,24.9731817],[121.4487858,24.9853177],[121.4523632,24.9975221],[121.4592803,25.0087697],[121.463792,25.0148431],[121.4683057,25.0234603],[121.4727783,25.0304238],[121.4995813,25.0352844],[121.5086081,25.0427128],[121.51590970000001,25.04747345],[121.5234226,25.0447619],[121.5328383,25.04229],[121.5437706,25.0415409],[121.549479,25.0415086],[121.5573918,25.0413418],[121.5660998,25.0411283],[121.5757045,25.0408761],[121.5823224,25.0447413],[121.5933161,25.0504897],[121.607192,25.0520905],[121.61755744999999,25.05494225]],[[121.61755744999999,25.05494225],[121.5437706,25.0415409],[121.463792,25.0148431],[121.4194295,24.95965405]]]}},{"type":"Feature","properties":{"route_id":"rm4264893","route_name":"Wenhu Line","route_name_local":"台北捷運文湖線","route_ref":"BR","route_color":"#a74c00","network":"Taipei Metro","network_local":"臺北捷運","operator":"臺北大眾捷運股份有限公司","city":"Taipei","country":"Taiwan","wikidata":"Q707644","wikipedia":"zh:文湖線","osm_route_ids":[447449,4264892]},"geometry":{"type":"MultiLineString","coordinates":[[[121.61755744999999,25.05494225],[121.6158969,25.0599458],[121.6116099,25.0674198],[121.6073633,25.0726385],[121.602341,25.0837613],[121.5941892,25.0834972],[121.5849416,25.0785562],[121.5752034,25.0800727],[121.5673156,25.0821916],[121.5556531,25.0848493],[121.5474402,25.0798652],[121.5516137,25.063086],[121.5442019,25.0606868],[121.5439651,25.051836],[121.5437706,25.0415409],[121.5435546,25.0333294],[121.5434596,25.0261012],[121.5531211,25.0238183],[121.5589054,25.0184395],[121.5570598,25.0054814],[121.558138,24.9994306],[121.5681226,24.9986089],[121.5731834,24.9982458],[121.5794478,24.9983168]]]}},{"type":"Feature","properties":{"route_id":"rm4250358","route_name":"Songshan–Xindian line","route_name_local":"臺北捷運松山新店線","route_ref":"G","route_color":"#1e7b54","network":"Taipei Metro","network_local":"臺北捷運","operator":"臺北大眾捷運股份有限公司","city":"Taipei","country":"Taiwan","wikidata":"Q697192","wikipedia":"zh:松山新店線","osm_route_ids":[447471,4250356,4250357,9437777]},"geometry":{"type":"MultiLineString","coordinates":[[[121.5376308,24.9580672],[121.5413511,24.9673862],[121.5429203,24.9750221],[121.5413291,24.9829295],[121.5408198,24.992978],[121.5389958,25.001899],[121.534264,25.0149166],[121.5283902,25.0205325],[121.5229533,25.0264102],[121.5177618,25.0333942],[121.5108064,25.035901],[121.5086081,25.0427128],[121.5103289,25.0493991],[121.5203914,25.0526256],[121.5330358,25.0520141],[121.5439651,25.051836],[121.5514989,25.0516857],[121.5643061,25.0514279],[121.5774743,25.0500706]]]}},{"type":"Feature","properties":{"route_id":"rm6937084","route_name":"Taoyuan Airport MRT Commuter to Laojie River","route_name_local":"桃園國際機場捷運","route_ref":"A","route_color":"#800080","network":"Taoyuan Metro","network_local":"桃園捷運","operator":"桃園大眾捷運股份有限公司","city":"Taipei","country":"Taiwan","wikidata":"Q4268353","wikipedia":"zh:桃園機場捷運","osm_route_ids":[2108764,6937083,8487050,8487062]},"geometry":{"type":"MultiLineString","coordinates":[[[121.51590970000001,25.04747345],[121.4840949,25.055320899999998],[121.45937515,25.0614873],[121.4457893,25.05921],[121.4395522,25.0532646],[121.4229634,25.0333454],[121.3854083,25.0413317],[121.3707965,25.0604744],[121.3614372,25.0657846],[121.2847775,25.0808055],[121.2663561,25.0864909],[121.2383976,25.080498],[121.2322564,25.0772273],[121.2206257,25.0691793],[121.2106496,25.0558139],[121.2157962,25.0364919],[121.2210937,25.0241007],[121.2141381,25.0137163],[121.2032715,25.0017441],[121.2164356,24.9800328],[121.2208004,24.9671663],[121.2193715,24.9585814]],[[121.2208004,24.9671663],[121.2141381,25.0137163],[121.2322564,25.0772273],[121.2383976,25.080498],[121.3707965,25.0604744],[121.45937515,25.0614873],[121.51590970000001,25.04747345]]]}},{"type":"Feature","properties":{"route_id":"rm9437207","route_name":"MRT red line (Xinbeitou Branch Line)","route_name_local":"捷運紅線 (新北投支線) MRT red line (Xinbeitou Branch Line)","route_ref":"捷運紅線 (新北投支線)","route_color":"#f890a5","network":"Taipei Metro","network_local":"臺北捷運","operator":"臺北大眾捷運股份有限公司","city":"Taipei","country":"Taiwan","wikidata":"Q8044505","wikipedia":"zh:新北投支線","osm_route_ids":[2665129,9437206]},"geometry":{"type":"MultiLineString","coordinates":[[[121.4985934,25.1319307],[121.5031693,25.1369644]]]}},{"type":"Feature","properties":{"route_id":"rm10658528","route_name":"Taipei MTR Circular Line","route_name_local":"臺北捷運環狀線","route_ref":"Y","route_color":"#fedb00","network":"Taipei Metro","network_local":"臺北捷運","operator":"臺北大眾捷運股份有限公司","city":"Taipei","country":"Taiwan","wikidata":"Q5971413","wikipedia":"zh:環狀線 (台北捷運)","osm_route_ids":[3322093,8165684]},"geometry":{"type":"MultiLineString","coordinates":[[[121.5416446,24.9828172],[121.52744845,24.984416850000002],[121.5249012,24.9903315],[121.5161735,24.9921502],[121.5053784,24.993592749999998],[121.4958503,25.0023167],[121.4902458,25.0046042],[121.4842739,25.0081782],[121.472418,25.0145313],[121.463792,25.0148431],[121.4666661,25.0261266],[121.4608533,25.03970175],[121.459967,25.0499888],[121.45937515,25.0614873]]]}},{"type":"Feature","properties":{"route_id":"rm447451","route_name":"Tamsui–Xinyi line","route_name_local":"淡水信義線","route_ref":"R","route_color":"#ff0000","network":"Taipei Metro","network_local":"臺北捷運","operator":"臺北大眾捷運股份有限公司","city":"Taipei","country":"Taiwan","wikidata":"Q697140","wikipedia":"en:Tamsui–Xinyi line","osm_route_ids":[3343808,5378981,5633242,9439377]},"geometry":{"type":"MultiLineString","coordinates":[[[121.4455744,25.1677828],[121.4588723,25.15492435],[121.4595099,25.1369727],[121.4671419,25.1257006],[121.473374,25.1309506],[121.4854979,25.1374895],[121.4985934,25.1319307],[121.5011369,25.1256031],[121.5061304,25.1209048],[121.5155232,25.1146071],[121.5187693,25.1098593],[121.5225195,25.1030034],[121.5262468,25.0934949],[121.5249806,25.0842913],[121.5201361,25.0714175],[121.519403,25.0628506],[121.5206986,25.057632],[121.5203914,25.0526256],[121.51590970000001,25.04747345],[121.5161808,25.0416464],[121.5177618,25.0333942],[121.5292584,25.0338425],[121.5352793,25.0335619],[121.5435546,25.0333294],[121.5527328,25.0331302],[121.5624453,25.0329794],[121.5697576,25.0328676]]]}},{"type":"Feature","properties":{"route_id":"rm4250359","route_name":"Zhonghe–Xinlu line","route_name_local":"台北捷運中和新蘆線","route_ref":"O","route_color":"#f58231","network":"Taipei Metro","network_local":"臺北捷運","operator":"臺北大眾捷運股份有限公司","city":"Taipei","country":"Taiwan","wikidata":"Q6141590","wikipedia":"zh:中和新蘆線","osm_route_ids":[4250352,4250353,4250354,4250355]},"geometry":{"type":"MultiLineString","coordinates":[[[121.5088518,24.9900264],[121.5053784,24.993592749999998],[121.5109003,25.0024105],[121.515472,25.0136014],[121.5229533,25.0264102],[121.5292584,25.0338425],[121.5328383,25.04229],[121.5330358,25.0520141],[121.5331615,25.0594133],[121.5265984,25.062674],[121.519403,25.0628506],[121.5126944,25.063198],[121.5005513,25.0631779],[121.4921055,25.0602676],[121.4840949,25.055320899999998],[121.4716805,25.0464284],[121.4608533,25.03970175],[121.4533591,25.0363332],[121.4352746,25.032722],[121.4226568,25.0289264],[121.4119025,25.0220786]],[[121.5088518,24.9900264],[121.5053784,24.993592749999998],[121.5109003,25.0024105],[121.515472,25.0136014],[121.5229533,25.0264102],[121.5292584,25.0338425],[121.5328383,25.04229],[121.5330358,25.0520141],[121.5331615,25.0594133],[121.5265984,25.062674],[121.519403,25.0628506],[121.5126944,25.063198],[121.4973001,25.0700034],[121.4863784,25.076814],[121.4802265,25.0803359],[121.4732993,25.0855048],[121.465104,25.091278]]]}},{"type":"Feature","properties":{"route_id":"rm4250382","route_name":"台北捷運小碧潭支線","route_name_local":"台北捷運小碧潭支線","route_ref":"G","route_color":"#cedc00","network":"Taipei Metro","network_local":"臺北捷運","operator":"臺北大眾捷運股份有限公司","city":"Taipei","country":"Taiwan","wikidata":"Q8044250","wikipedia":"zh:小碧潭支線","osm_route_ids":[4250380,4250381]},"geometry":{"type":"MultiLineString","coordinates":[[[121.5305995,24.9717696],[121.5429203,24.9750221]]]}},{"type":"Feature","properties":{"station_id":"n1533860068","station_name":"n1533860068","station_name_local":null,"network":"Unknown","network_local":null,"operator":null,"city":"Taipei","country":"Taiwan","lines":["BL"],"wikidata":null},"geometry":{"type":"Point","coordinates":[121.4198105,24.9600409]}},{"type":"Feature","properties":{"station_id":"n253559357","station_name":"Taipower Building","station_name_local":"台電大樓","network":"臺北捷運","network_local":"臺北捷運","operator":"臺北大眾捷運股份有限公司","city":"Taipei","country":"Taiwan","lines":["G"],"wikidata":"Q708952"},"geometry":{"type":"Point","coordinates":[121.5283902,25.0205325]}},{"type":"Feature","properties":{"station_id":"n269820830","station_name":"Xinbeitou","station_name_local":"新北投","network":"臺北捷運","network_local":"臺北捷運","operator":"臺北大眾捷運股份有限公司","city":"Taipei","country":"Taiwan","lines":["捷運紅線 (新北投支線)"],"wikidata":"Q698837"},"geometry":{"type":"Point","coordinates":[121.5031693,25.1369644]}},{"type":"Feature","properties":{"station_id":"n373399546","station_name":"Yongning","station_name_local":"永寧","network":"臺北捷運","network_local":"臺北捷運","operator":"臺北大眾捷運股份有限公司","city":"Taipei","country":"Taiwan","lines":["BL"],"wikidata":"Q706986"},"geometry":{"type":"Point","coordinates":[121.4362698,24.9668719]}},{"type":"Feature","properties":{"station_id":"n373399553","station_name":"Tucheng","station_name_local":"土城","network":"臺北捷運","network_local":"臺北捷運","operator":"臺北大眾捷運股份有限公司","city":"Taipei","country":"Taiwan","lines":["BL"],"wikidata":"Q699183"},"geometry":{"type":"Point","coordinates":[121.444391,24.9731817]}},{"type":"Feature","properties":{"station_id":"n373400459","station_name":"Xihu","station_name_local":"西湖","network":"臺北捷運","network_local":"臺北捷運","operator":"臺北大眾捷運股份有限公司","city":"Taipei","country":"Taiwan","lines":["BR"],"wikidata":"Q699531"},"geometry":{"type":"Point","coordinates":[121.5673156,25.0821916]}},{"type":"Feature","properties":{"station_id":"n689295008","station_name":"Xinhai","station_name_local":"辛亥","network":"Taipei Metro","network_local":"臺北捷運","operator":"臺北大眾捷運股份有限公司","city":"Taipei","country":"Taiwan","lines":["BR"],"wikidata":"Q698445"},"geometry":{"type":"Point","coordinates":[121.5570598,25.0054814]}},{"type":"Feature","properties":{"station_id":"n689354512","station_name":"Wanfang Hospital","station_name_local":"萬芳醫院","network":"Taipei Metro","network_local":"臺北捷運","operator":"臺北大眾捷運股份有限公司","city":"Taipei","country":"Taiwan","lines":["BR"],"wikidata":"Q698008"},"geometry":{"type":"Point","coordinates":[121.558138,24.9994306]}},{"type":"Feature","properties":{"station_id":"n689418701","station_name":"Wanfang Community","station_name_local":"萬芳社區","network":"臺北捷運","network_local":"臺北捷運","operator":"臺北大眾捷運股份有限公司","city":"Taipei","country":"Taiwan","lines":["BR"],"wikidata":"Q698602"},"geometry":{"type":"Point","coordinates":[121.5681226,24.9986089]}},{"type":"Feature","properties":{"station_id":"n689420115","station_name":"Muzha","station_name_local":"木柵","network":"臺北捷運","network_local":"臺北捷運","operator":"臺北大眾捷運股份有限公司","city":"Taipei","country":"Taiwan","lines":["BR"],"wikidata":"Q698788"},"geometry":{"type":"Point","coordinates":[121.5731834,24.9982458]}},{"type":"Feature","properties":{"station_id":"n689422202","station_name":"Taipei Zoo","station_name_local":"動物園","network":"臺北捷運","network_local":"臺北捷運","operator":"臺北大眾捷運股份有限公司","city":"Taipei","country":"Taiwan","lines":["BR"],"wikidata":"Q698627"},"geometry":{"type":"Point","coordinates":[121.5794478,24.9983168]}},{"type":"Feature","properties":{"station_id":"n689442955","station_name":"Linguang","station_name_local":"麟光","network":"臺北捷運","network_local":"臺北捷運","operator":"臺北大眾捷運股份有限公司","city":"Taipei","country":"Taiwan","lines":["BR"],"wikidata":"Q698524"},"geometry":{"type":"Point","coordinates":[121.5589054,25.0184395]}},{"type":"Feature","properties":{"station_id":"n1256399260","station_name":"Xingnan","station_name_local":"興南","network":"桃園機場捷運","network_local":"桃園機場捷運","operator":"桃園大眾捷運股份有限公司","city":"Taipei","country":"Taiwan","lines":["A"],"wikidata":"Q15942500"},"geometry":{"type":"Point","coordinates":[121.2164356,24.9800328]}},{"type":"Feature","properties":{"station_id":"n1256418888","station_name":"Taoyuan Sports Park","station_name_local":"桃園體育園區","network":"桃園機場捷運","network_local":"桃園機場捷運","operator":"桃園大眾捷運股份有限公司","city":"Taipei","country":"Taiwan","lines":["A"],"wikidata":"Q11112227"},"geometry":{"type":"Point","coordinates":[121.2032715,25.0017441]}},{"type":"Feature","properties":{"station_id":"n1256740763","station_name":"Linghang","station_name_local":"領航","network":"桃園機場捷運","network_local":"桃園機場捷運","operator":"桃園大眾捷運股份有限公司","city":"Taipei","country":"Taiwan","lines":["A"],"wikidata":"Q15929852"},"geometry":{"type":"Point","coordinates":[121.2210937,25.0241007]}},{"type":"Feature","properties":{"station_id":"n1256740812","station_name":"Taoyuan HSR Station","station_name_local":"高鐵桃園站","network":"桃園機場捷運","network_local":"桃園機場捷運","operator":"桃園大眾捷運股份有限公司","city":"Taipei","country":"Taiwan","lines":["A"],"wikidata":"Q6146504"},"geometry":{"type":"Point","coordinates":[121.2141381,25.0137163]}},{"type":"Feature","properties":{"station_id":"n1257929926","station_name":"Hengshan","station_name_local":"橫山","network":"桃園機場捷運","network_local":"桃園機場捷運","operator":"桃園大眾捷運股份有限公司","city":"Taipei","country":"Taiwan","lines":["A"],"wikidata":"Q11122236"},"geometry":{"type":"Point","coordinates":[121.2157962,25.0364919]}},{"type":"Feature","properties":{"station_id":"n1493007672","station_name":"Xingtian Temple","station_name_local":"行天宮","network":"臺北捷運","network_local":"臺北捷運","operator":"臺北大眾捷運股份有限公司","city":"Taipei","country":"Taiwan","lines":["O"],"wikidata":"Q5948786"},"geometry":{"type":"Point","coordinates":[121.5331615,25.0594133]}},{"type":"Feature","properties":{"station_id":"n1493007755","station_name":"Songjiang Nanjing","station_name_local":"松江南京","network":"臺北捷運","network_local":"臺北捷運","operator":"臺北大眾捷運股份有限公司","city":"Taipei","country":"Taiwan","lines":["G","O"],"wikidata":"Q6119107"},"geometry":{"type":"Point","coordinates":[121.5330358,25.0520141]}},{"type":"Feature","properties":{"station_id":"n1681745146","station_name":"Dazhi","station_name_local":"大直","network":"臺北捷運","network_local":"臺北捷運","operator":"臺北大眾捷運股份有限公司","city":"Taipei","country":"Taiwan","lines":["BR"],"wikidata":"Q699920"},"geometry":{"type":"Point","coordinates":[121.5474402,25.0798652]}},{"type":"Feature","properties":{"station_id":"n1940469232","station_name":"Dongmen","station_name_local":"東門","network":"Taipei Metro","network_local":"臺北捷運","operator":"臺北大眾捷運股份有限公司","city":"Taipei","country":"Taiwan","lines":["O","R"],"wikidata":"Q699205"},"geometry":{"type":"Point","coordinates":[121.5292584,25.0338425]}},{"type":"Feature","properties":{"station_id":"n1945578205","station_name":"Taipei Nangang Exhibition Center","station_name_local":"南港展覽館","network":"臺北捷運","network_local":"臺北捷運","operator":"臺北大眾捷運股份有限公司","city":"Taipei","country":"Taiwan","lines":["BL","BR"],"wikidata":"Q699465","merged_from":2},"geometry":{"type":"Point","coordinates":[121.61755744999999,25.05494225]}},{"type":"Feature","properties":{"station_id":"n2083320436","station_name":"Xiulang Bridge","station_name_local":"秀朗橋","network":"新北捷運","network_local":"新北捷運","operator":"新北捷運公司","city":"Taipei","country":"Taiwan","lines":["Y"],"wikidata":"Q15912906"},"geometry":{"type":"Point","coordinates":[121.5249012,24.9903315]}},{"type":"Feature","properties":{"station_id":"n2083320640","station_name":"Zhongyuan","station_name_local":"中原","network":"新北捷運","network_local":"新北捷運","operator":"新北捷運公司","city":"Taipei","country":"Taiwan","lines":["Y"],"wikidata":"Q10872616"},"geometry":{"type":"Point","coordinates":[121.4842739,25.0081782]}},{"type":"Feature","properties":{"station_id":"n2083320835","station_name":"Touqianzhuang","station_name_local":"頭前庄","network":"新北捷運","network_local":"新北捷運","operator":"新北捷運公司","city":"Taipei","country":"Taiwan","lines":["O","Y"],"wikidata":"Q5932132","merged_from":2},"geometry":{"type":"Point","coordinates":[121.4608533,25.03970175]}},{"type":"Feature","properties":{"station_id":"n2083320848","station_name":"New Taipei Industrial Park","station_name_local":"新北產業園區","network":"新北捷運","network_local":"新北捷運","operator":"新北捷運公司","city":"Taipei","country":"Taiwan","lines":["A","Y"],"wikidata":"Q11081532","merged_from":2},"geometry":{"type":"Point","coordinates":[121.45937515,25.0614873]}},{"type":"Feature","properties":{"station_id":"n2410061384","station_name":"Xingfu","station_name_local":"幸福","network":"新北捷運","network_local":"新北捷運","operator":"新北捷運公司","city":"Taipei","country":"Taiwan","lines":["Y"],"wikidata":"Q11061523"},"geometry":{"type":"Point","coordinates":[121.459967,25.0499888]}},{"type":"Feature","properties":{"station_id":"n2866559962","station_name":"Xinpu Minsheng","station_name_local":"新埔民生","network":"新北捷運","network_local":"新北捷運","operator":"新北捷運公司","city":"Taipei","country":"Taiwan","lines":["Y"],"wikidata":"Q11082033"},"geometry":{"type":"Point","coordinates":[121.4666661,25.0261266]}},{"type":"Feature","properties":{"station_id":"n2866570655","station_name":"Banqiao","station_name_local":"板橋","network":"新北捷運","network_local":"新北捷運","operator":"新北捷運公司","city":"Taipei","country":"Taiwan","lines":["BL","Y"],"wikidata":"Q698107","merged_from":2},"geometry":{"type":"Point","coordinates":[121.463792,25.0148431]}},{"type":"Feature","properties":{"station_id":"n2866571173","station_name":"Shisizhang","station_name_local":"十四張","network":"新北捷運","network_local":"新北捷運","operator":"新北捷運公司","city":"Taipei","country":"Taiwan","lines":["K","Y"],"wikidata":"Q10904547","merged_from":2},"geometry":{"type":"Point","coordinates":[121.52744845,24.984416850000002]}},{"type":"Feature","properties":{"station_id":"n2866571176","station_name":"Jingping","station_name_local":"景平","network":"新北捷運","network_local":"新北捷運","operator":"新北捷運公司","city":"Taipei","country":"Taiwan","lines":["Y"],"wikidata":"Q11090036"},"geometry":{"type":"Point","coordinates":[121.5161735,24.9921502]}},{"type":"Feature","properties":{"station_id":"n2866590585","station_name":"Banxin","station_name_local":"板新","network":"新北捷運","network_local":"新北捷運","operator":"新北捷運公司","city":"Taipei","country":"Taiwan","lines":["Y"],"wikidata":"Q11105013"},"geometry":{"type":"Point","coordinates":[121.472418,25.0145313]}},{"type":"Feature","properties":{"station_id":"n2971714589","station_name":"Neihu","station_name_local":"內湖","network":"臺北捷運","network_local":"臺北捷運","operator":"臺北大眾捷運股份有限公司","city":"Taipei","country":"Taiwan","lines":["BR"],"wikidata":"Q699449"},"geometry":{"type":"Point","coordinates":[121.5941892,25.0834972]}},{"type":"Feature","properties":{"station_id":"n2973163775","station_name":"NTU Hospital","station_name_local":"台大醫院","network":"臺北捷運","network_local":"臺北捷運","operator":"臺北大眾捷運股份有限公司","city":"Taipei","country":"Taiwan","lines":["R"],"wikidata":"Q698114"},"geometry":{"type":"Point","coordinates":[121.5161808,25.0416464]}},{"type":"Feature","properties":{"station_id":"n3263840809","station_name":"Beimen","station_name_local":"北門","network":"臺北捷運","network_local":"臺北捷運","operator":"臺北大眾捷運股份有限公司","city":"Taipei","country":"Taiwan","lines":["G"],"wikidata":"Q4881268"},"geometry":{"type":"Point","coordinates":[121.5103289,25.0493991]}},{"type":"Feature","properties":{"station_id":"n3461854239","station_name":"Xindian","station_name_local":"新店","network":"臺北捷運","network_local":"臺北捷運","operator":"臺北大眾捷運股份有限公司","city":"Taipei","country":"Taiwan","lines":["G"],"wikidata":"Q698202"},"geometry":{"type":"Point","coordinates":[121.5376308,24.9580672]}},{"type":"Feature","properties":{"station_id":"n3494960745","station_name":"Xiangshan","station_name_local":"象山","network":"臺北捷運","network_local":"臺北捷運","operator":"臺北大眾捷運股份有限公司","city":"Taipei","country":"Taiwan","lines":["R"],"wikidata":"Q4276721"},"geometry":{"type":"Point","coordinates":[121.5697576,25.0328676]}},{"type":"Feature","properties":{"station_id":"n3494960747","station_name":"Xinyi Anhe","station_name_local":"信義安和","network":"臺北捷運","network_local":"臺北捷運","operator":"臺北大眾捷運股份有限公司","city":"Taipei","country":"Taiwan","lines":["R"],"wikidata":"Q8044681"},"geometry":{"type":"Point","coordinates":[121.5527328,25.0331302]}},{"type":"Feature","properties":{"station_id":"n3494960748","station_name":"Daan","station_name_local":"大安","network":"臺北捷運","network_local":"臺北捷運","operator":"臺北大眾捷運股份有限公司","city":"Taipei","country":"Taiwan","lines":["BR","R"],"wikidata":"Q698662"},"geometry":{"type":"Point","coordinates":[121.5435546,25.0333294]}},{"type":"Feature","properties":{"station_id":"n3494960749","station_name":"Daan Park","station_name_local":"大安森林公園","network":"Taipei Metro","network_local":"臺北捷運","operator":"臺北大眾捷運股份有限公司","city":"Taipei","country":"Taiwan","lines":["R"],"wikidata":"Q5207374"},"geometry":{"type":"Point","coordinates":[121.5352793,25.0335619]}},{"type":"Feature","properties":{"station_id":"n3494960750","station_name":"Chiang Kai-Shek Memorial Hall","station_name_local":"中正紀念堂","network":"臺北捷運","network_local":"臺北捷運","operator":"臺北大眾捷運股份有限公司","city":"Taipei","country":"Taiwan","lines":["G","R"],"wikidata":"Q698013"},"geometry":{"type":"Point","coordinates":[121.5177618,25.0333942]}},{"type":"Feature","properties":{"station_id":"n3495094870","station_name":"Taipei main station","station_name_local":"台北車站","network":"Taipei Metro","network_local":"臺北捷運","operator":"臺北大眾捷運股份有限公司","city":"Taipei","country":"Taiwan","lines":["A","BL","R"],"wikidata":"Q700588","merged_from":2},"geometry":{"type":"Point","coordinates":[121.51590970000001,25.04747345]}},{"type":"Feature","properties":{"station_id":"n3495094871","station_name":"Zhongshan","station_name_local":"中山","network":"Taipei Metro","network_local":"臺北捷運","operator":"臺北大眾捷運股份有限公司","city":"Taipei","country":"Taiwan","lines":["G","R"],"wikidata":"Q698643"},"geometry":{"type":"Point","coordinates":[121.5203914,25.0526256]}},{"type":"Feature","properties":{"station_id":"n3495094872","station_name":"Shuanglian","station_name_local":"雙連","network":"Taipei Metro","network_local":"臺北捷運","operator":"臺北大眾捷運股份有限公司","city":"Taipei","country":"Taiwan","lines":["R"],"wikidata":"Q698805"},"geometry":{"type":"Point","coordinates":[121.5206986,25.057632]}},{"type":"Feature","properties":{"station_id":"n3495094873","station_name":"Minquan W. Rd.","station_name_local":"民權西路","network":"臺北捷運","network_local":"臺北捷運","operator":"臺北大眾捷運股份有限公司","city":"Taipei","country":"Taiwan","lines":["O","R"],"wikidata":"Q698609"},"geometry":{"type":"Point","coordinates":[121.519403,25.0628506]}},{"type":"Feature","properties":{"station_id":"n3495094874","station_name":"Yuanshan","station_name_local":"圓山","network":"臺北捷運","network_local":"臺北捷運","operator":"臺北大眾捷運股份有限公司","city":"Taipei","country":"Taiwan","lines":["R"],"wikidata":"Q698623"},"geometry":{"type":"Point","coordinates":[121.5201361,25.0714175]}},{"type":"Feature","properties":{"station_id":"n3495094875","station_name":"Jiantan","station_name_local":"劍潭","network":"臺北捷運","network_local":"臺北捷運","operator":"臺北大眾捷運股份有限公司","city":"Taipei","country":"Taiwan","lines":["R"],"wikidata":"Q698433"},"geometry":{"type":"Point","coordinates":[121.5249806,25.0842913]}},{"type":"Feature","properties":{"station_id":"n3495094876","station_name":"Shilin","station_name_local":"士林","network":"臺北捷運","network_local":"臺北捷運","operator":"臺北大眾捷運股份有限公司","city":"Taipei","country":"Taiwan","lines":["R"],"wikidata":"Q698614"},"geometry":{"type":"Point","coordinates":[121.5262468,25.0934949]}},{"type":"Feature","properties":{"station_id":"n3495094877","station_name":"Zhishan","station_name_local":"芝山","network":"臺北捷運","network_local":"臺北捷運","operator":"臺北大眾捷運股份有限公司","city":"Taipei","country":"Taiwan","lines":["R"],"wikidata":"Q698405"},"geometry":{"type":"Point","coordinates":[121.5225195,25.1030034]}},{"type":"Feature","properties":{"station_id":"n3495094878","station_name":"Mingde","station_name_local":"明德","network":"臺北捷運","network_local":"臺北捷運","operator":"臺北大眾捷運股份有限公司","city":"Taipei","country":"Taiwan","lines":["R"],"wikidata":"Q698438"},"geometry":{"type":"Point","coordinates":[121.5187693,25.1098593]}},{"type":"Feature","properties":{"station_id":"n3495094879","station_name":"Shipai","station_name_local":"石牌","network":"臺北捷運","network_local":"臺北捷運","operator":"臺北大眾捷運股份有限公司","city":"Taipei","country":"Taiwan","lines":["R"],"wikidata":"Q698460"},"geometry":{"type":"Point","coordinates":[121.5155232,25.1146071]}},{"type":"Feature","properties":{"station_id":"n3495094880","station_name":"Qilian","station_name_local":"唭哩岸","network":"臺北捷運","network_local":"臺北捷運","operator":"臺北大眾捷運股份有限公司","city":"Taipei","country":"Taiwan","lines":["R"],"wikidata":"Q698794"},"geometry":{"type":"Point","coordinates":[121.5061304,25.1209048]}},{"type":"Feature","properties":{"station_id":"n3495094881","station_name":"Qiyan","station_name_local":"奇岩","network":"臺北捷運","network_local":"臺北捷運","operator":"臺北大眾捷運股份有限公司","city":"Taipei","country":"Taiwan","lines":["R"],"wikidata":"Q698680"},"geometry":{"type":"Point","coordinates":[121.5011369,25.1256031]}},{"type":"Feature","properties":{"station_id":"n3495094882","station_name":"Beitou","station_name_local":"北投","network":"臺北捷運","network_local":"臺北捷運","operator":"臺北大眾捷運股份有限公司","city":"Taipei","country":"Taiwan","lines":["R","捷運紅線 (新北投支線)"],"wikidata":"Q698432"},"geometry":{"type":"Point","coordinates":[121.4985934,25.1319307]}},{"type":"Feature","properties":{"station_id":"n3495094883","station_name":"Fuxinggang","station_name_local":"復興崗","network":"臺北捷運","network_local":"臺北捷運","operator":"臺北大眾捷運股份有限公司","city":"Taipei","country":"Taiwan","lines":["R"],"wikidata":"Q698428"},"geometry":{"type":"Point","coordinates":[121.4854979,25.1374895]}},{"type":"Feature","properties":{"station_id":"n3495094884","station_name":"Zhongyi","station_name_local":"忠義","network":"臺北捷運","network_local":"臺北捷運","operator":"臺北大眾捷運股份有限公司","city":"Taipei","country":"Taiwan","lines":["R"],"wikidata":"Q698655"},"geometry":{"type":"Point","coordinates":[121.473374,25.1309506]}},{"type":"Feature","properties":{"station_id":"n3495094885","station_name":"Guandu","station_name_local":"關渡","network":"臺北捷運","network_local":"臺北捷運","operator":"臺北大眾捷運股份有限公司","city":"Taipei","country":"Taiwan","lines":["R"],"wikidata":"Q698594"},"geometry":{"type":"Point","coordinates":[121.4671419,25.1257006]}},{"type":"Feature","properties":{"station_id":"n3495094886","station_name":"Zhuwei","station_name_local":"竹圍","network":"臺北捷運","network_local":"臺北捷運","operator":"臺北大眾捷運股份有限公司","city":"Taipei","country":"Taiwan","lines":["R"],"wikidata":"Q698441"},"geometry":{"type":"Point","coordinates":[121.4595099,25.1369727]}},{"type":"Feature","properties":{"station_id":"n3495094887","station_name":"Hongshulin","station_name_local":"紅樹林","network":"臺北捷運","network_local":"臺北捷運","operator":"臺北大眾捷運股份有限公司","city":"Taipei","country":"Taiwan","lines":["R","V"],"wikidata":"Q698637","merged_from":2},"geometry":{"type":"Point","coordinates":[121.4588723,25.15492435]}},{"type":"Feature","properties":{"station_id":"n3495094888","station_name":"Tamsui","station_name_local":"淡水","network":"Taipei Metro","network_local":"臺北捷運","operator":"臺北大眾捷運股份有限公司","city":"Taipei","country":"Taiwan","lines":["R"],"wikidata":"Q698442"},"geometry":{"type":"Point","coordinates":[121.4455744,25.1677828]}},{"type":"Feature","properties":{"station_id":"n3497302603","station_name":"Liuzhangli","station_name_local":"六張犁","network":"臺北捷運","network_local":"臺北捷運","operator":"臺北大眾捷運股份有限公司","city":"Taipei","country":"Taiwan","lines":["BR"],"wikidata":"Q698812"},"geometry":{"type":"Point","coordinates":[121.5531211,25.0238183]}},{"type":"Feature","properties":{"station_id":"n3497302604","station_name":"Technology Building","station_name_local":"科技大樓","network":"臺北捷運","network_local":"臺北捷運","operator":"臺北大眾捷運股份有限公司","city":"Taipei","country":"Taiwan","lines":["BR"],"wikidata":"Q698396"},"geometry":{"type":"Point","coordinates":[121.5434596,25.0261012]}},{"type":"Feature","properties":{"station_id":"n3497302605","station_name":"Zhongxiao Fuxing","station_name_local":"忠孝復興","network":"臺北捷運","network_local":"臺北捷運","operator":"臺北大眾捷運股份有限公司","city":"Taipei","country":"Taiwan","lines":["BL"],"wikidata":"Q698042"},"geometry":{"type":"Point","coordinates":[121.5437706,25.0415409]}},{"type":"Feature","properties":{"station_id":"n3497302606","station_name":"Nanjing Fuxing","station_name_local":"南京復興","network":"臺北捷運","network_local":"臺北捷運","operator":"臺北大眾捷運股份有限公司","city":"Taipei","country":"Taiwan","lines":["BR","G"],"wikidata":"Q698347"},"geometry":{"type":"Point","coordinates":[121.5439651,25.051836]}},{"type":"Feature","properties":{"station_id":"n3497302607","station_name":"Zhongshan Junior High School","station_name_local":"中山國中","network":"臺北捷運","network_local":"臺北捷運","operator":"臺北大眾捷運股份有限公司","city":"Taipei","country":"Taiwan","lines":["BR"],"wikidata":"Q698100"},"geometry":{"type":"Point","coordinates":[121.5442019,25.0606868]}},{"type":"Feature","properties":{"station_id":"n3497302608","station_name":"Songshan Airport","station_name_local":"松山機場","network":"臺北捷運","network_local":"臺北捷運","operator":"臺北大眾捷運股份有限公司","city":"Taipei","country":"Taiwan","lines":["BR"],"wikidata":"Q699690"},"geometry":{"type":"Point","coordinates":[121.5516137,25.063086]}},{"type":"Feature","properties":{"station_id":"n3497302610","station_name":"Jiannan Road","station_name_local":"劍南路","network":"臺北捷運","network_local":"臺北捷運","operator":"臺北大眾捷運股份有限公司","city":"Taipei","country":"Taiwan","lines":["BR"],"wikidata":"Q699520"},"geometry":{"type":"Point","coordinates":[121.5556531,25.0848493]}},{"type":"Feature","properties":{"station_id":"n3501186374","station_name":"Gangqian","station_name_local":"港墘","network":"臺北捷運","network_local":"臺北捷運","operator":"臺北大眾捷運股份有限公司","city":"Taipei","country":"Taiwan","lines":["BR"],"wikidata":"Q699932"},"geometry":{"type":"Point","coordinates":[121.5752034,25.0800727]}},{"type":"Feature","properties":{"station_id":"n3501186375","station_name":"Wende","station_name_local":"文德","network":"臺北捷運","network_local":"臺北捷運","operator":"臺北大眾捷運股份有限公司","city":"Taipei","country":"Taiwan","lines":["BR"],"wikidata":"Q699296"},"geometry":{"type":"Point","coordinates":[121.5849416,25.0785562]}},{"type":"Feature","properties":{"station_id":"n3501186376","station_name":"Dahu Park","station_name_local":"大湖公園","network":"臺北捷運","network_local":"臺北捷運","operator":"臺北大眾捷運股份有限公司","city":"Taipei","country":"Taiwan","lines":["BR"],"wikidata":"Q699472"},"geometry":{"type":"Point","coordinates":[121.602341,25.0837613]}},{"type":"Feature","properties":{"station_id":"n3501186377","station_name":"Huzhou","station_name_local":"葫洲","network":"臺北捷運","network_local":"臺北捷運","operator":"臺北大眾捷運股份有限公司","city":"Taipei","country":"Taiwan","lines":["BR"],"wikidata":"Q699944"},"geometry":{"type":"Point","coordinates":[121.6073633,25.0726385]}},{"type":"Feature","properties":{"station_id":"n3501186378","station_name":"Donghu","station_name_local":"東湖","network":"臺北捷運","network_local":"臺北捷運","operator":"臺北大眾捷運股份有限公司","city":"Taipei","country":"Taiwan","lines":["BR"],"wikidata":"Q699938"},"geometry":{"type":"Point","coordinates":[121.6116099,25.0674198]}},{"type":"Feature","properties":{"station_id":"n3501186379","station_name":"Nangang Software Park","station_name_local":"南港軟體園區","network":"臺北捷運","network_local":"臺北捷運","operator":"臺北大眾捷運股份有限公司","city":"Taipei","country":"Taiwan","lines":["BR"],"wikidata":"Q115445"},"geometry":{"type":"Point","coordinates":[121.6158969,25.0599458]}},{"type":"Feature","properties":{"station_id":"n3502209233","station_name":"Xindian District Office","station_name_local":"新店區公所","network":"臺北捷運","network_local":"臺北捷運","operator":"臺北大眾捷運股份有限公司","city":"Taipei","country":"Taiwan","lines":["G"],"wikidata":"Q698649"},"geometry":{"type":"Point","coordinates":[121.5413511,24.9673862]}},{"type":"Feature","properties":{"station_id":"n3502209234","station_name":"Qizhang","station_name_local":"七張","network":"臺北捷運","network_local":"臺北捷運","operator":"臺北大眾捷運股份有限公司","city":"Taipei","country":"Taiwan","lines":["G"],"wikidata":"Q698665"},"geometry":{"type":"Point","coordinates":[121.5429203,24.9750221]}},{"type":"Feature","properties":{"station_id":"n3502209235","station_name":"Dapinglin","station_name_local":"大坪林","network":"臺北捷運","network_local":"臺北捷運","operator":"臺北大眾捷運股份有限公司","city":"Taipei","country":"Taiwan","lines":["G"],"wikidata":"Q698684"},"geometry":{"type":"Point","coordinates":[121.5413291,24.9829295]}},{"type":"Feature","properties":{"station_id":"n3512275767","station_name":"Taipei City Hall","station_name_local":"市政府","network":"臺北捷運","network_local":"臺北捷運","operator":"臺北大眾捷運股份有限公司","city":"Taipei","country":"Taiwan","lines":["BL"],"wikidata":"Q697995"},"geometry":{"type":"Point","coordinates":[121.5660998,25.0411283]}},{"type":"Feature","properties":{"station_id":"n3530915061","station_name":"Jingmei","station_name_local":"景美","network":"臺北捷運","network_local":"臺北捷運","operator":"臺北大眾捷運股份有限公司","city":"Taipei","country":"Taiwan","lines":["G"],"wikidata":"Q698670"},"geometry":{"type":"Point","coordinates":[121.5408198,24.992978]}},{"type":"Feature","properties":{"station_id":"n3530915062","station_name":"Wanlong","station_name_local":"萬隆","network":"Taipei Metro","network_local":"臺北捷運","operator":"臺北大眾捷運股份有限公司","city":"Taipei","country":"Taiwan","lines":["G"],"wikidata":"Q698450"},"geometry":{"type":"Point","coordinates":[121.5389958,25.001899]}},{"type":"Feature","properties":{"station_id":"n3530915063","station_name":"Gongguan","station_name_local":"公館","network":"臺北捷運","network_local":"臺北捷運","operator":"臺北大眾捷運股份有限公司","city":"Taipei","country":"Taiwan","lines":["G"],"wikidata":"Q708397"},"geometry":{"type":"Point","coordinates":[121.534264,25.0149166]}},{"type":"Feature","properties":{"station_id":"n3578751641","station_name":"Shandao Temple","station_name_local":"善導寺","network":"臺北捷運","network_local":"臺北捷運","operator":"臺北大眾捷運股份有限公司","city":"Taipei","country":"Taiwan","lines":["BL"],"wikidata":"Q698356"},"geometry":{"type":"Point","coordinates":[121.5234226,25.0447619]}},{"type":"Feature","properties":{"station_id":"n3639530940","station_name":"Far Eastern Hospital","station_name_local":"亞東醫院","network":"臺北捷運","network_local":"臺北捷運","operator":"臺北大眾捷運股份有限公司","city":"Taipei","country":"Taiwan","lines":["BL"],"wikidata":"Q699455"},"geometry":{"type":"Point","coordinates":[121.4523632,24.9975221]}},{"type":"Feature","properties":{"station_id":"n3639530941","station_name":"Nangang","station_name_local":"南港","network":"臺北捷運","network_local":"臺北捷運","operator":"臺北大眾捷運股份有限公司","city":"Taipei","country":"Taiwan","lines":["BL"],"wikidata":"Q698337"},"geometry":{"type":"Point","coordinates":[121.607192,25.0520905]}},{"type":"Feature","properties":{"station_id":"n3639530942","station_name":"Sun Yat-Sen Memorial Hall","station_name_local":"國父紀念館","network":"臺北捷運","network_local":"臺北捷運","operator":"臺北大眾捷運股份有限公司","city":"Taipei","country":"Taiwan","lines":["BL"],"wikidata":"Q698382"},"geometry":{"type":"Point","coordinates":[121.5573918,25.0413418]}},{"type":"Feature","properties":{"station_id":"n3639530943","station_name":"Fuzhong","station_name_local":"府中","network":"Taipei Metro","network_local":"臺北捷運","operator":"臺北大眾捷運股份有限公司","city":"Taipei","country":"Taiwan","lines":["BL"],"wikidata":"Q699469"},"geometry":{"type":"Point","coordinates":[121.4592803,25.0087697]}},{"type":"Feature","properties":{"station_id":"n3639530944","station_name":"Houshanpi","station_name_local":"後山埤","network":"臺北捷運","network_local":"臺北捷運","operator":"臺北大眾捷運股份有限公司","city":"Taipei","country":"Taiwan","lines":["BL"],"wikidata":"Q698675"},"geometry":{"type":"Point","coordinates":[121.5823224,25.0447413]}},{"type":"Feature","properties":{"station_id":"n3639530945","station_name":"Zhongxiao Dunhua","station_name_local":"忠孝敦化","network":"臺北捷運","network_local":"臺北捷運","operator":"臺北大眾捷運股份有限公司","city":"Taipei","country":"Taiwan","lines":["BL"],"wikidata":"Q698589"},"geometry":{"type":"Point","coordinates":[121.549479,25.0415086]}},{"type":"Feature","properties":{"station_id":"n3639530946","station_name":"Xinpu","station_name_local":"新埔","network":"Taipei Metro","network_local":"臺北捷運","operator":"臺北大眾捷運股份有限公司","city":"Taipei","country":"Taiwan","lines":["BL"],"wikidata":"Q698222"},"geometry":{"type":"Point","coordinates":[121.4683057,25.0234603]}},{"type":"Feature","properties":{"station_id":"n3639530947","station_name":"Kunyang","station_name_local":"昆陽","network":"臺北捷運","network_local":"臺北捷運","operator":"臺北大眾捷運股份有限公司","city":"Taipei","country":"Taiwan","lines":["BL"],"wikidata":"Q698774"},"geometry":{"type":"Point","coordinates":[121.5933161,25.0504897]}},{"type":"Feature","properties":{"station_id":"n3639530949","station_name":"Yongchun","station_name_local":"永春","network":"臺北捷運","network_local":"臺北捷運","operator":"臺北大眾捷運股份有限公司","city":"Taipei","country":"Taiwan","lines":["BL"],"wikidata":"Q698799"},"geometry":{"type":"Point","coordinates":[121.5757045,25.0408761]}},{"type":"Feature","properties":{"station_id":"n3639530950","station_name":"Jiangzicui","station_name_local":"江子翠","network":"Taipei Metro","network_local":"臺北捷運","operator":"臺北大眾捷運股份有限公司","city":"Taipei","country":"Taiwan","lines":["BL"],"wikidata":"Q698763"},"geometry":{"type":"Point","coordinates":[121.4727783,25.0304238]}},{"type":"Feature","properties":{"station_id":"n3639530951","station_name":"Haishan","station_name_local":"海山","network":"臺北捷運","network_local":"臺北捷運","operator":"臺北大眾捷運股份有限公司","city":"Taipei","country":"Taiwan","lines":["BL"],"wikidata":"Q699223"},"geometry":{"type":"Point","coordinates":[121.4487858,24.9853177]}},{"type":"Feature","properties":{"station_id":"n3639530979","station_name":"Ximen","station_name_local":"西門","network":"臺北捷運","network_local":"臺北捷運","operator":"臺北大眾捷運股份有限公司","city":"Taipei","country":"Taiwan","lines":["BL","G"],"wikidata":"Q698004"},"geometry":{"type":"Point","coordinates":[121.5086081,25.0427128]}},{"type":"Feature","properties":{"station_id":"n3639530980","station_name":"Dingpu","station_name_local":"頂埔","network":"臺北捷運","network_local":"臺北捷運","operator":"臺北大眾捷運股份有限公司","city":"Taipei","country":"Taiwan","lines":["BL","LB"],"wikidata":"Q5278266","merged_from":2},"geometry":{"type":"Point","coordinates":[121.4194295,24.95965405]}},{"type":"Feature","properties":{"station_id":"n3639530981","station_name":"Longshan Temple","station_name_local":"龍山寺","network":"Taipei Metro","network_local":"臺北捷運","operator":"臺北大眾捷運股份有限公司","city":"Taipei","country":"Taiwan","lines":["BL"],"wikidata":"Q698620"},"geometry":{"type":"Point","coordinates":[121.4995813,25.0352844]}},{"type":"Feature","properties":{"station_id":"n3779252951","station_name":"Taipei Bridge","station_name_local":"台北橋","network":"Taipei Metro","network_local":"臺北捷運","operator":"臺北大眾捷運股份有限公司","city":"Taipei","country":"Taiwan","lines":["O"],"wikidata":"Q6119508"},"geometry":{"type":"Point","coordinates":[121.5005513,25.0631779]}},{"type":"Feature","properties":{"station_id":"n3800658231","station_name":"Xiaobitan","station_name_local":"小碧潭","network":"臺北捷運","network_local":"臺北捷運","operator":"臺北大眾捷運股份有限公司","city":"Taipei","country":"Taiwan","lines":["G"],"wikidata":"Q698569"},"geometry":{"type":"Point","coordinates":[121.5305995,24.9717696]}},{"type":"Feature","properties":{"station_id":"n3800717745","station_name":"Yongan Market","station_name_local":"永安市場","network":"臺北捷運","network_local":"臺北捷運","operator":"臺北大眾捷運股份有限公司","city":"Taipei","country":"Taiwan","lines":["O"],"wikidata":"Q698841"},"geometry":{"type":"Point","coordinates":[121.5109003,25.0024105]}},{"type":"Feature","properties":{"station_id":"n3812564387","station_name":"Sanhe Junior High School","station_name_local":"三和國中","network":"Taipei Metro","network_local":"臺北捷運","operator":"臺北大眾捷運股份有限公司","city":"Taipei","country":"Taiwan","lines":["O"],"wikidata":"Q6119212"},"geometry":{"type":"Point","coordinates":[121.4863784,25.076814]}},{"type":"Feature","properties":{"station_id":"n3812564388","station_name":"Sanmin Senior High School","station_name_local":"三民高中","network":"臺北捷運","network_local":"臺北捷運","operator":"臺北大眾捷運股份有限公司","city":"Taipei","country":"Taiwan","lines":["O"],"wikidata":"Q699678"},"geometry":{"type":"Point","coordinates":[121.4732993,25.0855048]}},{"type":"Feature","properties":{"station_id":"n3812564389","station_name":"Sanchong","station_name_local":"三重","network":"Taipei Metro","network_local":"臺北捷運","operator":"臺北大眾捷運股份有限公司","city":"Taipei","country":"Taiwan","lines":["A","O"],"wikidata":"Q5931423","merged_from":2},"geometry":{"type":"Point","coordinates":[121.4840949,25.055320899999998]}},{"type":"Feature","properties":{"station_id":"n3812564390","station_name":"Sanchong Elementary School","station_name_local":"三重國小","network":"Taipei Metro","network_local":"臺北捷運","operator":"臺北大眾捷運股份有限公司","city":"Taipei","country":"Taiwan","lines":["O"],"wikidata":"Q699700"},"geometry":{"type":"Point","coordinates":[121.4973001,25.0700034]}},{"type":"Feature","properties":{"station_id":"n3812564391","station_name":"Zhongshan Elementary School","station_name_local":"中山國小","network":"臺北捷運","network_local":"臺北捷運","operator":"臺北大眾捷運股份有限公司","city":"Taipei","country":"Taiwan","lines":["O"],"wikidata":"Q5933196"},"geometry":{"type":"Point","coordinates":[121.5265984,25.062674]}},{"type":"Feature","properties":{"station_id":"n3812564392","station_name":"Danfeng","station_name_local":"丹鳳","network":"臺北捷運","network_local":"臺北捷運","operator":"臺北大眾捷運股份有限公司","city":"Taipei","country":"Taiwan","lines":["O"],"wikidata":"Q5215920"},"geometry":{"type":"Point","coordinates":[121.4226568,25.0289264]}},{"type":"Feature","properties":{"station_id":"n3812564393","station_name":"Xianse Temple","station_name_local":"先嗇宮","network":"臺北捷運","network_local":"臺北捷運","operator":"臺北大眾捷運股份有限公司","city":"Taipei","country":"Taiwan","lines":["O"],"wikidata":"Q6119064"},"geometry":{"type":"Point","coordinates":[121.4716805,25.0464284]}},{"type":"Feature","properties":{"station_id":"n3812564394","station_name":"Nanjing Sanmin","station_name_local":"南京三民","network":"臺北捷運","network_local":"臺北捷運","operator":"臺北大眾捷運股份有限公司","city":"Taipei","country":"Taiwan","lines":["G"],"wikidata":"Q6963682"},"geometry":{"type":"Point","coordinates":[121.5643061,25.0514279]}},{"type":"Feature","properties":{"station_id":"n3812564395","station_name":"Nanshijiao","station_name_local":"南勢角","network":"臺北捷運","network_local":"臺北捷運","operator":"臺北大眾捷運股份有限公司","city":"Taipei","country":"Taiwan","lines":["O"],"wikidata":"Q698630"},"geometry":{"type":"Point","coordinates":[121.5088518,24.9900264]}},{"type":"Feature","properties":{"station_id":"n3812564396","station_name":"Guting","station_name_local":"古亭","network":"臺北捷運","network_local":"臺北捷運","operator":"臺北大眾捷運股份有限公司","city":"Taipei","country":"Taiwan","lines":["G","O"],"wikidata":"Q698599"},"geometry":{"type":"Point","coordinates":[121.5229533,25.0264102]}},{"type":"Feature","properties":{"station_id":"n3812564397","station_name":"Taipei Arena","station_name_local":"台北小巨蛋","network":"臺北捷運","network_local":"臺北捷運","operator":"臺北大眾捷運股份有限公司","city":"Taipei","country":"Taiwan","lines":["G"],"wikidata":"Q7676270"},"geometry":{"type":"Point","coordinates":[121.5514989,25.0516857]}},{"type":"Feature","properties":{"station_id":"n3812564398","station_name":"Daqiaotou","station_name_local":"大橋頭","network":"臺北捷運","network_local":"臺北捷運","operator":"臺北大眾捷運股份有限公司","city":"Taipei","country":"Taiwan","lines":["O"],"wikidata":"Q699528"},"geometry":{"type":"Point","coordinates":[121.5126944,25.063198]}},{"type":"Feature","properties":{"station_id":"n3812564399","station_name":"Xiaonanmen","station_name_local":"小南門","network":"臺北捷運","network_local":"臺北捷運","operator":"臺北大眾捷運股份有限公司","city":"Taipei","country":"Taiwan","lines":["G"],"wikidata":"Q698767"},"geometry":{"type":"Point","coordinates":[121.5108064,25.035901]}},{"type":"Feature","properties":{"station_id":"n3812564400","station_name":"St. Ignatius High School","station_name_local":"徐匯中學","network":"Taipei Metro","network_local":"臺北捷運","operator":"臺北大眾捷運股份有限公司","city":"Taipei","country":"Taiwan","lines":["O"],"wikidata":"Q5933691"},"geometry":{"type":"Point","coordinates":[121.4802265,25.0803359]}},{"type":"Feature","properties":{"station_id":"n3812564401","station_name":"Zhongxiao Xinsheng","station_name_local":"忠孝新生","network":"臺北捷運","network_local":"臺北捷運","operator":"臺北大眾捷運股份有限公司","city":"Taipei","country":"Taiwan","lines":["BL","O"],"wikidata":"Q698343"},"geometry":{"type":"Point","coordinates":[121.5328383,25.04229]}},{"type":"Feature","properties":{"station_id":"n3812564402","station_name":"Xinzhuang","station_name_local":"新莊","network":"臺北捷運","network_local":"臺北捷運","operator":"臺北大眾捷運股份有限公司","city":"Taipei","country":"Taiwan","lines":["O"],"wikidata":"Q5932107"},"geometry":{"type":"Point","coordinates":[121.4533591,25.0363332]}},{"type":"Feature","properties":{"station_id":"n3812564403","station_name":"Jingan","station_name_local":"景安","network":"臺北捷運","network_local":"臺北捷運","operator":"臺北大眾捷運股份有限公司","city":"Taipei","country":"Taiwan","lines":["O","Y"],"wikidata":"Q698216","merged_from":2},"geometry":{"type":"Point","coordinates":[121.5053784,24.993592749999998]}},{"type":"Feature","properties":{"station_id":"n3812564404","station_name":"Songshan","station_name_local":"松山","network":"臺北捷運","network_local":"臺北捷運","operator":"臺北大眾捷運股份有限公司","city":"Taipei","country":"Taiwan","lines":["G"],"wikidata":"Q131625278"},"geometry":{"type":"Point","coordinates":[121.5774743,25.0500706]}},{"type":"Feature","properties":{"station_id":"n3812564422","station_name":"Cailiao","station_name_local":"菜寮","network":"Taipei Metro","network_local":"臺北捷運","operator":"臺北大眾捷運股份有限公司","city":"Taipei","country":"Taiwan","lines":["O"],"wikidata":"Q5017543"},"geometry":{"type":"Point","coordinates":[121.4921055,25.0602676]}},{"type":"Feature","properties":{"station_id":"n3812564423","station_name":"Luzhou","station_name_local":"蘆洲","network":"臺北捷運","network_local":"臺北捷運","operator":"臺北大眾捷運股份有限公司","city":"Taipei","country":"Taiwan","lines":["O"],"wikidata":"Q699706"},"geometry":{"type":"Point","coordinates":[121.465104,25.091278]}},{"type":"Feature","properties":{"station_id":"n3812564424","station_name":"Fu Jen University","station_name_local":"輔大","network":"臺北捷運","network_local":"臺北捷運","operator":"臺北大眾捷運股份有限公司","city":"Taipei","country":"Taiwan","lines":["O"],"wikidata":"Q5506841"},"geometry":{"type":"Point","coordinates":[121.4352746,25.032722]}},{"type":"Feature","properties":{"station_id":"n3812564425","station_name":"Huilong","station_name_local":"迴龍","network":"臺北捷運","network_local":"臺北捷運","operator":"臺北大眾捷運股份有限公司","city":"Taipei","country":"Taiwan","lines":["O"],"wikidata":"Q5935068"},"geometry":{"type":"Point","coordinates":[121.4119025,25.0220786]}},{"type":"Feature","properties":{"station_id":"n3812564426","station_name":"Dingxi","station_name_local":"頂溪","network":"臺北捷運","network_local":"臺北捷運","operator":"臺北大眾捷運股份有限公司","city":"Taipei","country":"Taiwan","lines":["O"],"wikidata":"Q698455"},"geometry":{"type":"Point","coordinates":[121.515472,25.0136014]}},{"type":"Feature","properties":{"station_id":"n4450092074","station_name":"Shanbi","station_name_local":"山鼻","network":"桃園機場捷運","network_local":"桃園機場捷運","operator":"桃園大眾捷運股份有限公司","city":"Taipei","country":"Taiwan","lines":["A"],"wikidata":"Q11047860"},"geometry":{"type":"Point","coordinates":[121.2847775,25.0808055]}},{"type":"Feature","properties":{"station_id":"n4456093778","station_name":"Linkou","station_name_local":"林口","network":"Taoyuan Metro","network_local":"桃園捷運","operator":"桃園大眾捷運股份有限公司","city":"Taipei","country":"Taiwan","lines":["A"],"wikidata":"Q11105605"},"geometry":{"type":"Point","coordinates":[121.3614372,25.0657846]}},{"type":"Feature","properties":{"station_id":"n4653215487","station_name":"Laojie River","station_name_local":"老街溪","network":"桃園機場捷運","network_local":"桃園機場捷運","operator":"桃園大眾捷運股份有限公司","city":"Taipei","country":"Taiwan","lines":["A"],"wikidata":"Q11132684"},"geometry":{"type":"Point","coordinates":[121.2193715,24.9585814]}},{"type":"Feature","properties":{"station_id":"n4653215488","station_name":"Taishan","station_name_local":"泰山","network":"桃園機場捷運","network_local":"桃園機場捷運","operator":"桃園大眾捷運股份有限公司","city":"Taipei","country":"Taiwan","lines":["A"],"wikidata":"Q11145005"},"geometry":{"type":"Point","coordinates":[121.4395522,25.0532646]}},{"type":"Feature","properties":{"station_id":"n4653351589","station_name":"Dayuan","station_name_local":"大園","network":"桃園機場捷運","network_local":"桃園機場捷運","operator":"桃園大眾捷運股份有限公司","city":"Taipei","country":"Taiwan","lines":["A"],"wikidata":"Q10934358"},"geometry":{"type":"Point","coordinates":[121.2106496,25.0558139]}},{"type":"Feature","properties":{"station_id":"n4653351597","station_name":"Xinzhuang Fuduxin","station_name_local":"新莊副都心","network":"桃園機場捷運","network_local":"桃園機場捷運","operator":"桃園大眾捷運股份有限公司","city":"Taipei","country":"Taiwan","lines":["A"],"wikidata":"Q8044700"},"geometry":{"type":"Point","coordinates":[121.4457893,25.05921]}},{"type":"Feature","properties":{"station_id":"n4653351598","station_name":"Taishan Guihe","station_name_local":"泰山貴和","network":"桃園機場捷運","network_local":"桃園機場捷運","operator":"桃園大眾捷運股份有限公司","city":"Taipei","country":"Taiwan","lines":["A"],"wikidata":"Q11145037"},"geometry":{"type":"Point","coordinates":[121.4229634,25.0333454]}},{"type":"Feature","properties":{"station_id":"n4653351599","station_name":"Huanbei","station_name_local":"環北","network":"桃園機場捷運","network_local":"桃園機場捷運","operator":"桃園大眾捷運股份有限公司","city":"Taipei","country":"Taiwan","lines":["A"],"wikidata":"Q15914183"},"geometry":{"type":"Point","coordinates":[121.2208004,24.9671663]}},{"type":"Feature","properties":{"station_id":"n4653352235","station_name":"Airport Hotel","station_name_local":"機場旅館","network":"桃園機場捷運","network_local":"桃園機場捷運","operator":"桃園大眾捷運股份有限公司","city":"Taipei","country":"Taiwan","lines":["A"],"wikidata":"Q11122120"},"geometry":{"type":"Point","coordinates":[121.2206257,25.0691793]}},{"type":"Feature","properties":{"station_id":"n4653352237","station_name":"Airport Terminal 2","station_name_local":"機場第二航廈","network":"桃園機場捷運","network_local":"桃園機場捷運","operator":"桃園大眾捷運股份有限公司","city":"Taipei","country":"Taiwan","lines":["A"],"wikidata":"Q11122132"},"geometry":{"type":"Point","coordinates":[121.2322564,25.0772273]}},{"type":"Feature","properties":{"station_id":"n4653352238","station_name":"Airport Terminal 1","station_name_local":"機場第一航廈","network":"桃園機場捷運","network_local":"桃園機場捷運","operator":"桃園大眾捷運股份有限公司","city":"Taipei","country":"Taiwan","lines":["A"],"wikidata":"Q11122129"},"geometry":{"type":"Point","coordinates":[121.2383976,25.080498]}},{"type":"Feature","properties":{"station_id":"n4653352239","station_name":"Kengkou","station_name_local":"坑口","network":"桃園機場捷運","network_local":"桃園機場捷運","operator":"桃園大眾捷運股份有限公司","city":"Taipei","country":"Taiwan","lines":["A"],"wikidata":"Q10928605"},"geometry":{"type":"Point","coordinates":[121.2663561,25.0864909]}},{"type":"Feature","properties":{"station_id":"n4653352241","station_name":"Chang Gung Memorial Hospital","station_name_local":"長庚醫院","network":"桃園機場捷運","network_local":"桃園機場捷運","operator":"桃園大眾捷運股份有限公司","city":"Taipei","country":"Taiwan","lines":["A"],"wikidata":"Q15941714"},"geometry":{"type":"Point","coordinates":[121.3707965,25.0604744]}},{"type":"Feature","properties":{"station_id":"n4653352242","station_name":"National Taiwan Sport University","station_name_local":"體育大學","network":"桃園機場捷運","network_local":"桃園機場捷運","operator":"桃園大眾捷運股份有限公司","city":"Taipei","country":"Taiwan","lines":["A"],"wikidata":"Q15933073"},"geometry":{"type":"Point","coordinates":[121.3854083,25.0413317]}},{"type":"Feature","properties":{"station_id":"n4990733849","station_name":"Mazutian","station_name_local":"媽祖田","network":"Unknown","network_local":null,"operator":null,"city":"Taipei","country":"Taiwan","lines":["LB"],"wikidata":"Q97352281"},"geometry":{"type":"Point","coordinates":[121.412114,24.9534326]}},{"type":"Feature","properties":{"station_id":"n5444300911","station_name":"Qiaohe","station_name_local":"橋和","network":"新北捷運","network_local":"新北捷運","operator":"新北捷運公司","city":"Taipei","country":"Taiwan","lines":["Y"],"wikidata":"Q11121883"},"geometry":{"type":"Point","coordinates":[121.4902458,25.0046042]}},{"type":"Feature","properties":{"station_id":"n5444300912","station_name":"Zhonghe","station_name_local":"中和","network":"新北捷運","network_local":"新北捷運","operator":"新北捷運公司","city":"Taipei","country":"Taiwan","lines":["Y"],"wikidata":"Q15908518"},"geometry":{"type":"Point","coordinates":[121.4958503,25.0023167]}},{"type":"Feature","properties":{"station_id":"n6155745375","station_name":"Ganzhenlin","station_name_local":"竿蓁林","network":"新北捷運","network_local":"新北捷運","operator":"新北捷運公司","city":"Taipei","country":"Taiwan","lines":["V"],"wikidata":"Q40095032"},"geometry":{"type":"Point","coordinates":[121.456225,25.1621824]}},{"type":"Feature","properties":{"station_id":"n6155745376","station_name":"Danjin Denggong","station_name_local":"淡金鄧公","network":"新北捷運","network_local":"新北捷運","operator":"新北捷運公司","city":"Taipei","country":"Taiwan","lines":["V"],"wikidata":"Q59326196"},"geometry":{"type":"Point","coordinates":[121.4608263,25.1693035]}},{"type":"Feature","properties":{"station_id":"n8041597964","station_name":"Xinhe Elementary School","station_name_local":"新和國小","network":"新北捷運","network_local":"新北捷運","operator":"新北大眾捷運股份有限公司","city":"Taipei","country":"Taiwan","lines":["K"],"wikidata":"Q44889765"},"geometry":{"type":"Point","coordinates":[121.518589,24.9834417]}},{"type":"Feature","properties":{"station_id":"n8041597965","station_name":"Sunshine Sports Park","station_name_local":"陽光運動公園","network":"新北捷運","network_local":"新北捷運","operator":"新北大眾捷運股份有限公司","city":"Taipei","country":"Taiwan","lines":["K"],"wikidata":"Q44889775"},"geometry":{"type":"Point","coordinates":[121.5195115,24.9723085]}},{"type":"Feature","properties":{"station_id":"n9974435156","station_name":"Taipei 101/World Trade Center","station_name_local":"台北101/世貿","network":"臺北捷運","network_local":"臺北捷運","operator":"臺北大眾捷運股份有限公司","city":"Taipei","country":"Taiwan","lines":["R"],"wikidata":"Q7676267"},"geometry":{"type":"Point","coordinates":[121.5624453,25.0329794]}},{"type":"Feature","properties":{"station_id":"n11556627094","station_name":"大坪林","station_name_local":"大坪林","network":"新北捷運","network_local":"新北捷運","operator":"新北捷運公司","city":"Taipei","country":"Taiwan","lines":["Y"],"wikidata":null},"geometry":{"type":"Point","coordinates":[121.5416446,24.9828172]}},{"type":"Feature","properties":{"station_id":"n11951414763","station_name":"Terminal 1","station_name_local":"第一航廈","network":"Skytrain","network_local":"Skytrain","operator":null,"city":"Taipei","country":"Taiwan","lines":["A","Skytrain"],"wikidata":null,"merged_from":2},"geometry":{"type":"Point","coordinates":[121.23683925,25.0808983]}},{"type":"Feature","properties":{"station_id":"n11951446996","station_name":"Terminal 2","station_name_local":"第二航廈","network":"Skytrain","network_local":"Skytrain","operator":null,"city":"Taipei","country":"Taiwan","lines":["A","Skytrain"],"wikidata":null,"merged_from":2},"geometry":{"type":"Point","coordinates":[121.23258525,25.0775788]}}]}