{"type":"FeatureCollection","metro_system":{"continent":"asia","country":"Iran","city":"Karaj","osm_networks":["Tehran Urban and Suburban Railways Organization","Unknown","مترو کرج"],"operator":"سازمان قطار شهری کرج و حومه","official_website":null,"official_map":null,"wikidata":"Q116978502","line_count":1,"station_count":5,"audit":null},"features":[{"type":"Feature","properties":{"route_id":"rm15545706","route_name":"Line 2","route_name_local":"خط ۲","route_ref":"2","route_color":"#58e558","network":"مترو کرج","network_local":"مترو کرج","operator":"سازمان قطار شهری کرج و حومه","city":"Karaj","country":"Iran","wikidata":"Q116978502","wikipedia":null,"osm_route_ids":[5617782,15545705]},"geometry":{"type":"MultiLineString","coordinates":[[[50.9429933,35.8367939],[50.9685367,35.828859],[50.9883267,35.8221608],[51.0059834,35.7858826]]]}},{"type":"Feature","properties":{"station_id":"n5607263132","station_name":"Karaj","station_name_local":"ایستگاه مترو کرج","network":"Unknown","network_local":null,"operator":null,"city":"Karaj","country":"Iran","lines":["2"],"wikidata":"Q2372238"},"geometry":{"type":"Point","coordinates":[51.0025585,35.786678]}},{"type":"Feature","properties":{"station_id":"n10701601167","station_name":"Chehel-o-panj Metri Golshahr","station_name_local":"۴۵ متری گلشهر","network":"Unknown","network_local":null,"operator":null,"city":"Karaj","country":"Iran","lines":["2"],"wikidata":"Q116978439"},"geometry":{"type":"Point","coordinates":[50.9429933,35.8367939]}},{"type":"Feature","properties":{"station_id":"n10701601168","station_name":"Taleqani Crossroad","station_name_local":"چهارراه طالقانی","network":"Unknown","network_local":null,"operator":null,"city":"Karaj","country":"Iran","lines":["2"],"wikidata":"Q116978511"},"geometry":{"type":"Point","coordinates":[50.9883267,35.8221608]}},{"type":"Feature","properties":{"station_id":"n11528229167","station_name":"Rajaei Shahr","station_name_local":"رجایی‌شهر","network":"Unknown","network_local":null,"operator":null,"city":"Karaj","country":"Iran","lines":["2"],"wikidata":null},"geometry":{"type":"Point","coordinates":[50.9685367,35.828859]}},{"type":"Feature","properties":{"station_id":"n13127975089","station_name":"Shahid Soltani","station_name_local":"شهید سلطانی","network":"Unknown","network_local":null,"operator":null,"city":"Karaj","country":"Iran","lines":["2"],"wikidata":null},"geometry":{"type":"Point","coordinates":[51.0059834,35.7858826]}}]}