{"type":"FeatureCollection","metro_system":{"continent":"asia","country":"Iran","city":"Karaj","osm_networks":["Unknown","مترو کرج"],"operator":"سازمان قطار شهری کرج و حومه","official_website":null,"official_map":null,"wikidata":"Q116978502","line_count":1,"station_count":7},"features":[{"type":"Feature","properties":{"route_id":"rm15545706","route_name":"Line 2","route_name_local":"خط ۲","route_ref":"2","route_color":"#58e558","network":"مترو کرج","network_local":"مترو کرج","operator":"سازمان قطار شهری کرج و حومه","city":"Karaj","country":"Iran","wikidata":"Q116978502","wikipedia":null,"osm_route_ids":[5617782,15545705]},"geometry":{"type":"MultiLineString","coordinates":[[[50.8777201,35.8630738],[50.8913354,35.8573063],[50.915236,35.847175],[50.9245511,35.8433269],[50.9322094,35.8401911],[50.9429863,35.8367803],[50.9504114,35.8344461],[50.9594426,35.8316551],[50.9685285,35.8288414],[50.9780326,35.8257881],[50.9883193,35.8221476],[50.9911683,35.8022364],[51.001571,35.7975009],[51.0059619,35.7858753],[51.0060963,35.7789149],[51.0026767,35.7624144],[50.9987501,35.7527648],[50.9955533,35.739078],[50.9951602,35.7345162],[50.9935966,35.7187471]]]}},{"type":"Feature","properties":{"station_id":"n5602562105","station_name":"Golshahr","station_name_local":"ایستگاه مترو گلشهر","network":"Unknown","network_local":null,"operator":null,"city":"Karaj","country":"Iran","lines":null,"wikidata":"Q2373606"},"geometry":{"type":"Point","coordinates":[50.9329176,35.8249517]}},{"type":"Feature","properties":{"station_id":"n5607262986","station_name":"Mohammad Shahr","station_name_local":"ایستگاه مترو محمد شهر","network":"Unknown","network_local":null,"operator":null,"city":"Karaj","country":"Iran","lines":null,"wikidata":"Q2373729"},"geometry":{"type":"Point","coordinates":[50.9649204,35.8023357]}},{"type":"Feature","properties":{"station_id":"n10701601167","station_name":"Chehel-o-panj Metri Golshahr","station_name_local":"۴۵ متری گلشهر","network":"Unknown","network_local":null,"operator":null,"city":"Karaj","country":"Iran","lines":["2"],"wikidata":"Q116978439"},"geometry":{"type":"Point","coordinates":[50.9429933,35.8367939]}},{"type":"Feature","properties":{"station_id":"n10701601168","station_name":"Taleqani Crossroad","station_name_local":"چهارراه طالقانی","network":"Unknown","network_local":null,"operator":null,"city":"Karaj","country":"Iran","lines":["2"],"wikidata":"Q116978511"},"geometry":{"type":"Point","coordinates":[50.9883267,35.8221608]}},{"type":"Feature","properties":{"station_id":"n11528229167","station_name":"Rajaei Shahr","station_name_local":"رجایی‌شهر","network":"Unknown","network_local":null,"operator":null,"city":"Karaj","country":"Iran","lines":["2"],"wikidata":null},"geometry":{"type":"Point","coordinates":[50.9685367,35.828859]}},{"type":"Feature","properties":{"station_id":"n11737927451","station_name":"Shahid Fakhrizadeh","station_name_local":"ایستگاه مترو شهید فخری زاده","network":"Unknown","network_local":null,"operator":null,"city":"Karaj","country":"Iran","lines":null,"wikidata":"Q109548786"},"geometry":{"type":"Point","coordinates":[50.7911004,35.9175817]}},{"type":"Feature","properties":{"station_id":"n13127975089","station_name":"Shahid Soltani","station_name_local":"شهید سلطانی","network":"Unknown","network_local":null,"operator":null,"city":"Karaj","country":"Iran","lines":["2"],"wikidata":null},"geometry":{"type":"Point","coordinates":[51.0059834,35.7858826]}}]}