{"type":"FeatureCollection","metro_system":{"continent":"asia","country":"Japan","city":"Yokohama","osm_networks":["Odakyu;Tokyo Metro","Toei subway","Unknown","みなとみらい線","東京急行電鉄","東急電鉄","横浜シーサイドライン","横浜市交通局","横浜市営地下鉄","江ノ島電鉄","金沢シーサイドライン"],"operator":"横浜高速鉄道","official_website":null,"official_map":"https://en.wikipedia.org/wiki/Minatomirai_Line","wikidata":"Q852314","line_count":3,"station_count":41,"audit":null},"features":[{"type":"Feature","properties":{"route_id":"rm7703640","route_name":"Yokohama Minatomirai Line","route_name_local":"横浜高速鉄道みなとみらい21線","route_ref":"MM","route_color":"#c61094","network":"みなとみらい線","network_local":"みなとみらい線","operator":"横浜高速鉄道","city":"Yokohama","country":"Japan","wikidata":"Q852314","wikipedia":"en:Minatomirai Line","osm_route_ids":[1905260,7703632]},"geometry":{"type":"MultiLineString","coordinates":[[[139.6201667,35.4653773],[139.6238581,35.4584508],[139.6367037,35.44533]]]}},{"type":"Feature","properties":{"route_id":"rm7732280","route_name":"Blue Line","route_name_local":"横浜市営地下鉄ブルーライン","route_ref":"B","route_color":"#005ba5","network":"横浜市営地下鉄","network_local":"横浜市営地下鉄","operator":"横浜市交通局","city":"Yokohama","country":"Japan","wikidata":"Q841360","wikipedia":"ja:横浜市営地下鉄ブルーライン","osm_route_ids":[1905261,7732276]},"geometry":{"type":"MultiLineString","coordinates":[[[139.5536107,35.5680456],[139.5699517,35.5629066],[139.57844805,35.553359549999996],[139.57445345,35.5453498],[139.58954976666666,35.53532346666667],[139.6120343,35.5274961],[139.6128054,35.5192766],[139.6173113,35.5088883],[139.6168238,35.4961511],[139.6064834,35.4900761],[139.6056459,35.4764152],[139.6160911,35.4765085],[139.6201667,35.4653773],[139.6238581,35.4584508],[139.630787,35.4496272],[139.6367037,35.44533],[139.6327993,35.4410015],[139.6251489,35.4376268],[139.618715,35.4354327],[139.6099757,35.429909],[139.6020598,35.4232893],[139.5959771,35.4090326],[139.59108605,35.40118535],[139.5725338,35.4015158],[139.5594212,35.4025885],[139.5509416,35.4024586],[139.5350787,35.4011056],[139.5185313,35.4056591],[139.5113307,35.4111454],[139.5003004666667,35.414298333333335],[139.48324846666668,35.403467733333336],[139.4670779,35.3964453]]]}},{"type":"Feature","properties":{"route_id":"rm7732283","route_name":"Green Line","route_name_local":"横浜市営地下鉄グリーンライン","route_ref":"G","route_color":"#048d58","network":"横浜市営地下鉄","network_local":"横浜市営地下鉄","operator":"横浜市交通局","city":"Yokohama","country":"Japan","wikidata":"Q3116096","wikipedia":"en:Green Line","osm_route_ids":[3444217,7732275]},"geometry":{"type":"MultiLineString","coordinates":[[[139.5401893,35.5148049],[139.5491595,35.5284798],[139.5612977,35.5365525],[139.57445345,35.5453498],[139.57844805,35.553359549999996],[139.5927407,35.5609685],[139.6046897,35.554173],[139.6200521,35.5496776],[139.6336227,35.5500655],[139.6464819,35.5534441]]]}},{"type":"Feature","properties":{"station_id":"n355845276","station_name":"Kaminagaya","station_name_local":"上永谷","network":"横浜市交通局","network_local":null,"operator":"横浜市交通局","city":"Yokohama","country":"Japan","lines":["B"],"wikidata":"Q841420"},"geometry":{"type":"Point","coordinates":[139.5725338,35.4015158]}},{"type":"Feature","properties":{"station_id":"n355845350","station_name":"Konan-chuo","station_name_local":"港南中央","network":"横浜市交通局","network_local":null,"operator":"横浜市交通局","city":"Yokohama","country":"Japan","lines":["B"],"wikidata":"Q573434","merged_from":2},"geometry":{"type":"Point","coordinates":[139.59108605,35.40118535]}},{"type":"Feature","properties":{"station_id":"n355845461","station_name":"Tateba","station_name_local":"立場","network":"横浜市交通局","network_local":null,"operator":"横浜市交通局","city":"Yokohama","country":"Japan","lines":["B"],"wikidata":"Q573441","merged_from":3},"geometry":{"type":"Point","coordinates":[139.5003004666667,35.414298333333335]}},{"type":"Feature","properties":{"station_id":"n355845510","station_name":"Shimoiida","station_name_local":"下飯田","network":"横浜市交通局","network_local":null,"operator":"横浜市交通局","city":"Yokohama","country":"Japan","lines":["B"],"wikidata":null,"merged_from":3},"geometry":{"type":"Point","coordinates":[139.48324846666668,35.403467733333336]}},{"type":"Feature","properties":{"station_id":"n355847363","station_name":"Nakamachidai","station_name_local":"仲町台","network":"横浜市営地下鉄","network_local":"横浜市営地下鉄","operator":"横浜市交通局","city":"Yokohama","country":"Japan","lines":["B"],"wikidata":null,"merged_from":3},"geometry":{"type":"Point","coordinates":[139.58954976666666,35.53532346666667]}},{"type":"Feature","properties":{"station_id":"n2468944535","station_name":"Center Kita","station_name_local":"センター北","network":"横浜市営地下鉄","network_local":"横浜市営地下鉄","operator":"横浜市交通局","city":"Yokohama","country":"Japan","lines":["B","G"],"wikidata":"Q847363","merged_from":2},"geometry":{"type":"Point","coordinates":[139.57844805,35.553359549999996]}},{"type":"Feature","properties":{"station_id":"n5227138562","station_name":"Center Minami","station_name_local":"センター南","network":"横浜市営地下鉄","network_local":"横浜市営地下鉄","operator":"横浜市交通局","city":"Yokohama","country":"Japan","lines":["B","G"],"wikidata":"Q844629","merged_from":2},"geometry":{"type":"Point","coordinates":[139.57445345,35.5453498]}},{"type":"Feature","properties":{"station_id":"n5591788441","station_name":"Kamiooka","station_name_local":"上大岡","network":"横浜市営地下鉄","network_local":"横浜市営地下鉄","operator":"横浜市交通局","city":"Yokohama","country":"Japan","lines":["B"],"wikidata":"Q865627"},"geometry":{"type":"Point","coordinates":[139.5959771,35.4090326]}},{"type":"Feature","properties":{"station_id":"n5591788444","station_name":"Odoriba","station_name_local":"踊場","network":"横浜市交通局","network_local":null,"operator":"横浜市交通局","city":"Yokohama","country":"Japan","lines":["B"],"wikidata":"Q852877"},"geometry":{"type":"Point","coordinates":[139.5185313,35.4056591]}},{"type":"Feature","properties":{"station_id":"n5591788445","station_name":"Maioka","station_name_local":"舞岡","network":"横浜市交通局","network_local":null,"operator":"横浜市交通局","city":"Yokohama","country":"Japan","lines":["B"],"wikidata":"Q904116"},"geometry":{"type":"Point","coordinates":[139.5509416,35.4024586]}},{"type":"Feature","properties":{"station_id":"n5591788446","station_name":"Shimonagaya","station_name_local":"下永谷","network":"横浜市交通局","network_local":null,"operator":"横浜市交通局","city":"Yokohama","country":"Japan","lines":["B"],"wikidata":"Q579066"},"geometry":{"type":"Point","coordinates":[139.5594212,35.4025885]}},{"type":"Feature","properties":{"station_id":"n7749849503","station_name":"Azamino","station_name_local":"あざみ野","network":"横浜市営地下鉄","network_local":"横浜市営地下鉄","operator":"横浜市交通局","city":"Yokohama","country":"Japan","lines":["B"],"wikidata":"Q852232"},"geometry":{"type":"Point","coordinates":[139.5536107,35.5680456]}},{"type":"Feature","properties":{"station_id":"n7749857151","station_name":"Shonandai","station_name_local":"湘南台","network":"Unknown","network_local":null,"operator":null,"city":"Yokohama","country":"Japan","lines":["B"],"wikidata":"Q126091414"},"geometry":{"type":"Point","coordinates":[139.4670779,35.3964453]}},{"type":"Feature","properties":{"station_id":"n7749865377","station_name":"Totsuka","station_name_local":"戸塚","network":"横浜市交通局","network_local":null,"operator":"横浜市交通局","city":"Yokohama","country":"Japan","lines":["B"],"wikidata":"Q801522"},"geometry":{"type":"Point","coordinates":[139.5350787,35.4011056]}},{"type":"Feature","properties":{"station_id":"n7749865378","station_name":"Nakada","station_name_local":"中田","network":"横浜市交通局","network_local":null,"operator":"横浜市交通局","city":"Yokohama","country":"Japan","lines":["B"],"wikidata":"Q573641"},"geometry":{"type":"Point","coordinates":[139.5113307,35.4111454]}},{"type":"Feature","properties":{"station_id":"n7749869512","station_name":"Nakagawa","station_name_local":"中川","network":"横浜市営地下鉄","network_local":"横浜市営地下鉄","operator":"横浜市交通局","city":"Yokohama","country":"Japan","lines":["B"],"wikidata":"Q573443"},"geometry":{"type":"Point","coordinates":[139.5699517,35.5629066]}},{"type":"Feature","properties":{"station_id":"n7750187059","station_name":"Nippa","station_name_local":"新羽","network":"横浜市営地下鉄","network_local":"横浜市営地下鉄","operator":"横浜市交通局","city":"Yokohama","country":"Japan","lines":["B"],"wikidata":"Q841479"},"geometry":{"type":"Point","coordinates":[139.6120343,35.5274961]}},{"type":"Feature","properties":{"station_id":"n7750247043","station_name":"Maita","station_name_local":"蒔田","network":"横浜市営地下鉄","network_local":"横浜市営地下鉄","operator":"横浜市交通局","city":"Yokohama","country":"Japan","lines":["B"],"wikidata":"Q579091"},"geometry":{"type":"Point","coordinates":[139.6099757,35.429909]}},{"type":"Feature","properties":{"station_id":"n7750247044","station_name":"Gumyoji","station_name_local":"弘明寺","network":"横浜市営地下鉄","network_local":"横浜市営地下鉄","operator":"横浜市交通局","city":"Yokohama","country":"Japan","lines":["B"],"wikidata":"Q580349"},"geometry":{"type":"Point","coordinates":[139.6020598,35.4232893]}},{"type":"Feature","properties":{"station_id":"n7750247045","station_name":"Shin-yokohama","station_name_local":"新横浜","network":"横浜市営地下鉄","network_local":"横浜市営地下鉄","operator":"横浜市交通局","city":"Yokohama","country":"Japan","lines":["B"],"wikidata":"Q801437"},"geometry":{"type":"Point","coordinates":[139.6173113,35.5088883]}},{"type":"Feature","properties":{"station_id":"n7750247047","station_name":"Kita-shin-yokohama","station_name_local":"北新横浜","network":"横浜市営地下鉄","network_local":"横浜市営地下鉄","operator":"横浜市交通局","city":"Yokohama","country":"Japan","lines":["B"],"wikidata":"Q852295"},"geometry":{"type":"Point","coordinates":[139.6128054,35.5192766]}},{"type":"Feature","properties":{"station_id":"n7750338822","station_name":"Takashimacho","station_name_local":"高島町","network":"横浜市営地下鉄","network_local":"横浜市営地下鉄","operator":"横浜市交通局","city":"Yokohama","country":"Japan","lines":["B"],"wikidata":"Q850673"},"geometry":{"type":"Point","coordinates":[139.6238581,35.4584508]}},{"type":"Feature","properties":{"station_id":"n7750338823","station_name":"Sakuragicho","station_name_local":"桜木町","network":"横浜市営地下鉄","network_local":"横浜市営地下鉄","operator":"横浜市交通局","city":"Yokohama","country":"Japan","lines":["B"],"wikidata":"Q801396"},"geometry":{"type":"Point","coordinates":[139.630787,35.4496272]}},{"type":"Feature","properties":{"station_id":"n7750338824","station_name":"Kannai","station_name_local":"関内","network":"横浜市営地下鉄","network_local":"横浜市営地下鉄","operator":"横浜市交通局","city":"Yokohama","country":"Japan","lines":["B"],"wikidata":"Q800982"},"geometry":{"type":"Point","coordinates":[139.6367037,35.44533]}},{"type":"Feature","properties":{"station_id":"n7750338825","station_name":"Isezaki-chojamachi","station_name_local":"伊勢佐木長者町","network":"横浜市営地下鉄","network_local":"横浜市営地下鉄","operator":"横浜市交通局","city":"Yokohama","country":"Japan","lines":["B"],"wikidata":"Q841434"},"geometry":{"type":"Point","coordinates":[139.6327993,35.4410015]}},{"type":"Feature","properties":{"station_id":"n7750338826","station_name":"Bandobashi","station_name_local":"阪東橋","network":"横浜市営地下鉄","network_local":"横浜市営地下鉄","operator":"横浜市交通局","city":"Yokohama","country":"Japan","lines":["B"],"wikidata":"Q852854"},"geometry":{"type":"Point","coordinates":[139.6251489,35.4376268]}},{"type":"Feature","properties":{"station_id":"n7750342739","station_name":"Kishine-koen","station_name_local":"岸根公園","network":"横浜市交通局","network_local":null,"operator":"横浜市交通局","city":"Yokohama","country":"Japan","lines":["B"],"wikidata":"Q589898"},"geometry":{"type":"Point","coordinates":[139.6168238,35.4961511]}},{"type":"Feature","properties":{"station_id":"n7750342740","station_name":"Mitsuzawa-kamicho","station_name_local":"三ツ沢上町","network":"横浜市営地下鉄","network_local":"横浜市営地下鉄","operator":"横浜市交通局","city":"Yokohama","country":"Japan","lines":["B"],"wikidata":"Q903553"},"geometry":{"type":"Point","coordinates":[139.6056459,35.4764152]}},{"type":"Feature","properties":{"station_id":"n7750342741","station_name":"Katakuracho","station_name_local":"片倉町","network":"横浜市交通局","network_local":null,"operator":"横浜市交通局","city":"Yokohama","country":"Japan","lines":["B"],"wikidata":"Q589860"},"geometry":{"type":"Point","coordinates":[139.6064834,35.4900761]}},{"type":"Feature","properties":{"station_id":"n7750342742","station_name":"Mitsuzawa-shimocho","station_name_local":"三ツ沢下町","network":"横浜市営地下鉄","network_local":"横浜市営地下鉄","operator":"横浜市交通局","city":"Yokohama","country":"Japan","lines":["B"],"wikidata":"Q589920"},"geometry":{"type":"Point","coordinates":[139.6160911,35.4765085]}},{"type":"Feature","properties":{"station_id":"n7750342743","station_name":"Yokohama","station_name_local":"横浜","network":"横浜市交通局","network_local":null,"operator":"横浜市交通局","city":"Yokohama","country":"Japan","lines":["B"],"wikidata":"Q801658"},"geometry":{"type":"Point","coordinates":[139.6201667,35.4653773]}},{"type":"Feature","properties":{"station_id":"n7750348391","station_name":"Yoshinocho","station_name_local":"吉野町","network":"横浜市営地下鉄","network_local":"横浜市営地下鉄","operator":"横浜市交通局","city":"Yokohama","country":"Japan","lines":["B"],"wikidata":"Q579077"},"geometry":{"type":"Point","coordinates":[139.618715,35.4354327]}},{"type":"Feature","properties":{"station_id":"n7761779877","station_name":"Nishi-shinjuku-gochome","station_name_local":"西新宿五丁目","network":"Toei subway","network_local":"都営地下鉄","operator":"東京都交通局","city":"Yokohama","country":"Japan","lines":["E"],"wikidata":"Q275541"},"geometry":{"type":"Point","coordinates":[139.6845183,35.6898839]}},{"type":"Feature","properties":{"station_id":"n7771245984","station_name":"Nakayama","station_name_local":"中山","network":"横浜市営地下鉄","network_local":"横浜市営地下鉄","operator":"横浜市交通局","city":"Yokohama","country":"Japan","lines":["G"],"wikidata":"Q844670"},"geometry":{"type":"Point","coordinates":[139.5401893,35.5148049]}},{"type":"Feature","properties":{"station_id":"n7772733582","station_name":"Kawawacho","station_name_local":"川和町","network":"横浜市営地下鉄","network_local":"横浜市営地下鉄","operator":"横浜市交通局","city":"Yokohama","country":"Japan","lines":["G"],"wikidata":"Q6379900"},"geometry":{"type":"Point","coordinates":[139.5491595,35.5284798]}},{"type":"Feature","properties":{"station_id":"n7772737929","station_name":"Tsuzuki-fureainooka","station_name_local":"都筑ふれあいの丘","network":"横浜市営地下鉄","network_local":"横浜市営地下鉄","operator":"横浜市交通局","city":"Yokohama","country":"Japan","lines":["G"],"wikidata":"Q7850400"},"geometry":{"type":"Point","coordinates":[139.5612977,35.5365525]}},{"type":"Feature","properties":{"station_id":"n7772745205","station_name":"Hiyoshi","station_name_local":"日吉","network":"横浜市営地下鉄","network_local":"横浜市営地下鉄","operator":"横浜市交通局","city":"Yokohama","country":"Japan","lines":["G"],"wikidata":"Q390392"},"geometry":{"type":"Point","coordinates":[139.6464819,35.5534441]}},{"type":"Feature","properties":{"station_id":"n7772745206","station_name":"Hiyoshi-honcho","station_name_local":"日吉本町","network":"横浜市営地下鉄","network_local":"横浜市営地下鉄","operator":"横浜市交通局","city":"Yokohama","country":"Japan","lines":["G"],"wikidata":"Q5872965"},"geometry":{"type":"Point","coordinates":[139.6336227,35.5500655]}},{"type":"Feature","properties":{"station_id":"n7772745207","station_name":"Takata","station_name_local":"高田","network":"横浜市営地下鉄","network_local":"横浜市営地下鉄","operator":"横浜市交通局","city":"Yokohama","country":"Japan","lines":["G"],"wikidata":"Q7677418"},"geometry":{"type":"Point","coordinates":[139.6200521,35.5496776]}},{"type":"Feature","properties":{"station_id":"n7772745208","station_name":"Higashi-yamata","station_name_local":"東山田","network":"横浜市営地下鉄","network_local":"横浜市営地下鉄","operator":"横浜市交通局","city":"Yokohama","country":"Japan","lines":["G"],"wikidata":"Q11103294"},"geometry":{"type":"Point","coordinates":[139.6046897,35.554173]}},{"type":"Feature","properties":{"station_id":"n7772745209","station_name":"Kita-yamata","station_name_local":"北山田","network":"横浜市営地下鉄","network_local":"横浜市営地下鉄","operator":"横浜市交通局","city":"Yokohama","country":"Japan","lines":["G"],"wikidata":"Q6417619"},"geometry":{"type":"Point","coordinates":[139.5927407,35.5609685]}}]}