{"type":"FeatureCollection","metro_system":{"continent":"asia","country":"Japan","city":"Yokohama","osm_networks":["Odakyu;Tokyo Metro","Toei subway","Unknown","みなとみらい線","東京急行電鉄","東急電鉄","横浜シーサイドライン","横浜市交通局","横浜市営地下鉄","江ノ島電鉄","金沢シーサイドライン"],"operator":"横浜高速鉄道","official_website":null,"official_map":"https://en.wikipedia.org/wiki/Minatomirai_Line","wikidata":"Q852314","line_count":6,"station_count":68,"audit":{"strategies_tried":[],"passed":true,"checks":[{"id":"system_exists","ok":true,"detail":"matched OSM system systems/asia/japan/asia-japan-yokohama.geojson","level":"error"},{"id":"has_lines","ok":true,"detail":"6 lines","level":"error"},{"id":"has_stations","ok":true,"detail":"68 stations","level":"error"},{"id":"station_ratio_high","ok":false,"detail":"站數偏多：OSM 68 vs Wikipedia 40（比值 1.70），多營運商合併或含輕軌，需人工判定","level":"warn"},{"id":"stations_have_lines","ok":true,"detail":"68/68 站皆有所屬路線","level":"error"},{"id":"stations_named","ok":true,"detail":"67/68 站有名稱","level":"warn"},{"id":"station_order","ok":false,"detail":"1 條線站序可疑（路徑長 > 1.6× MST）：Tokyo Metro - Odawara Express Line (northbound) 1.79×，需以 Wikipedia 線路條目與 urbanrail.net 人工確認","level":"warn"}],"reasons":[],"warnings":["站數偏多：OSM 68 vs Wikipedia 40（比值 1.70），多營運商合併或含輕軌，需人工判定","1 條線站序可疑（路徑長 > 1.6× MST）：Tokyo Metro - Odawara Express Line (northbound) 1.79×，需以 Wikipedia 線路條目與 urbanrail.net 人工確認"],"audited_at":"2026-07-10T08:36:04.320Z"}},"features":[{"type":"Feature","properties":{"route_id":"rm7703640","route_name":"Yokohama Minatomirai Line","route_name_local":"横浜高速鉄道みなとみらい21線","route_ref":"MM","route_color":"#c61094","network":"みなとみらい線","network_local":"みなとみらい線","operator":"横浜高速鉄道","city":"Yokohama","country":"Japan","wikidata":"Q852314","wikipedia":"en:Minatomirai Line","osm_route_ids":[1905260,7703632]},"geometry":{"type":"MultiLineString","coordinates":[[[139.6221488,35.4662537],[139.6266415,35.4619651],[139.6329716,35.4572917],[139.6363155,35.4501707],[139.6426981,35.44675],[139.6509328,35.4421296]]]}},{"type":"Feature","properties":{"route_id":"rm7732280","route_name":"Blue Line","route_name_local":"横浜市営地下鉄ブルーライン","route_ref":"B","route_color":"#005ba5","network":"横浜市営地下鉄","network_local":"横浜市営地下鉄","operator":"横浜市交通局","city":"Yokohama","country":"Japan","wikidata":"Q841360","wikipedia":"ja:横浜市営地下鉄ブルーライン","osm_route_ids":[1905261,7732276]},"geometry":{"type":"MultiLineString","coordinates":[[[139.5535482,35.5680751],[139.5699281,35.5629483],[139.5783316,35.5533847],[139.5743385,35.5453882],[139.5895284,35.5353413],[139.6121053,35.5275119],[139.6128637,35.5192869],[139.6173515,35.508929],[139.6168375,35.4960983],[139.6065331,35.4900874],[139.6056807,35.4764393],[139.6161354,35.4765327],[139.6201866,35.465419],[139.623871,35.4584811],[139.6308191,35.4496666],[139.6367414,35.4453811],[139.6327731,35.4409636],[139.6251269,35.4375838],[139.6186866,35.435398],[139.6099814,35.4298826],[139.602077,35.4232579],[139.5959911,35.4090238],[139.5910335,35.4011313],[139.5724681,35.4014738],[139.5592027,35.4025836],[139.5512998,35.4025442],[139.53501,35.4010353],[139.5184774,35.405648],[139.5112091,35.4111598],[139.5003658,35.4142601],[139.4832803,35.403448],[139.4670523,35.3964229]]]}},{"type":"Feature","properties":{"route_id":"rm7732283","route_name":"Green Line","route_name_local":"横浜市営地下鉄グリーンライン","route_ref":"G","route_color":"#048d58","network":"横浜市営地下鉄","network_local":"横浜市営地下鉄","operator":"横浜市交通局","city":"Yokohama","country":"Japan","wikidata":"Q3116096","wikipedia":"en:Green Line","osm_route_ids":[3444217,7732275]},"geometry":{"type":"MultiLineString","coordinates":[[[139.5403309,35.5151327],[139.5491193,35.5285123],[139.5612787,35.536602],[139.5746291,35.5454251],[139.5785777,35.5533318],[139.5927579,35.5610316],[139.6046536,35.5542275],[139.6200379,35.5496732],[139.6333569,35.5499858],[139.6465004,35.5534871]]]}},{"type":"Feature","properties":{"route_id":"rm1994316","route_name":"Kanazawa Seaside Line","route_name_local":"横浜シーサイドライン金沢シーサイドライン","route_ref":"SL","route_color":"#004ea2","network":"金沢シーサイドライン","network_local":"金沢シーサイドライン","operator":"横浜シーサイドライン","city":"Yokohama","country":"Japan","wikidata":"Q6360898","wikipedia":"ja:横浜シーサイドライン金沢シーサイドライン","osm_route_ids":[5503502,5503503]},"geometry":{"type":"MultiLineString","coordinates":[[[139.6208882,35.3316199],[139.6314927,35.3305854],[139.6319951,35.3371515],[139.6358889,35.3421599],[139.6408757,35.3408546],[139.6501065,35.3439484],[139.6484831,35.3496559],[139.6463141,35.3533862],[139.6436926,35.3583444],[139.6428371,35.3654329],[139.6426532,35.3718726],[139.64173,35.3770512],[139.6332138,35.3801443],[139.620728,35.3856433]]]}},{"type":"Feature","properties":{"route_id":"r10036863","route_name":"Tokyo Metro - Odawara Express Line (northbound)","route_name_local":"小田急電鉄 千代田線直通列車","route_ref":"OH","route_color":"#939598","network":"Odakyu;Tokyo Metro","network_local":"小田急電鉄;東京メトロ","operator":"小田急電鉄;東京地下鉄","city":"Yokohama","country":"Japan","wikidata":"Q1063832","wikipedia":"ja:小田急多摩線","osm_route_ids":[10036863]},"geometry":{"type":"MultiLineString","coordinates":[[[139.6798035,35.6689896],[139.6725505,35.6650882],[139.6668377,35.6611218],[139.661541,35.6582731],[139.6541526,35.6561279],[139.6468687,35.6534875],[139.636733,35.6511595],[139.6238415,35.6473459],[139.6097732,35.6432283],[139.5984862,35.6398513],[139.569561,35.6208368],[139.5645639,35.6171843],[139.5419345,35.6149707],[139.5278851,35.6147588],[139.5160808,35.6090125],[139.5077531,35.6038037],[139.4975991,35.5896069],[139.4816069,35.5830873],[139.4635446,35.5636418],[139.4451441,35.5440372],[139.4229589,35.5155168],[139.4085411,35.4993145],[139.3999416,35.4807787],[139.3909619,35.4527501],[139.3777219,35.4430268],[139.3642905,35.439311],[139.343943,35.4176073],[139.313511,35.3959742],[139.5868959,35.6364805],[139.5737898,35.627485]]]}},{"type":"Feature","properties":{"route_id":"rm9499957","route_name":"Enoshima Electric Railway","route_name_local":"江ノ島電鉄","route_ref":"EN","route_color":"darkgreen","network":"江ノ島電鉄","network_local":"江ノ島電鉄","operator":"江ノ島電鉄株式会社","city":"Yokohama","country":"Japan","wikidata":"Q250760","wikipedia":"ja:江ノ島電鉄","osm_route_ids":[1943301,9499956]},"geometry":{"type":"MultiLineString","coordinates":[[[139.5501448,35.3182913],[139.5454869,35.3137453],[139.541414,35.3128167],[139.536049,35.3112368],[139.5287947,35.3093646],[139.5221846,35.3042536],[139.5101242,35.3062604],[139.5007137,35.3066899],[139.493193,35.3083598],[139.4875308,35.3110329],[139.4834983,35.315043],[139.4824748,35.3211634],[139.4852053,35.3275316],[139.4855708,35.3324065],[139.4872276,35.3371845]]]}},{"type":"Feature","properties":{"station_id":"n329309075","station_name":"n329309075","station_name_local":null,"network":"Unknown","network_local":null,"operator":null,"city":"Yokohama","country":"Japan","lines":["SL"],"wikidata":null},"geometry":{"type":"Point","coordinates":[139.650155,35.3439488]}},{"type":"Feature","properties":{"station_id":"n280728684","station_name":"Uminokoen-Shibaguchi","station_name_local":"海の公園柴口","network":"Unknown","network_local":null,"operator":null,"city":"Yokohama","country":"Japan","lines":["SL"],"wikidata":"Q7881582"},"geometry":{"type":"Point","coordinates":[139.6359064,35.3421054]}},{"type":"Feature","properties":{"station_id":"n280728809","station_name":"Hakkeijima","station_name_local":"八景島","network":"Unknown","network_local":null,"operator":null,"city":"Yokohama","country":"Japan","lines":["SL"],"wikidata":"Q5640543"},"geometry":{"type":"Point","coordinates":[139.640836,35.3408226]}},{"type":"Feature","properties":{"station_id":"n280728896","station_name":"Uminokoen-Minamiguchi","station_name_local":"海の公園南口","network":"Unknown","network_local":null,"operator":null,"city":"Yokohama","country":"Japan","lines":["SL"],"wikidata":"Q7881587"},"geometry":{"type":"Point","coordinates":[139.6320353,35.3371661]}},{"type":"Feature","properties":{"station_id":"n280728933","station_name":"Sachiura","station_name_local":"幸浦","network":"Unknown","network_local":null,"operator":null,"city":"Yokohama","country":"Japan","lines":["SL"],"wikidata":"Q7396765"},"geometry":{"type":"Point","coordinates":[139.6437391,35.3583376]}},{"type":"Feature","properties":{"station_id":"n280728953","station_name":"Fukuura","station_name_local":"福浦","network":"Unknown","network_local":null,"operator":null,"city":"Yokohama","country":"Japan","lines":["SL"],"wikidata":"Q5507751"},"geometry":{"type":"Point","coordinates":[139.6485436,35.3496489]}},{"type":"Feature","properties":{"station_id":"n280728980","station_name":"Sangyoshinko Center","station_name_local":"産業振興センター","network":"Unknown","network_local":null,"operator":null,"city":"Yokohama","country":"Japan","lines":["SL"],"wikidata":"Q7418197"},"geometry":{"type":"Point","coordinates":[139.646291,35.3534255]}},{"type":"Feature","properties":{"station_id":"n355845276","station_name":"Kaminagaya","station_name_local":"上永谷","network":"横浜市交通局","network_local":null,"operator":"横浜市交通局","city":"Yokohama","country":"Japan","lines":["B"],"wikidata":"Q841420"},"geometry":{"type":"Point","coordinates":[139.5725338,35.4015158]}},{"type":"Feature","properties":{"station_id":"n355845350","station_name":"Konan-chuo","station_name_local":"港南中央","network":"横浜市交通局","network_local":null,"operator":"横浜市交通局","city":"Yokohama","country":"Japan","lines":["B"],"wikidata":"Q573434","merged_from":2},"geometry":{"type":"Point","coordinates":[139.59108605,35.40118535]}},{"type":"Feature","properties":{"station_id":"n355845461","station_name":"Tateba","station_name_local":"立場","network":"横浜市交通局","network_local":null,"operator":"横浜市交通局","city":"Yokohama","country":"Japan","lines":["B"],"wikidata":"Q573441","merged_from":3},"geometry":{"type":"Point","coordinates":[139.5003004666667,35.414298333333335]}},{"type":"Feature","properties":{"station_id":"n355845510","station_name":"Shimoiida","station_name_local":"下飯田","network":"横浜市交通局","network_local":null,"operator":"横浜市交通局","city":"Yokohama","country":"Japan","lines":["B"],"wikidata":null,"merged_from":3},"geometry":{"type":"Point","coordinates":[139.48324846666668,35.403467733333336]}},{"type":"Feature","properties":{"station_id":"n355847363","station_name":"Nakamachidai","station_name_local":"仲町台","network":"横浜市営地下鉄","network_local":"横浜市営地下鉄","operator":"横浜市交通局","city":"Yokohama","country":"Japan","lines":["B"],"wikidata":null,"merged_from":3},"geometry":{"type":"Point","coordinates":[139.58954976666666,35.53532346666667]}},{"type":"Feature","properties":{"station_id":"n2468944535","station_name":"Center Kita","station_name_local":"センター北","network":"横浜市営地下鉄","network_local":"横浜市営地下鉄","operator":"横浜市交通局","city":"Yokohama","country":"Japan","lines":["B","G"],"wikidata":"Q847363","merged_from":2},"geometry":{"type":"Point","coordinates":[139.57844805,35.553359549999996]}},{"type":"Feature","properties":{"station_id":"n3741112665","station_name":"Namiki-Chuo","station_name_local":"並木中央","network":"Unknown","network_local":null,"operator":null,"city":"Yokohama","country":"Japan","lines":["SL"],"wikidata":"Q6961853"},"geometry":{"type":"Point","coordinates":[139.6429378,35.3654383]}},{"type":"Feature","properties":{"station_id":"n3741112666","station_name":"Namiki-Kita","station_name_local":"並木北","network":"Unknown","network_local":null,"operator":null,"city":"Yokohama","country":"Japan","lines":["SL"],"wikidata":"Q6961854"},"geometry":{"type":"Point","coordinates":[139.642701,35.371877]}},{"type":"Feature","properties":{"station_id":"n3741112672","station_name":"Shidai-Igakubu","station_name_local":"市大医学部","network":"Unknown","network_local":null,"operator":null,"city":"Yokohama","country":"Japan","lines":["SL"],"wikidata":"Q7496125"},"geometry":{"type":"Point","coordinates":[139.6501527,35.3439482]}},{"type":"Feature","properties":{"station_id":"n3741112678","station_name":"Shin-Sugita","station_name_local":"新杉田","network":"Unknown","network_local":null,"operator":null,"city":"Yokohama","country":"Japan","lines":["SL"],"wikidata":"Q844465"},"geometry":{"type":"Point","coordinates":[139.6204103,35.3860018]}},{"type":"Feature","properties":{"station_id":"n3741112687","station_name":"Nojimakoen","station_name_local":"野島公園","network":"横浜シーサイドライン","network_local":null,"operator":"横浜シーサイドライン","city":"Yokohama","country":"Japan","lines":["SL"],"wikidata":"Q7047813"},"geometry":{"type":"Point","coordinates":[139.6314529,35.3305191]}},{"type":"Feature","properties":{"station_id":"n3741112689","station_name":"Kanazawa-Hakkei","station_name_local":"金沢八景","network":"横浜シーサイドライン","network_local":null,"operator":"横浜シーサイドライン","city":"Yokohama","country":"Japan","lines":["SL"],"wikidata":"Q6360870"},"geometry":{"type":"Point","coordinates":[139.6208936,35.3315684]}},{"type":"Feature","properties":{"station_id":"n5227138562","station_name":"Center Minami","station_name_local":"センター南","network":"横浜市営地下鉄","network_local":"横浜市営地下鉄","operator":"横浜市交通局","city":"Yokohama","country":"Japan","lines":["B","G"],"wikidata":"Q844629","merged_from":2},"geometry":{"type":"Point","coordinates":[139.57445345,35.5453498]}},{"type":"Feature","properties":{"station_id":"n5591788441","station_name":"Kamiooka","station_name_local":"上大岡","network":"横浜市営地下鉄","network_local":"横浜市営地下鉄","operator":"横浜市交通局","city":"Yokohama","country":"Japan","lines":["B"],"wikidata":"Q865627"},"geometry":{"type":"Point","coordinates":[139.5959771,35.4090326]}},{"type":"Feature","properties":{"station_id":"n5591788444","station_name":"Odoriba","station_name_local":"踊場","network":"横浜市交通局","network_local":null,"operator":"横浜市交通局","city":"Yokohama","country":"Japan","lines":["B"],"wikidata":"Q852877"},"geometry":{"type":"Point","coordinates":[139.5185313,35.4056591]}},{"type":"Feature","properties":{"station_id":"n5591788445","station_name":"Maioka","station_name_local":"舞岡","network":"横浜市交通局","network_local":null,"operator":"横浜市交通局","city":"Yokohama","country":"Japan","lines":["B"],"wikidata":"Q904116"},"geometry":{"type":"Point","coordinates":[139.5509416,35.4024586]}},{"type":"Feature","properties":{"station_id":"n5591788446","station_name":"Shimonagaya","station_name_local":"下永谷","network":"横浜市交通局","network_local":null,"operator":"横浜市交通局","city":"Yokohama","country":"Japan","lines":["B"],"wikidata":"Q579066"},"geometry":{"type":"Point","coordinates":[139.5594212,35.4025885]}},{"type":"Feature","properties":{"station_id":"n6054866431","station_name":"Torihama","station_name_local":"鳥浜","network":"Unknown","network_local":null,"operator":null,"city":"Yokohama","country":"Japan","lines":["SL"],"wikidata":"Q7825788"},"geometry":{"type":"Point","coordinates":[139.6417394,35.3770641]}},{"type":"Feature","properties":{"station_id":"n6054869524","station_name":"Nambu-Shijo","station_name_local":"南部市場","network":"Unknown","network_local":null,"operator":null,"city":"Yokohama","country":"Japan","lines":["SL"],"wikidata":"Q11408539"},"geometry":{"type":"Point","coordinates":[139.6332331,35.3801794]}},{"type":"Feature","properties":{"station_id":"n7749849503","station_name":"Azamino","station_name_local":"あざみ野","network":"横浜市営地下鉄","network_local":"横浜市営地下鉄","operator":"横浜市交通局","city":"Yokohama","country":"Japan","lines":["B"],"wikidata":"Q852232"},"geometry":{"type":"Point","coordinates":[139.5536107,35.5680456]}},{"type":"Feature","properties":{"station_id":"n7749857151","station_name":"Shonandai","station_name_local":"湘南台","network":"Unknown","network_local":null,"operator":null,"city":"Yokohama","country":"Japan","lines":["B"],"wikidata":"Q126091414"},"geometry":{"type":"Point","coordinates":[139.4670779,35.3964453]}},{"type":"Feature","properties":{"station_id":"n7749865377","station_name":"Totsuka","station_name_local":"戸塚","network":"横浜市交通局","network_local":null,"operator":"横浜市交通局","city":"Yokohama","country":"Japan","lines":["B"],"wikidata":"Q801522"},"geometry":{"type":"Point","coordinates":[139.5350787,35.4011056]}},{"type":"Feature","properties":{"station_id":"n7749865378","station_name":"Nakada","station_name_local":"中田","network":"横浜市交通局","network_local":null,"operator":"横浜市交通局","city":"Yokohama","country":"Japan","lines":["B"],"wikidata":"Q573641"},"geometry":{"type":"Point","coordinates":[139.5113307,35.4111454]}},{"type":"Feature","properties":{"station_id":"n7749869512","station_name":"Nakagawa","station_name_local":"中川","network":"横浜市営地下鉄","network_local":"横浜市営地下鉄","operator":"横浜市交通局","city":"Yokohama","country":"Japan","lines":["B"],"wikidata":"Q573443"},"geometry":{"type":"Point","coordinates":[139.5699517,35.5629066]}},{"type":"Feature","properties":{"station_id":"n7750187059","station_name":"Nippa","station_name_local":"新羽","network":"横浜市営地下鉄","network_local":"横浜市営地下鉄","operator":"横浜市交通局","city":"Yokohama","country":"Japan","lines":["B"],"wikidata":"Q841479"},"geometry":{"type":"Point","coordinates":[139.6120343,35.5274961]}},{"type":"Feature","properties":{"station_id":"n7750247043","station_name":"Maita","station_name_local":"蒔田","network":"横浜市営地下鉄","network_local":"横浜市営地下鉄","operator":"横浜市交通局","city":"Yokohama","country":"Japan","lines":["B"],"wikidata":"Q579091"},"geometry":{"type":"Point","coordinates":[139.6099757,35.429909]}},{"type":"Feature","properties":{"station_id":"n7750247044","station_name":"Gumyoji","station_name_local":"弘明寺","network":"横浜市営地下鉄","network_local":"横浜市営地下鉄","operator":"横浜市交通局","city":"Yokohama","country":"Japan","lines":["B"],"wikidata":"Q580349"},"geometry":{"type":"Point","coordinates":[139.6020598,35.4232893]}},{"type":"Feature","properties":{"station_id":"n7750247045","station_name":"Shin-yokohama","station_name_local":"新横浜","network":"横浜市営地下鉄","network_local":"横浜市営地下鉄","operator":"横浜市交通局","city":"Yokohama","country":"Japan","lines":["B"],"wikidata":"Q801437"},"geometry":{"type":"Point","coordinates":[139.6173113,35.5088883]}},{"type":"Feature","properties":{"station_id":"n7750247047","station_name":"Kita-shin-yokohama","station_name_local":"北新横浜","network":"横浜市営地下鉄","network_local":"横浜市営地下鉄","operator":"横浜市交通局","city":"Yokohama","country":"Japan","lines":["B"],"wikidata":"Q852295"},"geometry":{"type":"Point","coordinates":[139.6128054,35.5192766]}},{"type":"Feature","properties":{"station_id":"n7750338822","station_name":"Takashimacho","station_name_local":"高島町","network":"横浜市営地下鉄","network_local":"横浜市営地下鉄","operator":"横浜市交通局","city":"Yokohama","country":"Japan","lines":["B"],"wikidata":"Q850673"},"geometry":{"type":"Point","coordinates":[139.6238581,35.4584508]}},{"type":"Feature","properties":{"station_id":"n7750338823","station_name":"Sakuragicho","station_name_local":"桜木町","network":"横浜市営地下鉄","network_local":"横浜市営地下鉄","operator":"横浜市交通局","city":"Yokohama","country":"Japan","lines":["B"],"wikidata":"Q801396"},"geometry":{"type":"Point","coordinates":[139.630787,35.4496272]}},{"type":"Feature","properties":{"station_id":"n7750338824","station_name":"Kannai","station_name_local":"関内","network":"横浜市営地下鉄","network_local":"横浜市営地下鉄","operator":"横浜市交通局","city":"Yokohama","country":"Japan","lines":["B"],"wikidata":"Q800982"},"geometry":{"type":"Point","coordinates":[139.6367037,35.44533]}},{"type":"Feature","properties":{"station_id":"n7750338825","station_name":"Isezaki-chojamachi","station_name_local":"伊勢佐木長者町","network":"横浜市営地下鉄","network_local":"横浜市営地下鉄","operator":"横浜市交通局","city":"Yokohama","country":"Japan","lines":["B"],"wikidata":"Q841434"},"geometry":{"type":"Point","coordinates":[139.6327993,35.4410015]}},{"type":"Feature","properties":{"station_id":"n7750338826","station_name":"Bandobashi","station_name_local":"阪東橋","network":"横浜市営地下鉄","network_local":"横浜市営地下鉄","operator":"横浜市交通局","city":"Yokohama","country":"Japan","lines":["B"],"wikidata":"Q852854"},"geometry":{"type":"Point","coordinates":[139.6251489,35.4376268]}},{"type":"Feature","properties":{"station_id":"n7750342739","station_name":"Kishine-koen","station_name_local":"岸根公園","network":"横浜市交通局","network_local":null,"operator":"横浜市交通局","city":"Yokohama","country":"Japan","lines":["B"],"wikidata":"Q589898"},"geometry":{"type":"Point","coordinates":[139.6168238,35.4961511]}},{"type":"Feature","properties":{"station_id":"n7750342740","station_name":"Mitsuzawa-kamicho","station_name_local":"三ツ沢上町","network":"横浜市営地下鉄","network_local":"横浜市営地下鉄","operator":"横浜市交通局","city":"Yokohama","country":"Japan","lines":["B"],"wikidata":"Q903553"},"geometry":{"type":"Point","coordinates":[139.6056459,35.4764152]}},{"type":"Feature","properties":{"station_id":"n7750342741","station_name":"Katakuracho","station_name_local":"片倉町","network":"横浜市交通局","network_local":null,"operator":"横浜市交通局","city":"Yokohama","country":"Japan","lines":["B"],"wikidata":"Q589860"},"geometry":{"type":"Point","coordinates":[139.6064834,35.4900761]}},{"type":"Feature","properties":{"station_id":"n7750342742","station_name":"Mitsuzawa-shimocho","station_name_local":"三ツ沢下町","network":"横浜市営地下鉄","network_local":"横浜市営地下鉄","operator":"横浜市交通局","city":"Yokohama","country":"Japan","lines":["B"],"wikidata":"Q589920"},"geometry":{"type":"Point","coordinates":[139.6160911,35.4765085]}},{"type":"Feature","properties":{"station_id":"n7750342743","station_name":"Yokohama","station_name_local":"横浜","network":"横浜市交通局","network_local":null,"operator":"横浜市交通局","city":"Yokohama","country":"Japan","lines":["B"],"wikidata":"Q801658"},"geometry":{"type":"Point","coordinates":[139.6201667,35.4653773]}},{"type":"Feature","properties":{"station_id":"n7750348391","station_name":"Yoshinocho","station_name_local":"吉野町","network":"横浜市営地下鉄","network_local":"横浜市営地下鉄","operator":"横浜市交通局","city":"Yokohama","country":"Japan","lines":["B"],"wikidata":"Q579077"},"geometry":{"type":"Point","coordinates":[139.618715,35.4354327]}},{"type":"Feature","properties":{"station_id":"n7761779877","station_name":"Nishi-shinjuku-gochome","station_name_local":"西新宿五丁目","network":"Toei subway","network_local":"都営地下鉄","operator":"東京都交通局","city":"Yokohama","country":"Japan","lines":["E"],"wikidata":"Q275541"},"geometry":{"type":"Point","coordinates":[139.6845183,35.6898839]}},{"type":"Feature","properties":{"station_id":"n7771245984","station_name":"Nakayama","station_name_local":"中山","network":"横浜市営地下鉄","network_local":"横浜市営地下鉄","operator":"横浜市交通局","city":"Yokohama","country":"Japan","lines":["G"],"wikidata":"Q844670"},"geometry":{"type":"Point","coordinates":[139.5401893,35.5148049]}},{"type":"Feature","properties":{"station_id":"n7772733582","station_name":"Kawawacho","station_name_local":"川和町","network":"横浜市営地下鉄","network_local":"横浜市営地下鉄","operator":"横浜市交通局","city":"Yokohama","country":"Japan","lines":["G"],"wikidata":"Q6379900"},"geometry":{"type":"Point","coordinates":[139.5491595,35.5284798]}},{"type":"Feature","properties":{"station_id":"n7772737929","station_name":"Tsuzuki-fureainooka","station_name_local":"都筑ふれあいの丘","network":"横浜市営地下鉄","network_local":"横浜市営地下鉄","operator":"横浜市交通局","city":"Yokohama","country":"Japan","lines":["G"],"wikidata":"Q7850400"},"geometry":{"type":"Point","coordinates":[139.5612977,35.5365525]}},{"type":"Feature","properties":{"station_id":"n7772745205","station_name":"Hiyoshi","station_name_local":"日吉","network":"横浜市営地下鉄","network_local":"横浜市営地下鉄","operator":"横浜市交通局","city":"Yokohama","country":"Japan","lines":["G"],"wikidata":"Q390392"},"geometry":{"type":"Point","coordinates":[139.6464819,35.5534441]}},{"type":"Feature","properties":{"station_id":"n7772745206","station_name":"Hiyoshi-honcho","station_name_local":"日吉本町","network":"横浜市営地下鉄","network_local":"横浜市営地下鉄","operator":"横浜市交通局","city":"Yokohama","country":"Japan","lines":["G"],"wikidata":"Q5872965"},"geometry":{"type":"Point","coordinates":[139.6336227,35.5500655]}},{"type":"Feature","properties":{"station_id":"n7772745207","station_name":"Takata","station_name_local":"高田","network":"横浜市営地下鉄","network_local":"横浜市営地下鉄","operator":"横浜市交通局","city":"Yokohama","country":"Japan","lines":["G"],"wikidata":"Q7677418"},"geometry":{"type":"Point","coordinates":[139.6200521,35.5496776]}},{"type":"Feature","properties":{"station_id":"n7772745208","station_name":"Higashi-yamata","station_name_local":"東山田","network":"横浜市営地下鉄","network_local":"横浜市営地下鉄","operator":"横浜市交通局","city":"Yokohama","country":"Japan","lines":["G"],"wikidata":"Q11103294"},"geometry":{"type":"Point","coordinates":[139.6046897,35.554173]}},{"type":"Feature","properties":{"station_id":"n7772745209","station_name":"Kita-yamata","station_name_local":"北山田","network":"横浜市営地下鉄","network_local":"横浜市営地下鉄","operator":"横浜市交通局","city":"Yokohama","country":"Japan","lines":["G"],"wikidata":"Q6417619"},"geometry":{"type":"Point","coordinates":[139.5927407,35.5609685]}},{"type":"Feature","properties":{"station_id":"n8062656936","station_name":"Inamuragasaki","station_name_local":"稲村ヶ崎","network":"江ノ島電鉄","network_local":null,"operator":"江ノ島電鉄","city":"Yokohama","country":"Japan","lines":["EN"],"wikidata":"Q858991"},"geometry":{"type":"Point","coordinates":[139.5219,35.3043634]}},{"type":"Feature","properties":{"station_id":"n8062865731","station_name":"Hase","station_name_local":"長谷","network":"江ノ島電鉄","network_local":null,"operator":"江ノ島電鉄","city":"Yokohama","country":"Japan","lines":["EN"],"wikidata":"Q858830"},"geometry":{"type":"Point","coordinates":[139.5358669,35.3112923]}},{"type":"Feature","properties":{"station_id":"n8062865734","station_name":"Kugenuma","station_name_local":"鵠沼","network":"江ノ島電鉄","network_local":null,"operator":"江ノ島電鉄","city":"Yokohama","country":"Japan","lines":["EN"],"wikidata":"Q858839"},"geometry":{"type":"Point","coordinates":[139.4826015,35.3214239]}},{"type":"Feature","properties":{"station_id":"n8062865735","station_name":"Enoshima","station_name_local":"江ノ島","network":"江ノ島電鉄","network_local":null,"operator":"江ノ島電鉄","city":"Yokohama","country":"Japan","lines":["EN"],"wikidata":"Q846972"},"geometry":{"type":"Point","coordinates":[139.4875422,35.3110438]}},{"type":"Feature","properties":{"station_id":"n8062865737","station_name":"Fujisawa","station_name_local":"藤沢","network":"江ノ島電鉄","network_local":null,"operator":"江ノ島電鉄","city":"Yokohama","country":"Japan","lines":["EN"],"wikidata":"Q1133110"},"geometry":{"type":"Point","coordinates":[139.4871854,35.3371805]}},{"type":"Feature","properties":{"station_id":"n8063948626","station_name":"Shichirigahama","station_name_local":"七里ヶ浜","network":"江ノ島電鉄","network_local":null,"operator":"江ノ島電鉄","city":"Yokohama","country":"Japan","lines":["EN"],"wikidata":"Q858960"},"geometry":{"type":"Point","coordinates":[139.510117,35.3062815]}},{"type":"Feature","properties":{"station_id":"n8063948630","station_name":"Gokurakuji","station_name_local":"極楽寺","network":"江ノ島電鉄","network_local":null,"operator":"江ノ島電鉄","city":"Yokohama","country":"Japan","lines":["EN"],"wikidata":"Q858997"},"geometry":{"type":"Point","coordinates":[139.5286725,35.3092118]}},{"type":"Feature","properties":{"station_id":"n8063951768","station_name":"Ishigami","station_name_local":"石上","network":"江ノ島電鉄","network_local":null,"operator":"江ノ島電鉄","city":"Yokohama","country":"Japan","lines":["EN"],"wikidata":"Q859782"},"geometry":{"type":"Point","coordinates":[139.4855196,35.3321271]}},{"type":"Feature","properties":{"station_id":"n8063951769","station_name":"Yanagikoji","station_name_local":"柳小路","network":"江ノ島電鉄","network_local":null,"operator":"江ノ島電鉄","city":"Yokohama","country":"Japan","lines":["EN"],"wikidata":"Q859740"},"geometry":{"type":"Point","coordinates":[139.4851812,35.3276307]}},{"type":"Feature","properties":{"station_id":"n8063964898","station_name":"Koshigoe","station_name_local":"腰越","network":"江ノ島電鉄","network_local":null,"operator":"江ノ島電鉄","city":"Yokohama","country":"Japan","lines":["EN"],"wikidata":"Q858923"},"geometry":{"type":"Point","coordinates":[139.4932077,35.3083817]}},{"type":"Feature","properties":{"station_id":"n8063964899","station_name":"Kamakurakokomae","station_name_local":"鎌倉高校前","network":"江ノ島電鉄","network_local":null,"operator":"江ノ島電鉄","city":"Yokohama","country":"Japan","lines":["EN"],"wikidata":"Q859202"},"geometry":{"type":"Point","coordinates":[139.5007098,35.3067209]}},{"type":"Feature","properties":{"station_id":"n8063967424","station_name":"Shonankaigankoen","station_name_local":"湘南海岸公園","network":"江ノ島電鉄","network_local":null,"operator":"江ノ島電鉄","city":"Yokohama","country":"Japan","lines":["EN"],"wikidata":"Q858964"},"geometry":{"type":"Point","coordinates":[139.4836473,35.3149457]}}]}