{"type":"FeatureCollection","metro_system":{"continent":"asia","country":"Japan","city":"Sabae","osm_networks":["Unknown","えちぜん鉄道","福井鉄道","福武線"],"operator":"福井鉄道","official_website":null,"official_map":"https://ja.wikipedia.org/wiki/福井鉄道福武線","wikidata":"Q3537109","line_count":1,"station_count":27,"audit":{"strategies_tried":[],"passed":true,"checks":[{"id":"has_lines","ok":true,"detail":"1 lines","level":"error"},{"id":"has_stations","ok":true,"detail":"27 stations","level":"error"},{"id":"stations_have_lines","ok":true,"detail":"27/27 站皆有所屬路線","level":"error"},{"id":"stations_named","ok":true,"detail":"26/27 站有名稱","level":"warn"},{"id":"station_order","ok":true,"detail":"所有線路站序合理","level":"warn"}],"reasons":[],"warnings":[],"audited_at":"2026-07-10T08:36:15.550Z"}},"features":[{"type":"Feature","properties":{"route_id":"rm10286522","route_name":"Fukubu Line","route_name_local":"福井鉄道福武線","route_ref":"F","route_color":"#008000","network":"福井鉄道","network_local":"福井鉄道","operator":"福井鉄道","city":"Sabae","country":"Japan","wikidata":"Q3537109","wikipedia":"ja:福井鉄道福武線","osm_route_ids":[1895507,10286530,10286618,10286621]},"geometry":{"type":"MultiLineString","coordinates":[[[136.1701886,35.9063827],[136.1665861,35.9100647],[136.1682683,35.9195264],[136.1703452,35.9257938],[136.1805346,35.9364062],[136.1818316,35.9464388],[136.1857283,35.9519313],[136.1831422,35.9624547],[136.181888,35.9730181],[136.1873429,35.9815657],[136.193769,35.9891363],[136.1983583,35.9992437],[136.2017562,36.0067034],[136.205317,36.0139597],[136.209408,36.022236],[136.212321,36.028123],[136.2139144,36.0338314],[136.2152109,36.0409109],[136.2166259,36.0485867],[136.2149335,36.0539603],[136.2151405,36.057999],[136.2175886,36.0639419],[136.2180585,36.0695513],[136.2173432,36.0748277]],[[136.2173394,36.0748743],[136.2180683,36.0695286],[136.2176184,36.0638018],[136.2221398,36.0621306]]]}},{"type":"Feature","properties":{"station_id":"n1018281593","station_name":"n1018281593","station_name_local":null,"network":"Unknown","network_local":null,"operator":null,"city":"Sabae","country":"Japan","lines":["F"],"wikidata":null},"geometry":{"type":"Point","coordinates":[136.2174281,36.074774]}},{"type":"Feature","properties":{"station_id":"n822973023","station_name":"Takefu-shin","station_name_local":"たけふ新","network":"Unknown","network_local":null,"operator":null,"city":"Sabae","country":"Japan","lines":["F"],"wikidata":"Q5332623"},"geometry":{"type":"Point","coordinates":[136.1702578,35.9061222]}},{"type":"Feature","properties":{"station_id":"n822973253","station_name":"Nishi-Sabae","station_name_local":"西鯖江","network":"Unknown","network_local":null,"operator":null,"city":"Sabae","country":"Japan","lines":["F"],"wikidata":"Q11630017"},"geometry":{"type":"Point","coordinates":[136.1818127,35.94665]}},{"type":"Feature","properties":{"station_id":"n822973292","station_name":"Harmony Hall","station_name_local":"ハーモニーホール","network":"Unknown","network_local":null,"operator":null,"city":"Sabae","country":"Japan","lines":["F"],"wikidata":"Q5659535"},"geometry":{"type":"Point","coordinates":[136.205317,36.0139597]}},{"type":"Feature","properties":{"station_id":"n822975155","station_name":"Sanjūhassha","station_name_local":"三十八社","network":"Unknown","network_local":null,"operator":null,"city":"Sabae","country":"Japan","lines":["F"],"wikidata":"Q7418608"},"geometry":{"type":"Point","coordinates":[136.1937667,35.9890791]}},{"type":"Feature","properties":{"station_id":"n822975506","station_name":"Tobanaka","station_name_local":"鳥羽中","network":"Unknown","network_local":null,"operator":null,"city":"Sabae","country":"Japan","lines":["F"],"wikidata":"Q7811544"},"geometry":{"type":"Point","coordinates":[136.1873429,35.9815657]}},{"type":"Feature","properties":{"station_id":"n822976815","station_name":"Asōzu","station_name_local":"浅水","network":"Unknown","network_local":null,"operator":null,"city":"Sabae","country":"Japan","lines":["F"],"wikidata":"Q4812261"},"geometry":{"type":"Point","coordinates":[136.2017231,36.00671]}},{"type":"Feature","properties":{"station_id":"n822977846","station_name":"Kitago","station_name_local":"北府","network":"福武線","network_local":"福武線","operator":"福井鉄道","city":"Sabae","country":"Japan","lines":["F"],"wikidata":"Q6417707"},"geometry":{"type":"Point","coordinates":[136.1665861,35.9100647]}},{"type":"Feature","properties":{"station_id":"n822977949","station_name":"Ebata","station_name_local":"江端","network":"Unknown","network_local":null,"operator":null,"city":"Sabae","country":"Japan","lines":["F"],"wikidata":"Q5331504"},"geometry":{"type":"Point","coordinates":[136.212321,36.028123]}},{"type":"Feature","properties":{"station_id":"n822977967","station_name":"Bell-mae","station_name_local":"ベル前","network":"Unknown","network_local":null,"operator":null,"city":"Sabae","country":"Japan","lines":["F"],"wikidata":"Q4883087"},"geometry":{"type":"Point","coordinates":[136.2139144,36.0338314]}},{"type":"Feature","properties":{"station_id":"n822978083","station_name":"Sundome Nishi","station_name_local":"サンドーム西","network":"福井鉄道","network_local":null,"operator":"福井鉄道","city":"Sabae","country":"Japan","lines":["F"],"wikidata":"Q7639801"},"geometry":{"type":"Point","coordinates":[136.1805346,35.9364062]}},{"type":"Feature","properties":{"station_id":"n822978245","station_name":"Iehisa","station_name_local":"家久","network":"Unknown","network_local":null,"operator":null,"city":"Sabae","country":"Japan","lines":["F"],"wikidata":"Q11455373"},"geometry":{"type":"Point","coordinates":[136.1703452,35.9257938]}},{"type":"Feature","properties":{"station_id":"n2290387538","station_name":"Nishiyama-Kōen","station_name_local":"西山公園","network":"Unknown","network_local":null,"operator":null,"city":"Sabae","country":"Japan","lines":["F"],"wikidata":"Q4982279"},"geometry":{"type":"Point","coordinates":[136.1857283,35.9519313]}},{"type":"Feature","properties":{"station_id":"n4164240961","station_name":"スポーツ公園","station_name_local":"スポーツ公園","network":"福武線","network_local":"福武線","operator":"福井鉄道","city":"Sabae","country":"Japan","lines":["F"],"wikidata":"Q11313171"},"geometry":{"type":"Point","coordinates":[136.1682396,35.9195311]}},{"type":"Feature","properties":{"station_id":"n4164240966","station_name":"Taichōnosato","station_name_local":"泰澄の里","network":"Unknown","network_local":null,"operator":null,"city":"Sabae","country":"Japan","lines":["F"],"wikidata":"Q11555719"},"geometry":{"type":"Point","coordinates":[136.1983583,35.9992437]}},{"type":"Feature","properties":{"station_id":"n4164240967","station_name":"清明","station_name_local":"清明","network":"Unknown","network_local":null,"operator":null,"city":"Sabae","country":"Japan","lines":["F"],"wikidata":"Q11560658"},"geometry":{"type":"Point","coordinates":[136.2095015,36.0222188]}},{"type":"Feature","properties":{"station_id":"n4164240968","station_name":"Fukui","station_name_local":"福井駅","network":"Unknown","network_local":null,"operator":null,"city":"Sabae","country":"Japan","lines":["F"],"wikidata":"Q867992"},"geometry":{"type":"Point","coordinates":[136.2221908,36.0621411]}},{"type":"Feature","properties":{"station_id":"n4398558721","station_name":"Fukudaimae-Nishi-Fukui","station_name_local":"福大前西福井","network":"Unknown","network_local":null,"operator":null,"city":"Sabae","country":"Japan","lines":["F"],"wikidata":"Q5507621"},"geometry":{"type":"Point","coordinates":[136.2104762,36.0741897]}},{"type":"Feature","properties":{"station_id":"n6966993327","station_name":"Jin'ai Joshikōkō","station_name_local":"仁愛女子高校","network":"Unknown","network_local":null,"operator":null,"city":"Sabae","country":"Japan","lines":["F"],"wikidata":"Q6201756"},"geometry":{"type":"Point","coordinates":[136.2180585,36.0695513]}},{"type":"Feature","properties":{"station_id":"n6966993337","station_name":"Tawaramachi","station_name_local":"田原町","network":"Unknown","network_local":null,"operator":null,"city":"Sabae","country":"Japan","lines":["F"],"wikidata":null},"geometry":{"type":"Point","coordinates":[136.2173409,36.0748461]}},{"type":"Feature","properties":{"station_id":"n6967028749","station_name":"Fukuijousidaimyoumachi","station_name_local":"福井城址大名町","network":"Unknown","network_local":null,"operator":null,"city":"Sabae","country":"Japan","lines":["F"],"wikidata":"Q7499456"},"geometry":{"type":"Point","coordinates":[136.2176007,36.0638701]}},{"type":"Feature","properties":{"station_id":"n6967046718","station_name":"Asuwayama-Kōenguchi","station_name_local":"足羽山公園口","network":"Unknown","network_local":null,"operator":null,"city":"Sabae","country":"Japan","lines":["F"],"wikidata":"Q6455102"},"geometry":{"type":"Point","coordinates":[136.2151405,36.057999]}},{"type":"Feature","properties":{"station_id":"n6967046720","station_name":"Shokokaigisho-mae","station_name_local":"商工会議所前","network":"Unknown","network_local":null,"operator":null,"city":"Sabae","country":"Japan","lines":["F"],"wikidata":"Q11519292"},"geometry":{"type":"Point","coordinates":[136.2149335,36.0539603]}},{"type":"Feature","properties":{"station_id":"n6967046729","station_name":"Sekijūjimae","station_name_local":"赤十字前","network":"Unknown","network_local":null,"operator":null,"city":"Sabae","country":"Japan","lines":["F"],"wikidata":"Q7447201"},"geometry":{"type":"Point","coordinates":[136.2166649,36.0486073]}},{"type":"Feature","properties":{"station_id":"n6967062511","station_name":"Hanandō","station_name_local":"花堂","network":"Unknown","network_local":null,"operator":null,"city":"Sabae","country":"Japan","lines":["F"],"wikidata":"Q3701536"},"geometry":{"type":"Point","coordinates":[136.2152198,36.0408812]}},{"type":"Feature","properties":{"station_id":"n6967067865","station_name":"Shinmei","station_name_local":"神明","network":"Unknown","network_local":null,"operator":null,"city":"Sabae","country":"Japan","lines":["F"],"wikidata":"Q11590326"},"geometry":{"type":"Point","coordinates":[136.1818674,35.9730558]}},{"type":"Feature","properties":{"station_id":"n6967067867","station_name":"Mizuochi","station_name_local":"水落","network":"Unknown","network_local":null,"operator":null,"city":"Sabae","country":"Japan","lines":["F"],"wikidata":"Q6884897"},"geometry":{"type":"Point","coordinates":[136.1831422,35.9624547]}}]}