{"type":"FeatureCollection","metro_system":{"continent":"asia","country":"Japan","city":"Yokohama","osm_networks":["Odakyu;Tokyo Metro","Toei subway","Unknown","みなとみらい線","東急電鉄","東急電鉄;東京メトロ","横浜市交通局","横浜市営地下鉄"],"operator":"横浜高速鉄道","official_website":null,"official_map":"https://en.wikipedia.org/wiki/Minatomirai_Line","wikidata":"Q852314","line_count":8,"station_count":50},"features":[{"type":"Feature","properties":{"route_id":"rm7703640","route_name":"Yokohama Minatomirai Line","route_name_local":"横浜高速鉄道みなとみらい21線","route_ref":"MM","route_color":"#c61094","network":"みなとみらい線","network_local":"みなとみらい線","operator":"横浜高速鉄道","city":"Yokohama","country":"Japan","wikidata":"Q852314","wikipedia":"en:Minatomirai Line","osm_route_ids":[1905260,7703632]},"geometry":{"type":"MultiLineString","coordinates":[[[139.6221488,35.4662537],[139.6266415,35.4619651],[139.6329716,35.4572917],[139.6363155,35.4501707],[139.6426981,35.44675],[139.6509328,35.4421296]]]}},{"type":"Feature","properties":{"route_id":"rm7732280","route_name":"Blue Line","route_name_local":"横浜市営地下鉄ブルーライン","route_ref":"B","route_color":"#005ba5","network":"横浜市営地下鉄","network_local":"横浜市営地下鉄","operator":"横浜市交通局","city":"Yokohama","country":"Japan","wikidata":"Q841360","wikipedia":"ja:横浜市営地下鉄ブルーライン","osm_route_ids":[1905261,7732276]},"geometry":{"type":"MultiLineString","coordinates":[[[139.5535482,35.5680751],[139.5699281,35.5629483],[139.5783316,35.5533847],[139.5743385,35.5453882],[139.5895284,35.5353413],[139.6121053,35.5275119],[139.6128637,35.5192869],[139.6173515,35.508929],[139.6168375,35.4960983],[139.6065331,35.4900874],[139.6056807,35.4764393],[139.6161354,35.4765327],[139.6201866,35.465419],[139.623871,35.4584811],[139.6308191,35.4496666],[139.6367414,35.4453811],[139.6327731,35.4409636],[139.6251269,35.4375838],[139.6186866,35.435398],[139.6099814,35.4298826],[139.602077,35.4232579],[139.5959911,35.4090238],[139.5910335,35.4011313],[139.5724681,35.4014738],[139.5592027,35.4025836],[139.5512998,35.4025442],[139.53501,35.4010353],[139.5184774,35.405648],[139.5112091,35.4111598],[139.5003658,35.4142601],[139.4832803,35.403448],[139.4670523,35.3964229]]]}},{"type":"Feature","properties":{"route_id":"rm7732283","route_name":"Green Line","route_name_local":"横浜市営地下鉄グリーンライン","route_ref":"G","route_color":"#048d58","network":"横浜市営地下鉄","network_local":"横浜市営地下鉄","operator":"横浜市交通局","city":"Yokohama","country":"Japan","wikidata":"Q3116096","wikipedia":"en:Green Line","osm_route_ids":[3444217,7732275]},"geometry":{"type":"MultiLineString","coordinates":[[[139.5403309,35.5151327],[139.5491193,35.5285123],[139.5612787,35.536602],[139.5746291,35.5454251],[139.5785777,35.5533318],[139.5927579,35.5610316],[139.6046536,35.5542275],[139.6200379,35.5496732],[139.6333569,35.5499858],[139.6465004,35.5534871]]]}},{"type":"Feature","properties":{"route_id":"r10036862","route_name":"Tokyo Metro - Odawara Bypass Line (southbound)","route_name_local":"小田急電鉄 通勤準急","route_ref":"OH","route_color":"#939598","network":"Odakyu;Tokyo Metro","network_local":"小田急電鉄;東京メトロ","operator":"小田急電鉄;東京地下鉄","city":"Yokohama","country":"Japan","wikidata":"Q1063832","wikipedia":"ja:小田急多摩線","osm_route_ids":[10036862,10036863]},"geometry":{"type":"MultiLineString","coordinates":[[[139.6798035,35.6689896],[139.6725505,35.6650882],[139.6668377,35.6611218],[139.661541,35.6582731],[139.6541526,35.6561279],[139.6468687,35.6534875],[139.636733,35.6511595],[139.6238415,35.6473459],[139.6097732,35.6432283],[139.5984862,35.6398513],[139.569561,35.6208368],[139.5645639,35.6171843],[139.5419345,35.6149707],[139.5278851,35.6147588],[139.5160808,35.6090125],[139.5077531,35.6038037],[139.4975991,35.5896069],[139.4816069,35.5830873],[139.4635446,35.5636418],[139.4451441,35.5440372],[139.4229589,35.5155168],[139.4085411,35.4993145],[139.3999416,35.4807787],[139.3909619,35.4527501],[139.3777219,35.4430268],[139.3642905,35.439311],[139.343943,35.4176073],[139.313511,35.3959742],[139.5868959,35.6364805],[139.5737898,35.627485]],[[139.3134891,35.3960096],[139.3439153,35.417627],[139.3642714,35.4393248],[139.3777178,35.4430401],[139.3909342,35.4527731],[139.3998998,35.4807765],[139.4085145,35.4993324],[139.4229272,35.5155358],[139.4378289,35.5322035],[139.4451065,35.544054],[139.4635086,35.563657],[139.4815969,35.5831225],[139.4975684,35.5896144],[139.5076224,35.6039241],[139.5160679,35.6090324],[139.5278914,35.614797],[139.5419303,35.6150107],[139.5644757,35.6173192],[139.5692588,35.620959],[139.5736725,35.6275359],[139.5868466,35.6365781],[139.5984367,35.6399569],[139.636665,35.65131],[139.6668101,35.6611459],[139.6797733,35.6690268]]]}},{"type":"Feature","properties":{"route_id":"r10036878","route_name":"Tokyo Metro - Mukōgaoka-Yuen Bypass Line (westbound)","route_name_local":"東京地下鉄の直通運転 - 多摩線","route_ref":"OT","route_color":"#00a650","network":"Odakyu;Tokyo Metro","network_local":"小田急電鉄;東京メトロ","operator":"小田急電鉄;東京地下鉄","city":"Yokohama","country":"Japan","wikidata":"Q1063832","wikipedia":"ja:小田急多摩線","osm_route_ids":[10036878]},"geometry":{"type":"MultiLineString","coordinates":[[[139.5693852,35.6209079],[139.5984484,35.6399319],[139.636733,35.6511595],[139.6468687,35.6534875],[139.6541526,35.6561279],[139.661541,35.6582731],[139.6668377,35.6611218],[139.6725505,35.6650882],[139.6798035,35.6689896],[139.5737898,35.627485],[139.5645639,35.6171843]]]}},{"type":"Feature","properties":{"route_id":"r10025434","route_name":"Tokyo Metro - Denentoshi bypass line (Shibuya -> Chuo-Rinkan)","route_name_local":"東京地下鉄の直通運転 - 東急田園都市線","route_ref":"DT","route_color":"#937cb9","network":"東急電鉄;東京メトロ","network_local":"東急電鉄;東京メトロ","operator":"東急電鉄;東京地下鉄","city":"Yokohama","country":"Japan","wikidata":"Q1190086","wikipedia":"ja:東急田園都市線","osm_route_ids":[10025434]},"geometry":{"type":"MultiLineString","coordinates":[[[139.7020856,35.6594567],[139.6847968,35.6507439],[139.6712617,35.6435134],[139.6612211,35.6331198],[139.6453722,35.6317016],[139.6342048,35.6266155],[139.6269557,35.6116779],[139.6226106,35.6071221],[139.6169099,35.6030986],[139.6106273,35.5998075],[139.6056844,35.593582],[139.591027,35.5871809],[139.582281,35.5849788],[139.5728824,35.5794437],[139.5588514,35.5775053],[139.5534425,35.5686371],[139.5514456,35.5585113],[139.5411625,35.5512011],[139.5280494,35.5434615],[139.5172502,35.5428593],[139.5047893,35.5360918],[139.4936788,35.5318827],[139.4850667,35.5273705],[139.4816966,35.5168636],[139.4705165,35.5114763],[139.458232,35.5103599],[139.444643,35.5076256]]]}},{"type":"Feature","properties":{"route_id":"r10025435","route_name":"Tokyo Metro - Denentoshi bypass line (Chuo-Rinkan -> Shibuya)","route_name_local":"東京メトロ半蔵門線 - 東急田園都市線直通運転","route_ref":"DT;Z","route_color":"#937cb9","network":"東急電鉄;東京メトロ","network_local":"東急電鉄;東京メトロ","operator":"東急電鉄;東京地下鉄","city":"Yokohama","country":"Japan","wikidata":"Q1190086","wikipedia":"ja:東急田園都市線","osm_route_ids":[10025435,12184302,12184335,12184336]},"geometry":{"type":"MultiLineString","coordinates":[[[139.8133754,35.7099467],[139.8150985,35.6963422],[139.8156763,35.6887339],[139.7992411,35.6820273],[139.7855703,35.6825022],[139.7731071,35.6848877],[139.7650155,35.6866391],[139.75693,35.6958683],[139.7505535,35.6952205],[139.7416217,35.6852205],[139.7386469,35.6782749],[139.7239173,35.6727598],[139.7125708,35.6649851],[139.7020856,35.6594567],[139.6847968,35.6507439],[139.6712617,35.6435134],[139.6612211,35.6331198],[139.6453722,35.6317016],[139.6342048,35.6266155],[139.6269557,35.6116779],[139.6226106,35.6071221],[139.6169099,35.6030986],[139.6106273,35.5998075],[139.6056844,35.593582],[139.591027,35.5871809],[139.582281,35.5849788],[139.5728824,35.5794437],[139.5588514,35.5775053],[139.5534425,35.5686371],[139.5514456,35.5585113],[139.5411625,35.5512011],[139.5280494,35.5434615],[139.5172502,35.5428593],[139.5047893,35.5360918],[139.4936788,35.5318827],[139.4850667,35.5273705],[139.4816966,35.5168636],[139.4705165,35.5114763],[139.458232,35.5103599],[139.444643,35.5076256]]]}},{"type":"Feature","properties":{"route_id":"r10032466","route_name":"Tokyo Metro - Toyoko Bypass Line: Yokohama => Shibuya","route_name_local":"東京地下鉄の直通運転 - 東急東横線","route_ref":"TY","route_color":"#01aaaa","network":"東急電鉄","network_local":"東急電鉄","operator":"東急電鉄","city":"Yokohama","country":"Japan","wikidata":"Q1192468","wikipedia":"en:Tōkyū Tōyoko Line","osm_route_ids":[10032466,10032467]},"geometry":{"type":"MultiLineString","coordinates":[[[139.622118,35.4662723],[139.6253046,35.4745472],[139.6294517,35.483241],[139.627843,35.4895642],[139.6332061,35.4985939],[139.6312819,35.5104389],[139.6298505,35.5218325],[139.6346736,35.5367489],[139.6467609,35.553503],[139.6539746,35.5645231],[139.6595763,35.5758364],[139.6618902,35.580698],[139.668669,35.5896082],[139.6672836,35.596893],[139.668826,35.6075666],[139.6761727,35.6175561],[139.6852812,35.6289474],[139.6910422,35.6375748],[139.6987133,35.6442023],[139.7032482,35.6481642],[139.7025824,35.6585645]]]}},{"type":"Feature","properties":{"station_id":"n355845276","station_name":"Kaminagaya","station_name_local":"上永谷","network":"横浜市交通局","network_local":null,"operator":"横浜市交通局","city":"Yokohama","country":"Japan","lines":["B"],"wikidata":"Q841420"},"geometry":{"type":"Point","coordinates":[139.5725338,35.4015158]}},{"type":"Feature","properties":{"station_id":"n355845350","station_name":"Konan-chuo","station_name_local":"港南中央","network":"横浜市交通局","network_local":null,"operator":"横浜市交通局","city":"Yokohama","country":"Japan","lines":["B"],"wikidata":"Q573434"},"geometry":{"type":"Point","coordinates":[139.5910054,35.4011711]}},{"type":"Feature","properties":{"station_id":"n355845461","station_name":"Tateba","station_name_local":"立場","network":"横浜市交通局","network_local":null,"operator":"横浜市交通局","city":"Yokohama","country":"Japan","lines":["B"],"wikidata":"Q573441"},"geometry":{"type":"Point","coordinates":[139.5003365,35.4143654]}},{"type":"Feature","properties":{"station_id":"n355845510","station_name":"Shimoiida","station_name_local":"下飯田","network":"横浜市交通局","network_local":null,"operator":"横浜市交通局","city":"Yokohama","country":"Japan","lines":["B"],"wikidata":null},"geometry":{"type":"Point","coordinates":[139.483257,35.403512]}},{"type":"Feature","properties":{"station_id":"n355847363","station_name":"Nakamachidai","station_name_local":"仲町台","network":"横浜市営地下鉄","network_local":"横浜市営地下鉄","operator":"横浜市交通局","city":"Yokohama","country":"Japan","lines":["B"],"wikidata":null},"geometry":{"type":"Point","coordinates":[139.5895284,35.5353413]}},{"type":"Feature","properties":{"station_id":"n2468944535","station_name":"Center Kita","station_name_local":"センター北","network":"横浜市営地下鉄","network_local":"横浜市営地下鉄","operator":"横浜市交通局","city":"Yokohama","country":"Japan","lines":["B"],"wikidata":"Q847363"},"geometry":{"type":"Point","coordinates":[139.5782611,35.5534049]}},{"type":"Feature","properties":{"station_id":"n5227138561","station_name":"Center Kita","station_name_local":"センター北","network":"横浜市営地下鉄","network_local":"横浜市営地下鉄","operator":"横浜市交通局","city":"Yokohama","country":"Japan","lines":["G"],"wikidata":"Q847363"},"geometry":{"type":"Point","coordinates":[139.578635,35.5533142]}},{"type":"Feature","properties":{"station_id":"n5227138562","station_name":"Center Minami","station_name_local":"センター南","network":"横浜市営地下鉄","network_local":"横浜市営地下鉄","operator":"横浜市交通局","city":"Yokohama","country":"Japan","lines":["G"],"wikidata":"Q844629"},"geometry":{"type":"Point","coordinates":[139.5746375,35.5452895]}},{"type":"Feature","properties":{"station_id":"n5248333665","station_name":"Nakamachidai","station_name_local":"仲町台","network":"横浜市営地下鉄","network_local":"横浜市営地下鉄","operator":"横浜市交通局","city":"Yokohama","country":"Japan","lines":["B"],"wikidata":null},"geometry":{"type":"Point","coordinates":[139.5895201,35.5353197]}},{"type":"Feature","properties":{"station_id":"n5454949004","station_name":"Konan-chuo","station_name_local":"港南中央","network":"Unknown","network_local":null,"operator":null,"city":"Yokohama","country":"Japan","lines":["B"],"wikidata":"Q573434"},"geometry":{"type":"Point","coordinates":[139.5911667,35.4011996]}},{"type":"Feature","properties":{"station_id":"n5591788441","station_name":"Kamiooka","station_name_local":"上大岡","network":"横浜市営地下鉄","network_local":"横浜市営地下鉄","operator":"横浜市交通局","city":"Yokohama","country":"Japan","lines":["B"],"wikidata":"Q865627"},"geometry":{"type":"Point","coordinates":[139.5959771,35.4090326]}},{"type":"Feature","properties":{"station_id":"n5591788444","station_name":"Odoriba","station_name_local":"踊場","network":"横浜市交通局","network_local":null,"operator":"横浜市交通局","city":"Yokohama","country":"Japan","lines":["B"],"wikidata":"Q852877"},"geometry":{"type":"Point","coordinates":[139.5185313,35.4056591]}},{"type":"Feature","properties":{"station_id":"n5591788445","station_name":"Maioka","station_name_local":"舞岡","network":"横浜市交通局","network_local":null,"operator":"横浜市交通局","city":"Yokohama","country":"Japan","lines":["B"],"wikidata":"Q904116"},"geometry":{"type":"Point","coordinates":[139.5509416,35.4024586]}},{"type":"Feature","properties":{"station_id":"n5591788446","station_name":"Shimonagaya","station_name_local":"下永谷","network":"横浜市交通局","network_local":null,"operator":"横浜市交通局","city":"Yokohama","country":"Japan","lines":["B"],"wikidata":"Q579066"},"geometry":{"type":"Point","coordinates":[139.5594212,35.4025885]}},{"type":"Feature","properties":{"station_id":"n7601088838","station_name":"Nakamachidai","station_name_local":"仲町台","network":"横浜市営地下鉄","network_local":"横浜市営地下鉄","operator":"横浜市交通局","city":"Yokohama","country":"Japan","lines":["B"],"wikidata":"Q851025"},"geometry":{"type":"Point","coordinates":[139.5896008,35.5353094]}},{"type":"Feature","properties":{"station_id":"n7601120732","station_name":"Tateba","station_name_local":"立場","network":"横浜市交通局","network_local":null,"operator":"横浜市交通局","city":"Yokohama","country":"Japan","lines":["B"],"wikidata":"Q573441"},"geometry":{"type":"Point","coordinates":[139.5001991,35.4142695]}},{"type":"Feature","properties":{"station_id":"n7601120733","station_name":"Tateba","station_name_local":"立場","network":"横浜市交通局","network_local":null,"operator":"横浜市交通局","city":"Yokohama","country":"Japan","lines":["B"],"wikidata":"Q573441"},"geometry":{"type":"Point","coordinates":[139.5003658,35.4142601]}},{"type":"Feature","properties":{"station_id":"n7601124723","station_name":"Shimoiida","station_name_local":"下飯田","network":"横浜市交通局","network_local":null,"operator":"横浜市交通局","city":"Yokohama","country":"Japan","lines":["B"],"wikidata":"Q573742"},"geometry":{"type":"Point","coordinates":[139.4832081,35.4034432]}},{"type":"Feature","properties":{"station_id":"n7601124724","station_name":"Shimoiida","station_name_local":"下飯田","network":"横浜市交通局","network_local":null,"operator":"横浜市交通局","city":"Yokohama","country":"Japan","lines":["B"],"wikidata":null},"geometry":{"type":"Point","coordinates":[139.4832803,35.403448]}},{"type":"Feature","properties":{"station_id":"n7749849503","station_name":"Azamino","station_name_local":"あざみ野","network":"横浜市営地下鉄","network_local":"横浜市営地下鉄","operator":"横浜市交通局","city":"Yokohama","country":"Japan","lines":["B"],"wikidata":"Q852232"},"geometry":{"type":"Point","coordinates":[139.5536107,35.5680456]}},{"type":"Feature","properties":{"station_id":"n7749857151","station_name":"Shonandai","station_name_local":"湘南台","network":"Unknown","network_local":null,"operator":null,"city":"Yokohama","country":"Japan","lines":["B"],"wikidata":"Q126091414"},"geometry":{"type":"Point","coordinates":[139.4670779,35.3964453]}},{"type":"Feature","properties":{"station_id":"n7749865377","station_name":"Totsuka","station_name_local":"戸塚","network":"横浜市交通局","network_local":null,"operator":"横浜市交通局","city":"Yokohama","country":"Japan","lines":["B"],"wikidata":"Q801522"},"geometry":{"type":"Point","coordinates":[139.5350787,35.4011056]}},{"type":"Feature","properties":{"station_id":"n7749865378","station_name":"Nakada","station_name_local":"中田","network":"横浜市交通局","network_local":null,"operator":"横浜市交通局","city":"Yokohama","country":"Japan","lines":["B"],"wikidata":"Q573641"},"geometry":{"type":"Point","coordinates":[139.5113307,35.4111454]}},{"type":"Feature","properties":{"station_id":"n7749869512","station_name":"Nakagawa","station_name_local":"中川","network":"横浜市営地下鉄","network_local":"横浜市営地下鉄","operator":"横浜市交通局","city":"Yokohama","country":"Japan","lines":["B"],"wikidata":"Q573443"},"geometry":{"type":"Point","coordinates":[139.5699517,35.5629066]}},{"type":"Feature","properties":{"station_id":"n7750187059","station_name":"Nippa","station_name_local":"新羽","network":"横浜市営地下鉄","network_local":"横浜市営地下鉄","operator":"横浜市交通局","city":"Yokohama","country":"Japan","lines":["B"],"wikidata":"Q841479"},"geometry":{"type":"Point","coordinates":[139.6120343,35.5274961]}},{"type":"Feature","properties":{"station_id":"n7750187061","station_name":"Center Minami","station_name_local":"センター南","network":"横浜市営地下鉄","network_local":"横浜市営地下鉄","operator":"横浜市交通局","city":"Yokohama","country":"Japan","lines":["B"],"wikidata":"Q844629"},"geometry":{"type":"Point","coordinates":[139.5742694,35.5454101]}},{"type":"Feature","properties":{"station_id":"n7750247043","station_name":"Maita","station_name_local":"蒔田","network":"横浜市営地下鉄","network_local":"横浜市営地下鉄","operator":"横浜市交通局","city":"Yokohama","country":"Japan","lines":["B"],"wikidata":"Q579091"},"geometry":{"type":"Point","coordinates":[139.6099757,35.429909]}},{"type":"Feature","properties":{"station_id":"n7750247044","station_name":"Gumyoji","station_name_local":"弘明寺","network":"横浜市営地下鉄","network_local":"横浜市営地下鉄","operator":"横浜市交通局","city":"Yokohama","country":"Japan","lines":["B"],"wikidata":"Q580349"},"geometry":{"type":"Point","coordinates":[139.6020598,35.4232893]}},{"type":"Feature","properties":{"station_id":"n7750247045","station_name":"Shin-yokohama","station_name_local":"新横浜","network":"横浜市営地下鉄","network_local":"横浜市営地下鉄","operator":"横浜市交通局","city":"Yokohama","country":"Japan","lines":["B"],"wikidata":"Q801437"},"geometry":{"type":"Point","coordinates":[139.6173113,35.5088883]}},{"type":"Feature","properties":{"station_id":"n7750247047","station_name":"Kita-shin-yokohama","station_name_local":"北新横浜","network":"横浜市営地下鉄","network_local":"横浜市営地下鉄","operator":"横浜市交通局","city":"Yokohama","country":"Japan","lines":["B"],"wikidata":"Q852295"},"geometry":{"type":"Point","coordinates":[139.6128054,35.5192766]}},{"type":"Feature","properties":{"station_id":"n7750338822","station_name":"Takashimacho","station_name_local":"高島町","network":"横浜市営地下鉄","network_local":"横浜市営地下鉄","operator":"横浜市交通局","city":"Yokohama","country":"Japan","lines":["B"],"wikidata":"Q850673"},"geometry":{"type":"Point","coordinates":[139.6238581,35.4584508]}},{"type":"Feature","properties":{"station_id":"n7750338823","station_name":"Sakuragicho","station_name_local":"桜木町","network":"横浜市営地下鉄","network_local":"横浜市営地下鉄","operator":"横浜市交通局","city":"Yokohama","country":"Japan","lines":["B"],"wikidata":"Q801396"},"geometry":{"type":"Point","coordinates":[139.630787,35.4496272]}},{"type":"Feature","properties":{"station_id":"n7750338824","station_name":"Kannai","station_name_local":"関内","network":"横浜市営地下鉄","network_local":"横浜市営地下鉄","operator":"横浜市交通局","city":"Yokohama","country":"Japan","lines":["B"],"wikidata":"Q800982"},"geometry":{"type":"Point","coordinates":[139.6367037,35.44533]}},{"type":"Feature","properties":{"station_id":"n7750338825","station_name":"Isezaki-chojamachi","station_name_local":"伊勢佐木長者町","network":"横浜市営地下鉄","network_local":"横浜市営地下鉄","operator":"横浜市交通局","city":"Yokohama","country":"Japan","lines":["B"],"wikidata":"Q841434"},"geometry":{"type":"Point","coordinates":[139.6327993,35.4410015]}},{"type":"Feature","properties":{"station_id":"n7750338826","station_name":"Bandobashi","station_name_local":"阪東橋","network":"横浜市営地下鉄","network_local":"横浜市営地下鉄","operator":"横浜市交通局","city":"Yokohama","country":"Japan","lines":["B"],"wikidata":"Q852854"},"geometry":{"type":"Point","coordinates":[139.6251489,35.4376268]}},{"type":"Feature","properties":{"station_id":"n7750342739","station_name":"Kishine-koen","station_name_local":"岸根公園","network":"横浜市交通局","network_local":null,"operator":"横浜市交通局","city":"Yokohama","country":"Japan","lines":["B"],"wikidata":"Q589898"},"geometry":{"type":"Point","coordinates":[139.6168238,35.4961511]}},{"type":"Feature","properties":{"station_id":"n7750342740","station_name":"Mitsuzawa-kamicho","station_name_local":"三ツ沢上町","network":"横浜市営地下鉄","network_local":"横浜市営地下鉄","operator":"横浜市交通局","city":"Yokohama","country":"Japan","lines":["B"],"wikidata":"Q903553"},"geometry":{"type":"Point","coordinates":[139.6056459,35.4764152]}},{"type":"Feature","properties":{"station_id":"n7750342741","station_name":"Katakuracho","station_name_local":"片倉町","network":"横浜市交通局","network_local":null,"operator":"横浜市交通局","city":"Yokohama","country":"Japan","lines":["B"],"wikidata":"Q589860"},"geometry":{"type":"Point","coordinates":[139.6064834,35.4900761]}},{"type":"Feature","properties":{"station_id":"n7750342742","station_name":"Mitsuzawa-shimocho","station_name_local":"三ツ沢下町","network":"横浜市営地下鉄","network_local":"横浜市営地下鉄","operator":"横浜市交通局","city":"Yokohama","country":"Japan","lines":["B"],"wikidata":"Q589920"},"geometry":{"type":"Point","coordinates":[139.6160911,35.4765085]}},{"type":"Feature","properties":{"station_id":"n7750342743","station_name":"Yokohama","station_name_local":"横浜","network":"横浜市交通局","network_local":null,"operator":"横浜市交通局","city":"Yokohama","country":"Japan","lines":["B"],"wikidata":"Q801658"},"geometry":{"type":"Point","coordinates":[139.6201667,35.4653773]}},{"type":"Feature","properties":{"station_id":"n7750348391","station_name":"Yoshinocho","station_name_local":"吉野町","network":"横浜市営地下鉄","network_local":"横浜市営地下鉄","operator":"横浜市交通局","city":"Yokohama","country":"Japan","lines":["B"],"wikidata":"Q579077"},"geometry":{"type":"Point","coordinates":[139.618715,35.4354327]}},{"type":"Feature","properties":{"station_id":"n7761779877","station_name":"Nishi-shinjuku-gochome","station_name_local":"西新宿五丁目","network":"Toei subway","network_local":"都営地下鉄","operator":"東京都交通局","city":"Yokohama","country":"Japan","lines":["E"],"wikidata":"Q275541"},"geometry":{"type":"Point","coordinates":[139.6845183,35.6898839]}},{"type":"Feature","properties":{"station_id":"n7771245984","station_name":"Nakayama","station_name_local":"中山","network":"横浜市営地下鉄","network_local":"横浜市営地下鉄","operator":"横浜市交通局","city":"Yokohama","country":"Japan","lines":["G"],"wikidata":"Q844670"},"geometry":{"type":"Point","coordinates":[139.5401893,35.5148049]}},{"type":"Feature","properties":{"station_id":"n7772733582","station_name":"Kawawacho","station_name_local":"川和町","network":"横浜市営地下鉄","network_local":"横浜市営地下鉄","operator":"横浜市交通局","city":"Yokohama","country":"Japan","lines":["G"],"wikidata":"Q6379900"},"geometry":{"type":"Point","coordinates":[139.5491595,35.5284798]}},{"type":"Feature","properties":{"station_id":"n7772737929","station_name":"Tsuzuki-fureainooka","station_name_local":"都筑ふれあいの丘","network":"横浜市営地下鉄","network_local":"横浜市営地下鉄","operator":"横浜市交通局","city":"Yokohama","country":"Japan","lines":["G"],"wikidata":"Q7850400"},"geometry":{"type":"Point","coordinates":[139.5612977,35.5365525]}},{"type":"Feature","properties":{"station_id":"n7772745205","station_name":"Hiyoshi","station_name_local":"日吉","network":"横浜市営地下鉄","network_local":"横浜市営地下鉄","operator":"横浜市交通局","city":"Yokohama","country":"Japan","lines":["G"],"wikidata":"Q390392"},"geometry":{"type":"Point","coordinates":[139.6464819,35.5534441]}},{"type":"Feature","properties":{"station_id":"n7772745206","station_name":"Hiyoshi-honcho","station_name_local":"日吉本町","network":"横浜市営地下鉄","network_local":"横浜市営地下鉄","operator":"横浜市交通局","city":"Yokohama","country":"Japan","lines":["G"],"wikidata":"Q5872965"},"geometry":{"type":"Point","coordinates":[139.6336227,35.5500655]}},{"type":"Feature","properties":{"station_id":"n7772745207","station_name":"Takata","station_name_local":"高田","network":"横浜市営地下鉄","network_local":"横浜市営地下鉄","operator":"横浜市交通局","city":"Yokohama","country":"Japan","lines":["G"],"wikidata":"Q7677418"},"geometry":{"type":"Point","coordinates":[139.6200521,35.5496776]}},{"type":"Feature","properties":{"station_id":"n7772745208","station_name":"Higashi-yamata","station_name_local":"東山田","network":"横浜市営地下鉄","network_local":"横浜市営地下鉄","operator":"横浜市交通局","city":"Yokohama","country":"Japan","lines":["G"],"wikidata":"Q11103294"},"geometry":{"type":"Point","coordinates":[139.6046897,35.554173]}},{"type":"Feature","properties":{"station_id":"n7772745209","station_name":"Kita-yamata","station_name_local":"北山田","network":"横浜市営地下鉄","network_local":"横浜市営地下鉄","operator":"横浜市交通局","city":"Yokohama","country":"Japan","lines":["G"],"wikidata":"Q6417619"},"geometry":{"type":"Point","coordinates":[139.5927407,35.5609685]}}]}