{"type":"FeatureCollection","metro_system":{"continent":"south-america","country":"Argentina","city":"Distrito El Resguardo","osm_networks":["MendoTRAN","San Martín;MendoTRAN","Sociedad de Transporte Mendoza"],"operator":"Sociedad de Transporte Mendoza","official_website":"https://stmendoza.com/metrotranvia/","official_map":"https://es.wikipedia.org/wiki/Metrotranvía_de_Mendoza","wikidata":"Q56346144","line_count":1,"station_count":26,"audit":{"strategies_tried":[],"passed":true,"checks":[{"id":"has_lines","ok":true,"detail":"1 lines","level":"error"},{"id":"has_stations","ok":true,"detail":"26 stations","level":"error"},{"id":"stations_have_lines","ok":true,"detail":"26/26 站皆有所屬路線","level":"error"},{"id":"stations_named","ok":true,"detail":"26/26 站有名稱","level":"warn"},{"id":"station_order","ok":true,"detail":"所有線路站序合理","level":"warn"}],"reasons":[],"warnings":[],"audited_at":"2026-07-10T08:36:15.551Z"}},"features":[{"type":"Feature","properties":{"route_id":"rm3413332","route_name":"Metrotranvía de Mendoza","route_name_local":"Metrotranvía de Mendoza","route_ref":"MTM","route_color":"#e6194b","network":"MendoTRAN","network_local":"MendoTRAN","operator":"Sociedad de Transporte Mendoza","city":"Distrito El Resguardo","country":"Argentina","wikidata":"Q56346144","wikipedia":"es:Metrotranvía de Mendoza","osm_route_ids":[2119332,3413331]},"geometry":{"type":"MultiLineString","coordinates":[[[-68.8368594,-32.8397422],[-68.8388309,-32.8473926],[-68.8400062,-32.8523073],[-68.8405932,-32.8550378],[-68.8421448,-32.8597822],[-68.8438413,-32.8664208],[-68.8448017,-32.8700422],[-68.8464934,-32.8763947],[-68.8472614,-32.8793516],[-68.8482178,-32.8828094],[-68.8501841,-32.8903543],[-68.8518922,-32.8967897],[-68.8529737,-32.9045052],[-68.8520059,-32.9086569],[-68.8465095,-32.916004],[-68.8398195,-32.9214901],[-68.833233,-32.9269039],[-68.825957,-32.9328838],[-68.819328,-32.9382849],[-68.8151827,-32.9416919],[-68.8081661,-32.9474038],[-68.8012085,-32.952534],[-68.7952738,-32.9549439],[-68.7895311,-32.9571203],[-68.7827017,-32.9597086]]]}},{"type":"Feature","properties":{"station_id":"n7063747983","station_name":"Pedro Molina","station_name_local":"Pedro Molina","network":"MendoTRAN","network_local":"MendoTRAN","operator":"Sociedad de Transporte Mendoza","city":"Distrito El Resguardo","country":"Argentina","lines":["MTM"],"wikidata":"Q18417798"},"geometry":{"type":"Point","coordinates":[-68.8518534,-32.8967962]}},{"type":"Feature","properties":{"station_id":"n7063747984","station_name":"25 de Mayo","station_name_local":"25 de Mayo","network":"MendoTRAN","network_local":"MendoTRAN","operator":"Sociedad de Transporte Mendoza","city":"Distrito El Resguardo","country":"Argentina","lines":["MTM"],"wikidata":"Q18417766"},"geometry":{"type":"Point","coordinates":[-68.8529455,-32.9045023]}},{"type":"Feature","properties":{"station_id":"n7063751285","station_name":"Lugones","station_name_local":"Lugones","network":"MendoTRAN","network_local":"MendoTRAN","operator":"Sociedad de Transporte Mendoza","city":"Distrito El Resguardo","country":"Argentina","lines":["MTM"],"wikidata":null},"geometry":{"type":"Point","coordinates":[-68.8447742,-32.8700478]}},{"type":"Feature","properties":{"station_id":"n7063751286","station_name":"Belgrano","station_name_local":"Belgrano","network":"MendoTRAN","network_local":"MendoTRAN","operator":"Sociedad de Transporte Mendoza","city":"Distrito El Resguardo","country":"Argentina","lines":["MTM"],"wikidata":"Q18417775"},"geometry":{"type":"Point","coordinates":[-68.8501464,-32.8903649]}},{"type":"Feature","properties":{"station_id":"n7063751287","station_name":"Mendoza","station_name_local":"Mendoza","network":"San Martín;MendoTRAN","network_local":"San Martín;MendoTRAN","operator":"Sociedad de Transporte Mendoza","city":"Distrito El Resguardo","country":"Argentina","lines":["MTM"],"wikidata":"Q5843719"},"geometry":{"type":"Point","coordinates":[-68.848188,-32.8828225]}},{"type":"Feature","properties":{"station_id":"n7066080930","station_name":"Independencia","station_name_local":"Independencia","network":"MendoTRAN","network_local":"MendoTRAN","operator":"Sociedad de Transporte Mendoza","city":"Distrito El Resguardo","country":"Argentina","lines":["MTM"],"wikidata":"Q18417785"},"geometry":{"type":"Point","coordinates":[-68.8259466,-32.9328718]}},{"type":"Feature","properties":{"station_id":"n7066080931","station_name":"9 de Julio","station_name_local":"9 de Julio","network":"MendoTRAN","network_local":"MendoTRAN","operator":"Sociedad de Transporte Mendoza","city":"Distrito El Resguardo","country":"Argentina","lines":["MTM"],"wikidata":"Q18417770"},"geometry":{"type":"Point","coordinates":[-68.8151754,-32.9416693]}},{"type":"Feature","properties":{"station_id":"n7066080932","station_name":"Luzuriaga","station_name_local":"Luzuriaga","network":"MendoTRAN","network_local":"MendoTRAN","operator":"Sociedad de Transporte Mendoza","city":"Distrito El Resguardo","country":"Argentina","lines":["MTM"],"wikidata":"Q18417789"},"geometry":{"type":"Point","coordinates":[-68.8081905,-32.9473697]}},{"type":"Feature","properties":{"station_id":"n7066080933","station_name":"Piedra Buena","station_name_local":"Piedra Buena","network":"MendoTRAN","network_local":"MendoTRAN","operator":"Sociedad de Transporte Mendoza","city":"Distrito El Resguardo","country":"Argentina","lines":["MTM"],"wikidata":"Q18417803"},"geometry":{"type":"Point","coordinates":[-68.80122,-32.9525104]}},{"type":"Feature","properties":{"station_id":"n7066080934","station_name":"Maza","station_name_local":"Maza","network":"MendoTRAN","network_local":"MendoTRAN","operator":"Sociedad de Transporte Mendoza","city":"Distrito El Resguardo","country":"Argentina","lines":["MTM"],"wikidata":"Q18417792"},"geometry":{"type":"Point","coordinates":[-68.7895263,-32.9571095]}},{"type":"Feature","properties":{"station_id":"n7066080935","station_name":"Progreso","station_name_local":"Progreso","network":"MendoTRAN","network_local":"MendoTRAN","operator":"Sociedad de Transporte Mendoza","city":"Distrito El Resguardo","country":"Argentina","lines":["MTM"],"wikidata":"Q18417805"},"geometry":{"type":"Point","coordinates":[-68.8332159,-32.9268884]}},{"type":"Feature","properties":{"station_id":"n7066080936","station_name":"Alta Italia","station_name_local":"Alta Italia","network":"MendoTRAN","network_local":"MendoTRAN","operator":"Sociedad de Transporte Mendoza","city":"Distrito El Resguardo","country":"Argentina","lines":["MTM"],"wikidata":"Q18417772"},"geometry":{"type":"Point","coordinates":[-68.7952652,-32.9549229]}},{"type":"Feature","properties":{"station_id":"n7067998371","station_name":"Marcos Burgos","station_name_local":"Marcos Burgos","network":"MendoTRAN","network_local":"MendoTRAN","operator":"Sociedad de Transporte Mendoza","city":"Distrito El Resguardo","country":"Argentina","lines":["MTM"],"wikidata":null},"geometry":{"type":"Point","coordinates":[-68.8388086,-32.8473991]}},{"type":"Feature","properties":{"station_id":"n7067998372","station_name":"Avellaneda","station_name_local":"Avellaneda","network":"Sociedad de Transporte Mendoza","network_local":null,"operator":"Sociedad de Transporte Mendoza","city":"Distrito El Resguardo","country":"Argentina","lines":["MTM"],"wikidata":null},"geometry":{"type":"Point","coordinates":[-68.8368363,-32.8397466]}},{"type":"Feature","properties":{"station_id":"n7067998373","station_name":"Pellegrini","station_name_local":"Pellegrini","network":"MendoTRAN","network_local":"MendoTRAN","operator":"Sociedad de Transporte Mendoza","city":"Distrito El Resguardo","country":"Argentina","lines":["MTM"],"wikidata":"Q19276967","merged_from":2},"geometry":{"type":"Point","coordinates":[-68.85203595,-32.90866475]}},{"type":"Feature","properties":{"station_id":"n7067998375","station_name":"San Martín","station_name_local":"San Martín","network":"MendoTRAN","network_local":"MendoTRAN","operator":"Sociedad de Transporte Mendoza","city":"Distrito El Resguardo","country":"Argentina","lines":["MTM"],"wikidata":"Q18417807"},"geometry":{"type":"Point","coordinates":[-68.8465042,-32.9159929]}},{"type":"Feature","properties":{"station_id":"n7080840925","station_name":"Godoy Cruz","station_name_local":"Godoy Cruz","network":"MendoTRAN","network_local":"MendoTRAN","operator":"Sociedad de Transporte Mendoza","city":"Distrito El Resguardo","country":"Argentina","lines":["MTM"],"wikidata":"Q18417779"},"geometry":{"type":"Point","coordinates":[-68.8398063,-32.9214836]}},{"type":"Feature","properties":{"station_id":"n7089844998","station_name":"José María Godoy","station_name_local":"José María Godoy","network":"MendoTRAN","network_local":"MendoTRAN","operator":"Sociedad de Transporte Mendoza","city":"Distrito El Resguardo","country":"Argentina","lines":["MTM"],"wikidata":null},"geometry":{"type":"Point","coordinates":[-68.8421051,-32.8597961]}},{"type":"Feature","properties":{"station_id":"n7089844999","station_name":"Patricias Mendocinas","station_name_local":"Patricias Mendocinas","network":"MendoTRAN","network_local":"MendoTRAN","operator":"Sociedad de Transporte Mendoza","city":"Distrito El Resguardo","country":"Argentina","lines":["MTM"],"wikidata":null},"geometry":{"type":"Point","coordinates":[-68.84055,-32.8550483]}},{"type":"Feature","properties":{"station_id":"n7089845000","station_name":"General Roca","station_name_local":"General Roca","network":"MendoTRAN","network_local":"MendoTRAN","operator":"Sociedad de Transporte Mendoza","city":"Distrito El Resguardo","country":"Argentina","lines":["MTM"],"wikidata":null},"geometry":{"type":"Point","coordinates":[-68.8399804,-32.8523123]}},{"type":"Feature","properties":{"station_id":"n7089852934","station_name":"Coronel Moldes","station_name_local":"Coronel Moldes","network":"MendoTRAN","network_local":"MendoTRAN","operator":"Sociedad de Transporte Mendoza","city":"Distrito El Resguardo","country":"Argentina","lines":["MTM"],"wikidata":null},"geometry":{"type":"Point","coordinates":[-68.8464551,-32.8763767]}},{"type":"Feature","properties":{"station_id":"n7089853255","station_name":"Suipacha","station_name_local":"Suipacha","network":"MendoTRAN","network_local":"MendoTRAN","operator":"Sociedad de Transporte Mendoza","city":"Distrito El Resguardo","country":"Argentina","lines":["MTM"],"wikidata":null},"geometry":{"type":"Point","coordinates":[-68.8472337,-32.8793593]}},{"type":"Feature","properties":{"station_id":"n7089862693","station_name":"Rubilar","station_name_local":"Rubilar","network":"MendoTRAN","network_local":"MendoTRAN","operator":"Sociedad de Transporte Mendoza","city":"Distrito El Resguardo","country":"Argentina","lines":["MTM"],"wikidata":null},"geometry":{"type":"Point","coordinates":[-68.8437964,-32.8664182]}},{"type":"Feature","properties":{"station_id":"n7098749745","station_name":"Gutiérrez","station_name_local":"Gutiérrez","network":"MendoTRAN","network_local":"MendoTRAN","operator":"Sociedad de Transporte Mendoza","city":"Distrito El Resguardo","country":"Argentina","lines":["MTM"],"wikidata":"Q5842425"},"geometry":{"type":"Point","coordinates":[-68.7826913,-32.9596867]}},{"type":"Feature","properties":{"station_id":"n8943042988","station_name":"Parque TIC","station_name_local":"Parque TIC","network":"MendoTRAN","network_local":"MendoTRAN","operator":"Sociedad de Transporte Mendoza","city":"Distrito El Resguardo","country":"Argentina","lines":["MTM"],"wikidata":null},"geometry":{"type":"Point","coordinates":[-68.8193411,-32.9382452]}},{"type":"Feature","properties":{"station_id":"n13963232299","station_name":"Chacabuco","station_name_local":"Chacabuco","network":"MendoTRAN","network_local":"MendoTRAN","operator":"Sociedad de Transporte Mendoza","city":"Distrito El Resguardo","country":"Argentina","lines":["MTM"],"wikidata":null},"geometry":{"type":"Point","coordinates":[-68.8508352,-32.9169729]}}]}