{"type":"FeatureCollection","metro_system":{"continent":"asia","country":"Armenia","city":"Yerevan","osm_networks":["Երևանի մետրոպոլիտեն","Կարեն Դեմիրճյանի անվան Երևանի մետրոպոլիտեն"],"operator":null,"official_website":null,"official_map":null,"wikidata":"Q10318696","line_count":1,"station_count":16},"features":[{"type":"Feature","properties":{"route_id":"rm7963913","route_name":"Yerevan Metro Line 1","route_name_local":"Երևանի մետրո","route_ref":"1","route_color":"#e6194b","network":"Երևանի մետրոպոլիտեն","network_local":"Երևանի մետրոպոլիտեն","operator":null,"city":"Yerevan","country":"Armenia","wikidata":"Q10318696","wikipedia":null,"osm_route_ids":[444608,7692726,7963911,7963912]},"geometry":{"type":"MultiLineString","coordinates":[[[44.4825993,40.1503282],[44.4858347,40.1448706],[44.4987077,40.1410281],[44.5072398,40.1546001],[44.5122631,40.1711791],[44.5156444,40.1775292],[44.5199888,40.1861679],[44.507903,40.1915667],[44.4951329,40.1970066]],[[44.4950125,40.1968713],[44.5078872,40.1914218],[44.51979,40.1862229],[44.5154458,40.1775842],[44.512157,40.1713188],[44.507062,40.1546048],[44.4986192,40.1411101],[44.4858698,40.1449615],[44.4826866,40.1502615]],[[44.4708702,40.1406394],[44.4858698,40.1449615]]]}},{"type":"Feature","properties":{"station_id":"n386606120","station_name":"Garegin Nzhdeh Square","station_name_local":"Գարեգին Նժդեհի հրապարակ","network":"Կարեն Դեմիրճյանի անվան Երևանի մետրոպոլիտեն","network_local":null,"operator":"Կարեն Դեմիրճյանի անվան Երևանի մետրոպոլիտեն","city":"Yerevan","country":"Armenia","lines":["1"],"wikidata":"Q2498675"},"geometry":{"type":"Point","coordinates":[44.4826866,40.1502615]}},{"type":"Feature","properties":{"station_id":"n386620230","station_name":"Shengavit","station_name_local":"Շենգավիթ","network":"Կարեն Դեմիրճյանի անվան Երևանի մետրոպոլիտեն","network_local":null,"operator":"Կարեն Դեմիրճյանի անվան Երևանի մետրոպոլիտեն","city":"Yerevan","country":"Armenia","lines":["1"],"wikidata":null},"geometry":{"type":"Point","coordinates":[44.4858698,40.1449615]}},{"type":"Feature","properties":{"station_id":"n2511450211","station_name":"Charbakh","station_name_local":"Չարբախ","network":"Կարեն Դեմիրճյանի անվան Երևանի մետրոպոլիտեն","network_local":null,"operator":"Կարեն Դեմիրճյանի անվան Երևանի մետրոպոլիտեն","city":"Yerevan","country":"Armenia","lines":["1"],"wikidata":"Q3918517"},"geometry":{"type":"Point","coordinates":[44.4708702,40.1406394]}},{"type":"Feature","properties":{"station_id":"n5221567806","station_name":"Garegin Nzhdeh Square","station_name_local":"Գարեգին Նժդեհի հրապարակ","network":"Կարեն Դեմիրճյանի անվան Երևանի մետրոպոլիտեն","network_local":null,"operator":"Կարեն Դեմիրճյանի անվան Երևանի մետրոպոլիտեն","city":"Yerevan","country":"Armenia","lines":["1"],"wikidata":"Q2498675"},"geometry":{"type":"Point","coordinates":[44.4825993,40.1503282]}},{"type":"Feature","properties":{"station_id":"n5332867819","station_name":"Sasuntsi David","station_name_local":"Սասունցի Դավիթ","network":"Կարեն Դեմիրճյանի անվան Երևանի մետրոպոլիտեն","network_local":null,"operator":"Կարեն Դեմիրճյանի անվան Երևանի մետրոպոլիտեն","city":"Yerevan","country":"Armenia","lines":["1"],"wikidata":"Q3473832"},"geometry":{"type":"Point","coordinates":[44.5071543,40.1546043]}},{"type":"Feature","properties":{"station_id":"n5332871621","station_name":"Gortsaranayin","station_name_local":"Գործարանային","network":"Կարեն Դեմիրճյանի անվան Երևանի մետրոպոլիտեն","network_local":null,"operator":"Կարեն Դեմիրճյանի անվան Երևանի մետրոպոլիտեն","city":"Yerevan","country":"Armenia","lines":["1"],"wikidata":"Q4145969"},"geometry":{"type":"Point","coordinates":[44.4986555,40.1410698]}},{"type":"Feature","properties":{"station_id":"n5332871622","station_name":"Gortsaranayin","station_name_local":"Գործարանային","network":"Կարեն Դեմիրճյանի անվան Երևանի մետրոպոլիտեն","network_local":null,"operator":"Կարեն Դեմիրճյանի անվան Երևանի մետրոպոլիտեն","city":"Yerevan","country":"Armenia","lines":["1"],"wikidata":"Q4145969"},"geometry":{"type":"Point","coordinates":[44.4987077,40.1410281]}},{"type":"Feature","properties":{"station_id":"n5332871623","station_name":"Garegin Nzhdeh Square","station_name_local":"Գարեգին Նժդեհի հրապարակ","network":"Կարեն Դեմիրճյանի անվան Երևանի մետրոպոլիտեն","network_local":null,"operator":"Կարեն Դեմիրճյանի անվան Երևանի մետրոպոլիտեն","city":"Yerevan","country":"Armenia","lines":["1"],"wikidata":"Q2498675"},"geometry":{"type":"Point","coordinates":[44.4832767,40.1507695]}},{"type":"Feature","properties":{"station_id":"n5332871624","station_name":"Shengavit","station_name_local":"Շենգավիթ","network":"Կարեն Դեմիրճյանի անվան Երևանի մետրոպոլիտեն","network_local":null,"operator":"Կարեն Դեմիրճյանի անվան Երևանի մետրոպոլիտեն","city":"Yerevan","country":"Armenia","lines":["1"],"wikidata":"Q3918537"},"geometry":{"type":"Point","coordinates":[44.4858505,40.1449161]}},{"type":"Feature","properties":{"station_id":"n5332871625","station_name":"Shengavit","station_name_local":"Շենգավիթ","network":"Կարեն Դեմիրճյանի անվան Երևանի մետրոպոլիտեն","network_local":null,"operator":"Կարեն Դեմիրճյանի անվան Երևանի մետրոպոլիտեն","city":"Yerevan","country":"Armenia","lines":["1"],"wikidata":null},"geometry":{"type":"Point","coordinates":[44.4858347,40.1448706]}},{"type":"Feature","properties":{"station_id":"n5377634301","station_name":"General Andranik","station_name_local":"Զորավար Անդրանիկ","network":"Կարեն Դեմիրճյանի անվան Երևանի մետրոպոլիտեն","network_local":null,"operator":"Կարեն Դեմիրճյանի անվան Երևանի մետրոպոլիտեն","city":"Yerevan","country":"Armenia","lines":["1"],"wikidata":"Q3576098"},"geometry":{"type":"Point","coordinates":[44.5121889,40.1712527]}},{"type":"Feature","properties":{"station_id":"n5377634303","station_name":"Republic Square","station_name_local":"Հանրապետության Հրապարակ","network":"Կարեն Դեմիրճյանի անվան Երևանի մետրոպոլիտեն","network_local":null,"operator":"Կարեն Դեմիրճյանի անվան Երևանի մետրոպոլիտեն","city":"Yerevan","country":"Armenia","lines":["1"],"wikidata":"Q3390443"},"geometry":{"type":"Point","coordinates":[44.5155349,40.1775813]}},{"type":"Feature","properties":{"station_id":"n5377634304","station_name":"Yeritasardakan","station_name_local":"Երիտասարդական","network":"Կարեն Դեմիրճյանի անվան Երևանի մետրոպոլիտեն","network_local":null,"operator":"Կարեն Դեմիրճյանի անվան Երևանի մետրոպոլիտեն","city":"Yerevan","country":"Armenia","lines":["1"],"wikidata":"Q3572188"},"geometry":{"type":"Point","coordinates":[44.519885,40.1862126]}},{"type":"Feature","properties":{"station_id":"n5377634306","station_name":"Marshal Baghramyan","station_name_local":"Մարշալ Բաղրամյան","network":"Կարեն Դեմիրճյանի անվան Երևանի մետրոպոլիտեն","network_local":null,"operator":"Կարեն Դեմիրճյանի անվան Երևանի մետրոպոլիտեն","city":"Yerevan","country":"Armenia","lines":["1"],"wikidata":"Q3289683"},"geometry":{"type":"Point","coordinates":[44.5078951,40.1914943]}},{"type":"Feature","properties":{"station_id":"n5377634307","station_name":"Barekamutyun","station_name_local":"Բարեկամություն","network":"Կարեն Դեմիրճյանի անվան Երևանի մետրոպոլիտեն","network_local":null,"operator":"Կարեն Դեմիրճյանի անվան Երևանի մետրոպոլիտեն","city":"Yerevan","country":"Armenia","lines":["1"],"wikidata":"Q2061891"},"geometry":{"type":"Point","coordinates":[44.4950315,40.19694]}},{"type":"Feature","properties":{"station_id":"n10767372552","station_name":"Charbakh","station_name_local":"Չարբախ","network":"Կարեն Դեմիրճյանի անվան Երևանի մետրոպոլիտեն","network_local":null,"operator":"Կարեն Դեմիրճյանի անվան Երևանի մետրոպոլիտեն","city":"Yerevan","country":"Armenia","lines":["1"],"wikidata":"Q3918517"},"geometry":{"type":"Point","coordinates":[44.470778,40.1407315]}}]}