{"type":"FeatureCollection","metro_system":{"continent":"europe","country":"Norway","city":"Oslo","osm_networks":["Ruter","Unknown"],"operator":"Sporveien T-banen","official_website":null,"official_map":"https://en.wikipedia.org/wiki/Ruter","wikidata":"Q15731046","line_count":5,"station_count":85,"audit":{"strategies_tried":[],"passed":true,"checks":[{"id":"system_exists","ok":true,"detail":"matched OSM system systems/europe/norway/europe-norway-oslo.geojson","level":"error"},{"id":"has_lines","ok":true,"detail":"5 lines","level":"error"},{"id":"has_stations","ok":true,"detail":"85 stations","level":"error"},{"id":"station_ratio","ok":true,"detail":"OSM 85 vs Wikipedia 101（比值 0.84）","level":"error"},{"id":"stations_have_lines","ok":true,"detail":"85/85 站皆有所屬路線","level":"error"},{"id":"stations_named","ok":true,"detail":"85/85 站有名稱","level":"warn"},{"id":"station_order","ok":true,"detail":"所有線路站序合理","level":"warn"}],"reasons":[],"warnings":[],"audited_at":"2026-07-10T07:57:03.397Z"}},"features":[{"type":"Feature","properties":{"route_id":"rm2827680","route_name":"4 Bergkrystallen → Majorstuen → Vestli","route_name_local":"4 Bergkrystallen → Majorstuen → Vestli","route_ref":"4","route_color":"#004a98","network":"Ruter","network_local":"Ruter","operator":"Sporveien T-banen","city":"Oslo","country":"Norway","wikidata":"Q15731046","wikipedia":"en:Ruter","osm_route_ids":[421527,2826133]},"geometry":{"type":"MultiLineString","coordinates":[[[10.8209367,59.8671388],[10.8126312,59.868965],[10.8104035,59.8733679],[10.8053038,59.8807186],[10.8011094,59.8874006],[10.8047372,59.8956541],[10.8127818,59.897992],[10.8198288,59.9059128],[10.8119276,59.909208],[10.8010183,59.9127496],[10.7877305,59.913791],[10.7758131,59.9156223],[10.7601473,59.9128099],[10.7516943,59.9122248],[10.7432059,59.9134588],[10.7319389,59.9156013],[10.7148295,59.9301335],[10.7160898,59.9401125],[10.7208948,59.9436915],[10.7321676,59.9467771],[10.7658868,59.949256],[10.7784095,59.9446075],[10.7816216,59.9373533],[10.7902281,59.9297807],[10.8062869,59.9282441],[10.8231582,59.9324941],[10.8311317,59.9358722],[10.8385349,59.9409761],[10.8469651,59.9445167],[10.8594265,59.9513746],[10.8669968,59.954773],[10.8719539,59.9582382],[10.8806957,59.9614055],[10.8927177,59.9625193],[10.9095944,59.9620548],[10.9228329,59.9621202],[10.9296858,59.9727541]]]}},{"type":"Feature","properties":{"route_id":"rm2890637","route_name":"1 Bergkrystallen → Frognerseteren","route_name_local":"1 Bergkrystallen → Frognerseteren","route_ref":"1","route_color":"#0073db","network":"Ruter","network_local":"Ruter","operator":"Sporveien T-banen","city":"Oslo","country":"Norway","wikidata":"Q15731038","wikipedia":"en:Ruter","osm_route_ids":[451860,2890636,6099199,6099200]},"geometry":{"type":"MultiLineString","coordinates":[[[10.8209367,59.8671388],[10.8126312,59.868965],[10.8104035,59.8733679],[10.8053038,59.8807186],[10.8011094,59.8874006],[10.8047372,59.8956541],[10.8127818,59.897992],[10.8198288,59.9059128],[10.8119276,59.909208],[10.8010183,59.9127496],[10.7877305,59.913791],[10.7758131,59.9156223],[10.7601473,59.9128099],[10.7516943,59.9122248],[10.7432059,59.9134588],[10.7319389,59.9156013],[10.7148295,59.9301335],[10.7093989,59.9344125],[10.7044583,59.9389885],[10.7044112,59.9419873],[10.7098301,59.9455922],[10.7049337,59.9479354],[10.6943385,59.9509997],[10.7015336,59.9549473],[10.6970247,59.9557434],[10.6958255,59.9596598],[10.6908466,59.9617763],[10.6830139,59.961344],[10.6742218,59.9579748],[10.6628236,59.9603124],[10.6548558,59.9669311],[10.6474864,59.9753702],[10.6533133,59.980327],[10.6653414,59.9800387],[10.6756982,59.9790799]],[[10.6766344,59.9791178],[10.6653007,59.9800784],[10.652584,59.9807091],[10.6474955,59.9750503],[10.6548282,59.9668957],[10.6627086,59.9602991],[10.6733667,59.9576815],[10.6830798,59.9613099],[10.6908389,59.9617087],[10.6955077,59.9601463],[10.696072,59.9559774],[10.7013945,59.9549101],[10.6943596,59.9509017],[10.704165,59.9481707],[10.710358,59.9460976],[10.7049884,59.9428015],[10.7043885,59.9389824],[10.7089418,59.9344845],[10.7147236,59.9300851],[10.7319033,59.9155489],[10.7431953,59.913427],[10.7516885,59.9121868],[10.7601448,59.9127748],[10.7758679,59.9156025],[10.78769,59.9137566],[10.8009919,59.9127162]]]}},{"type":"Feature","properties":{"route_id":"rm2636245","route_name":"2 Ellingsrudåsen → Østerås","route_name_local":"2 Ellingsrudåsen → Østerås","route_ref":"2","route_color":"#ec700c","network":"Ruter","network_local":"Ruter","operator":"Sporveien T-banen","city":"Oslo","country":"Norway","wikidata":"Q15731043","wikipedia":"en:Ruter","osm_route_ids":[452520,2636244]},"geometry":{"type":"MultiLineString","coordinates":[[[10.9152724,59.9367547],[10.8963787,59.9410757],[10.88268,59.933167],[10.865216,59.9271969],[10.8544957,59.9221249],[10.8422047,59.9140434],[10.8298327,59.9100822],[10.8119476,59.9093101],[10.8010183,59.9127496],[10.7877305,59.913791],[10.7758131,59.9156223],[10.7601473,59.9128099],[10.7516943,59.9122248],[10.7432059,59.9134588],[10.7319389,59.9156013],[10.7148295,59.9301335],[10.6957237,59.9346305],[10.684569,59.937147],[10.6738684,59.9417607],[10.6677377,59.9459164],[10.6540359,59.9463222],[10.6442729,59.9467468],[10.6377336,59.9497938],[10.6239328,59.9473269],[10.6164305,59.940846],[10.6087705,59.9394304]],[[10.6087705,59.9394304],[10.6165006,59.9408375],[10.6225018,59.9466651],[10.636518,59.9506083],[10.6442302,59.9467081],[10.6559573,59.9464404],[10.6676693,59.9458823],[10.6737647,59.9418582],[10.6836327,59.9373123],[10.6957092,59.9345955],[10.7147236,59.9300851],[10.7319033,59.9155489],[10.7431953,59.913427],[10.7516885,59.9121868],[10.7601448,59.9127748],[10.7758679,59.9156025],[10.78769,59.9137566],[10.8009919,59.9127162],[10.8119396,59.9092737],[10.8298455,59.9100516],[10.8422797,59.9140186],[10.8545517,59.9221069],[10.8652355,59.927158],[10.8827347,59.9331422],[10.8964337,59.9410503],[10.9152286,59.9367263]]]}},{"type":"Feature","properties":{"route_id":"rm2635252","route_name":"3 Mortensrud → Kolsås","route_name_local":"3 Mortensrud → Kolsås","route_ref":"3","route_color":"#a85fa5","network":"Ruter","network_local":"Ruter","operator":"Sporveien T-banen","city":"Oslo","country":"Norway","wikidata":"Q4544753","wikipedia":"no:Kolsåsbanen","osm_route_ids":[453207,2635251,6104597,6104599]},"geometry":{"type":"MultiLineString","coordinates":[[[10.8296673,59.8492806],[10.840185,59.8667927],[10.8421528,59.8762172],[10.8455565,59.8842557],[10.8494745,59.8895888],[10.8398649,59.893003],[10.8367208,59.8992349],[10.835934,59.9072038],[10.8298327,59.9100822],[10.8119476,59.9093101],[10.8010183,59.9127496],[10.7877305,59.913791],[10.7758131,59.9156223],[10.7601473,59.9128099],[10.7516943,59.9122248],[10.7432059,59.9134588],[10.7319389,59.9156013],[10.7148295,59.9301335],[10.6957237,59.9346305],[10.684569,59.937147],[10.6663799,59.9348498],[10.6559453,59.9314982],[10.6483174,59.9288821],[10.6344447,59.9265368],[10.6182824,59.9257828],[10.6043914,59.9201463],[10.5902447,59.9174492],[10.5801068,59.9150828],[10.5652895,59.9151793],[10.5482869,59.913108],[10.5306453,59.908543],[10.5098084,59.9111855],[10.5017855,59.914088]]]}},{"type":"Feature","properties":{"route_id":"rm2640907","route_name":"5 Vestli → Ringen → Sognsvann","route_name_local":"5 Vestli → Ringen → Sognsvann","route_ref":"5","route_color":"#32aa35","network":"Ruter","network_local":"Ruter","operator":"Sporveien T-banen","city":"Oslo","country":"Norway","wikidata":"Q15731051","wikipedia":"en:Oslo Metro","osm_route_ids":[453461,2640903]},"geometry":{"type":"MultiLineString","coordinates":[[[10.929614,59.9727529],[10.922809,59.9621589],[10.9096185,59.9620899],[10.8926908,59.9625545],[10.8806958,59.9614424],[10.871907,59.9582672],[10.8669173,59.9547836],[10.8594076,59.9514129],[10.846913,59.9445427],[10.8384864,59.9410052],[10.8310597,59.9358803],[10.8231081,59.9325223],[10.8062685,59.9282792],[10.7946991,59.924379],[10.7795926,59.9258326],[10.7761151,59.9161876],[10.7601473,59.9128099],[10.7516943,59.9122248],[10.7432059,59.9134588],[10.7319389,59.9156013],[10.7148295,59.9301335],[10.7160898,59.9401125],[10.7208948,59.9436915],[10.7321676,59.9467771],[10.7658868,59.949256],[10.7784095,59.9446075],[10.7816216,59.9373533],[10.7795926,59.9258326],[10.7761151,59.9161876],[10.7601473,59.9128099],[10.7516943,59.9122248],[10.7432059,59.9134588],[10.7319389,59.9156013],[10.7148295,59.9301335],[10.7160898,59.9401125],[10.7208948,59.9436915],[10.7321676,59.9467771],[10.7463455,59.9512875],[10.7520597,59.9543235],[10.749285,59.9573421],[10.740094,59.9606886],[10.7348332,59.9641559],[10.7341118,59.9664876]]]}},{"type":"Feature","properties":{"station_id":"n25703622","station_name":"Voksenkollen","station_name_local":"Voksenkollen","network":"Ruter","network_local":"Ruter","operator":"Sporveien T-banen","city":"Oslo","country":"Norway","lines":["1"],"wikidata":"Q7939938"},"geometry":{"type":"Point","coordinates":[10.6652973,59.9800631]}},{"type":"Feature","properties":{"station_id":"n290640613","station_name":"Furuset","station_name_local":"Furuset","network":"Ruter","network_local":"Ruter","operator":"Sporveien T-banen","city":"Oslo","country":"Norway","lines":["2"],"wikidata":"Q5509817"},"geometry":{"type":"Point","coordinates":[10.8963987,59.9410674]}},{"type":"Feature","properties":{"station_id":"n668188776","station_name":"Ellingsrudåsen","station_name_local":"Ellingsrudåsen","network":"Ruter","network_local":"Ruter","operator":"Sporveien T-banen","city":"Oslo","country":"Norway","lines":["2"],"wikidata":"Q5365402"},"geometry":{"type":"Point","coordinates":[10.9152505,59.9367405]}},{"type":"Feature","properties":{"station_id":"n1687397331","station_name":"Bekkestua","station_name_local":"Bekkestua","network":"Ruter","network_local":"Ruter","operator":"Sporveien T-banen","city":"Oslo","country":"Norway","lines":["3"],"wikidata":"Q4881649"},"geometry":{"type":"Point","coordinates":[10.5900467,59.9173125]}},{"type":"Feature","properties":{"station_id":"n2274012035","station_name":"Majorstuen","station_name_local":"Majorstuen","network":"Ruter","network_local":"Ruter","operator":"Sporveien T-banen","city":"Oslo","country":"Norway","lines":["1","2","3","4","5"],"wikidata":null},"geometry":{"type":"Point","coordinates":[10.7147788,59.9301113]}},{"type":"Feature","properties":{"station_id":"n5206900305","station_name":"Karlsrud","station_name_local":"Karlsrud","network":"Ruter","network_local":"Ruter","operator":"Sporveien T-banen","city":"Oslo","country":"Norway","lines":["1","4"],"wikidata":"Q6372589"},"geometry":{"type":"Point","coordinates":[10.8052744,59.8807166]}},{"type":"Feature","properties":{"station_id":"n5206912738","station_name":"Hellerud","station_name_local":"Hellerud","network":"Ruter","network_local":"Ruter","operator":"Sporveien T-banen","city":"Oslo","country":"Norway","lines":["2","3"],"wikidata":"Q5707435"},"geometry":{"type":"Point","coordinates":[10.8298389,59.9100673]}},{"type":"Feature","properties":{"station_id":"n5206918160","station_name":"Kolsås","station_name_local":"Kolsås","network":"Ruter","network_local":"Ruter","operator":"Sporveien T-banen","city":"Oslo","country":"Norway","lines":["3"],"wikidata":"Q6427903"},"geometry":{"type":"Point","coordinates":[10.5017133,59.9140604]}},{"type":"Feature","properties":{"station_id":"n5218231660","station_name":"National Theatre","station_name_local":"Nationaltheatret","network":"Ruter","network_local":"Ruter","operator":"Sporveien T-banen","city":"Oslo","country":"Norway","lines":["1","2","3","4","5"],"wikidata":"Q13218297"},"geometry":{"type":"Point","coordinates":[10.7319265,59.9155792]}},{"type":"Feature","properties":{"station_id":"n5218231661","station_name":"Smestad","station_name_local":"Smestad","network":"Ruter","network_local":"Ruter","operator":"Sporveien T-banen","city":"Oslo","country":"Norway","lines":["2","3"],"wikidata":"Q7544475"},"geometry":{"type":"Point","coordinates":[10.6841674,59.9372195]}},{"type":"Feature","properties":{"station_id":"n5218231662","station_name":"Forskningsparken","station_name_local":"Forskningsparken","network":"Ruter","network_local":"Ruter","operator":"Sporveien T-banen","city":"Oslo","country":"Norway","lines":["4","5"],"wikidata":"Q5470604"},"geometry":{"type":"Point","coordinates":[10.7208514,59.9437046]}},{"type":"Feature","properties":{"station_id":"n5218231663","station_name":"Blindern","station_name_local":"Blindern","network":"Ruter","network_local":"Ruter","operator":"Sporveien T-banen","city":"Oslo","country":"Norway","lines":["4","5"],"wikidata":"Q4926692"},"geometry":{"type":"Point","coordinates":[10.716072,59.9401338]}},{"type":"Feature","properties":{"station_id":"n5218231664","station_name":"Sinsen","station_name_local":"Sinsen","network":"Ruter","network_local":"Ruter","operator":"Sporveien T-banen","city":"Oslo","country":"Norway","lines":["4","5"],"wikidata":null},"geometry":{"type":"Point","coordinates":[10.78183,59.9371663]}},{"type":"Feature","properties":{"station_id":"n5218231665","station_name":"Grønland","station_name_local":"Grønland","network":"Ruter","network_local":"Ruter","operator":"Sporveien T-banen","city":"Oslo","country":"Norway","lines":["1","2","3","4","5"],"wikidata":"Q5612886"},"geometry":{"type":"Point","coordinates":[10.7601469,59.9127909]}},{"type":"Feature","properties":{"station_id":"n5218231666","station_name":"Ullevål stadion","station_name_local":"Ullevål stadion","network":"Ruter","network_local":"Ruter","operator":"Sporveien T-banen","city":"Oslo","country":"Norway","lines":["4","5"],"wikidata":"Q7879176"},"geometry":{"type":"Point","coordinates":[10.7320518,59.9467461]}},{"type":"Feature","properties":{"station_id":"n5218231667","station_name":"Nydalen","station_name_local":"Nydalen","network":"Ruter","network_local":"Ruter","operator":"Sporveien T-banen","city":"Oslo","country":"Norway","lines":["4","5"],"wikidata":"Q7071036"},"geometry":{"type":"Point","coordinates":[10.7659732,59.9494009]}},{"type":"Feature","properties":{"station_id":"n5218231668","station_name":"Jernbanetorget","station_name_local":"Jernbanetorget","network":"Ruter","network_local":"Ruter","operator":"Sporveien T-banen","city":"Oslo","country":"Norway","lines":["1","2","3","4","5"],"wikidata":"Q6514464"},"geometry":{"type":"Point","coordinates":[10.75169,59.9122056]}},{"type":"Feature","properties":{"station_id":"n5218231669","station_name":"Storo","station_name_local":"Storo","network":"Ruter","network_local":"Ruter","operator":"Sporveien T-banen","city":"Oslo","country":"Norway","lines":["4","5"],"wikidata":null},"geometry":{"type":"Point","coordinates":[10.7785491,59.944587]}},{"type":"Feature","properties":{"station_id":"n5218231670","station_name":"Helsfyr","station_name_local":"Helsfyr","network":"Ruter","network_local":"Ruter","operator":"Sporveien T-banen","city":"Oslo","country":"Norway","lines":["1","2","3","4"],"wikidata":"Q5710410"},"geometry":{"type":"Point","coordinates":[10.801005,59.9127328]}},{"type":"Feature","properties":{"station_id":"n5218231672","station_name":"Borgen","station_name_local":"Borgen","network":"Ruter","network_local":"Ruter","operator":"Sporveien T-banen","city":"Oslo","country":"Norway","lines":["2","3"],"wikidata":"Q4945032"},"geometry":{"type":"Point","coordinates":[10.695638,59.9346211]}},{"type":"Feature","properties":{"station_id":"n5218231673","station_name":"Stortinget","station_name_local":"Stortinget","network":"Ruter","network_local":"Ruter","operator":"Sporveien T-banen","city":"Oslo","country":"Norway","lines":["1","2","3","4","5"],"wikidata":"Q6515974"},"geometry":{"type":"Point","coordinates":[10.7433418,59.9135655]}},{"type":"Feature","properties":{"station_id":"n5359891613","station_name":"Lindeberg","station_name_local":"Lindeberg","network":"Ruter","network_local":"Ruter","operator":"Sporveien T-banen","city":"Oslo","country":"Norway","lines":["2"],"wikidata":"Q11984087"},"geometry":{"type":"Point","coordinates":[10.882706,59.9331552]}},{"type":"Feature","properties":{"station_id":"n5359891614","station_name":"Trosterud","station_name_local":"Trosterud","network":"Ruter","network_local":"Ruter","operator":"Sporveien T-banen","city":"Oslo","country":"Norway","lines":["2"],"wikidata":"Q7846312"},"geometry":{"type":"Point","coordinates":[10.8652257,59.9271775]}},{"type":"Feature","properties":{"station_id":"n5359891615","station_name":"Haugerud","station_name_local":"Haugerud","network":"Ruter","network_local":"Ruter","operator":"Sporveien T-banen","city":"Oslo","country":"Norway","lines":["2"],"wikidata":"Q5682413"},"geometry":{"type":"Point","coordinates":[10.854522,59.9221162]}},{"type":"Feature","properties":{"station_id":"n5359891616","station_name":"Tveita","station_name_local":"Tveita","network":"Ruter","network_local":"Ruter","operator":"Sporveien T-banen","city":"Oslo","country":"Norway","lines":["2"],"wikidata":"Q7857347"},"geometry":{"type":"Point","coordinates":[10.8422413,59.9140313]}},{"type":"Feature","properties":{"station_id":"n5359891617","station_name":"Brattlikollen","station_name_local":"Brattlikollen","network":"Ruter","network_local":"Ruter","operator":"Sporveien T-banen","city":"Oslo","country":"Norway","lines":["1","4"],"wikidata":"Q4958131"},"geometry":{"type":"Point","coordinates":[10.8010829,59.8874032]}},{"type":"Feature","properties":{"station_id":"n5359891618","station_name":"Ryen","station_name_local":"Ryen","network":"Ruter","network_local":"Ruter","operator":"Sporveien T-banen","city":"Oslo","country":"Norway","lines":["1","4"],"wikidata":"Q7385021"},"geometry":{"type":"Point","coordinates":[10.8047288,59.8956702]}},{"type":"Feature","properties":{"station_id":"n5359891619","station_name":"Manglerud","station_name_local":"Manglerud","network":"Ruter","network_local":"Ruter","operator":"Sporveien T-banen","city":"Oslo","country":"Norway","lines":["1","4"],"wikidata":"Q6749064"},"geometry":{"type":"Point","coordinates":[10.8127548,59.8980022]}},{"type":"Feature","properties":{"station_id":"n5359891629","station_name":"Høyenhall","station_name_local":"Høyenhall","network":"Ruter","network_local":"Ruter","operator":"Sporveien T-banen","city":"Oslo","country":"Norway","lines":["1","4"],"wikidata":"Q5964871"},"geometry":{"type":"Point","coordinates":[10.8197957,59.9059078]}},{"type":"Feature","properties":{"station_id":"n5359891692","station_name":"Brynseng","station_name_local":"Brynseng","network":"Ruter","network_local":"Ruter","operator":"Sporveien T-banen","city":"Oslo","country":"Norway","lines":["1","4"],"wikidata":"Q6514337"},"geometry":{"type":"Point","coordinates":[10.81193,59.9092386]}},{"type":"Feature","properties":{"station_id":"n5359891693","station_name":"Lambertseter","station_name_local":"Lambertseter","network":"Ruter","network_local":"Ruter","operator":"Sporveien T-banen","city":"Oslo","country":"Norway","lines":["1","4"],"wikidata":"Q6481380"},"geometry":{"type":"Point","coordinates":[10.8103713,59.8733636]}},{"type":"Feature","properties":{"station_id":"n5359891694","station_name":"Munkelia","station_name_local":"Munkelia","network":"Ruter","network_local":"Ruter","operator":"Sporveien T-banen","city":"Oslo","country":"Norway","lines":["1","4"],"wikidata":"Q11990191"},"geometry":{"type":"Point","coordinates":[10.8126003,59.8689616]}},{"type":"Feature","properties":{"station_id":"n5359891695","station_name":"Bergkrystallen","station_name_local":"Bergkrystallen","network":"Ruter","network_local":"Ruter","operator":"Sporveien T-banen","city":"Oslo","country":"Norway","lines":["1","4"],"wikidata":"Q4891684"},"geometry":{"type":"Point","coordinates":[10.8209472,59.8671534]}},{"type":"Feature","properties":{"station_id":"n5359891696","station_name":"Godlia","station_name_local":"Godlia","network":"Ruter","network_local":"Ruter","operator":"Sporveien T-banen","city":"Oslo","country":"Norway","lines":["3"],"wikidata":"Q5576733"},"geometry":{"type":"Point","coordinates":[10.835902,59.9072025]}},{"type":"Feature","properties":{"station_id":"n5359891697","station_name":"Skøyenåsen","station_name_local":"Skøyenåsen","network":"Ruter","network_local":"Ruter","operator":"Sporveien T-banen","city":"Oslo","country":"Norway","lines":["3"],"wikidata":"Q7538286"},"geometry":{"type":"Point","coordinates":[10.8366859,59.8992384]}},{"type":"Feature","properties":{"station_id":"n5359891698","station_name":"Oppsal","station_name_local":"Oppsal","network":"Ruter","network_local":"Ruter","operator":"Sporveien T-banen","city":"Oslo","country":"Norway","lines":["3"],"wikidata":"Q7098663"},"geometry":{"type":"Point","coordinates":[10.839837,59.8929922]}},{"type":"Feature","properties":{"station_id":"n5359891699","station_name":"Ulsrud","station_name_local":"Ulsrud","network":"Ruter","network_local":"Ruter","operator":"Sporveien T-banen","city":"Oslo","country":"Norway","lines":["3"],"wikidata":"Q7879928"},"geometry":{"type":"Point","coordinates":[10.8494443,59.8895783]}},{"type":"Feature","properties":{"station_id":"n5359891700","station_name":"Bøler","station_name_local":"Bøler","network":"Ruter","network_local":"Ruter","operator":"Sporveien T-banen","city":"Oslo","country":"Norway","lines":["3"],"wikidata":"Q5005217"},"geometry":{"type":"Point","coordinates":[10.8455452,59.8842714]}},{"type":"Feature","properties":{"station_id":"n5359891701","station_name":"Bogerud","station_name_local":"Bogerud","network":"Ruter","network_local":"Ruter","operator":"Sporveien T-banen","city":"Oslo","country":"Norway","lines":["3"],"wikidata":"Q4937565"},"geometry":{"type":"Point","coordinates":[10.8421165,59.8762194]}},{"type":"Feature","properties":{"station_id":"n5359891702","station_name":"Skullerud","station_name_local":"Skullerud","network":"Ruter","network_local":"Ruter","operator":"Sporveien T-banen","city":"Oslo","country":"Norway","lines":["3"],"wikidata":"Q7536983"},"geometry":{"type":"Point","coordinates":[10.8401513,59.8667959]}},{"type":"Feature","properties":{"station_id":"n5359891703","station_name":"Mortensrud","station_name_local":"Mortensrud","network":"Ruter","network_local":"Ruter","operator":"Sporveien T-banen","city":"Oslo","country":"Norway","lines":["3"],"wikidata":"Q6914571"},"geometry":{"type":"Point","coordinates":[10.8296983,59.8492866]}},{"type":"Feature","properties":{"station_id":"n5463924740","station_name":"Vestli","station_name_local":"Vestli","network":"Ruter","network_local":"Ruter","operator":"Sporveien T-banen","city":"Oslo","country":"Norway","lines":["4","5"],"wikidata":"Q7923490"},"geometry":{"type":"Point","coordinates":[10.9296499,59.9727535]}},{"type":"Feature","properties":{"station_id":"n5478620916","station_name":"Stovner","station_name_local":"Stovner","network":"Ruter","network_local":"Ruter","operator":"Sporveien T-banen","city":"Oslo","country":"Norway","lines":["4","5"],"wikidata":"Q7620655"},"geometry":{"type":"Point","coordinates":[10.9228232,59.9621403]}},{"type":"Feature","properties":{"station_id":"n5480418907","station_name":"Løren","station_name_local":"Løren","network":"Ruter","network_local":"Ruter","operator":"Sporveien T-banen","city":"Oslo","country":"Norway","lines":["4"],"wikidata":"Q17199031"},"geometry":{"type":"Point","coordinates":[10.7903109,59.9298342]}},{"type":"Feature","properties":{"station_id":"n5480418908","station_name":"Hasle","station_name_local":"Hasle","network":"Ruter","network_local":"Ruter","operator":"Sporveien T-banen","city":"Oslo","country":"Norway","lines":["5"],"wikidata":"Q5679293"},"geometry":{"type":"Point","coordinates":[10.794713,59.9243612]}},{"type":"Feature","properties":{"station_id":"n5480418909","station_name":"Økern","station_name_local":"Økern","network":"Ruter","network_local":"Ruter","operator":"Sporveien T-banen","city":"Oslo","country":"Norway","lines":["4","5"],"wikidata":"Q8079207"},"geometry":{"type":"Point","coordinates":[10.8062778,59.9282615]}},{"type":"Feature","properties":{"station_id":"n5480418910","station_name":"Risløkka","station_name_local":"Risløkka","network":"Ruter","network_local":"Ruter","operator":"Sporveien T-banen","city":"Oslo","country":"Norway","lines":["4","5"],"wikidata":"Q7336323"},"geometry":{"type":"Point","coordinates":[10.8231305,59.9325069]}},{"type":"Feature","properties":{"station_id":"n5480418911","station_name":"Vollebekk","station_name_local":"Vollebekk","network":"Ruter","network_local":"Ruter","operator":"Sporveien T-banen","city":"Oslo","country":"Norway","lines":["4","5"],"wikidata":"Q7940353"},"geometry":{"type":"Point","coordinates":[10.8310497,59.9358146]}},{"type":"Feature","properties":{"station_id":"n5480418912","station_name":"Linderud","station_name_local":"Linderud","network":"Ruter","network_local":"Ruter","operator":"Sporveien T-banen","city":"Oslo","country":"Norway","lines":["4","5"],"wikidata":"Q6552440"},"geometry":{"type":"Point","coordinates":[10.8384197,59.9409633]}},{"type":"Feature","properties":{"station_id":"n5480418913","station_name":"Veitvet","station_name_local":"Veitvet","network":"Ruter","network_local":"Ruter","operator":"Sporveien T-banen","city":"Oslo","country":"Norway","lines":["4","5"],"wikidata":"Q7918723"},"geometry":{"type":"Point","coordinates":[10.8469389,59.9445298]}},{"type":"Feature","properties":{"station_id":"n5480418914","station_name":"Kalbakken","station_name_local":"Kalbakken","network":"Ruter","network_local":"Ruter","operator":"Sporveien T-banen","city":"Oslo","country":"Norway","lines":["4","5"],"wikidata":"Q11979932"},"geometry":{"type":"Point","coordinates":[10.8669584,59.9547781]}},{"type":"Feature","properties":{"station_id":"n5480418915","station_name":"Rødtvet","station_name_local":"Rødtvet","network":"Ruter","network_local":"Ruter","operator":"Sporveien T-banen","city":"Oslo","country":"Norway","lines":["4","5"],"wikidata":"Q7386718"},"geometry":{"type":"Point","coordinates":[10.8594171,59.9513937]}},{"type":"Feature","properties":{"station_id":"n5480418916","station_name":"Ammerud","station_name_local":"Ammerud","network":"Ruter","network_local":"Ruter","operator":"Sporveien T-banen","city":"Oslo","country":"Norway","lines":["4","5"],"wikidata":"Q4747230"},"geometry":{"type":"Point","coordinates":[10.8720569,59.9583008]}},{"type":"Feature","properties":{"station_id":"n5480418917","station_name":"Grorud","station_name_local":"Grorud","network":"Ruter","network_local":"Ruter","operator":"Sporveien T-banen","city":"Oslo","country":"Norway","lines":["4","5"],"wikidata":"Q5610416"},"geometry":{"type":"Point","coordinates":[10.8805488,59.9614243]}},{"type":"Feature","properties":{"station_id":"n5480418918","station_name":"Romsås","station_name_local":"Romsås","network":"Ruter","network_local":"Ruter","operator":"Sporveien T-banen","city":"Oslo","country":"Norway","lines":["4","5"],"wikidata":"Q7363333"},"geometry":{"type":"Point","coordinates":[10.8927042,59.9625369]}},{"type":"Feature","properties":{"station_id":"n5480418919","station_name":"Rommen","station_name_local":"Rommen","network":"Ruter","network_local":"Ruter","operator":"Sporveien T-banen","city":"Oslo","country":"Norway","lines":["4","5"],"wikidata":"Q7363248"},"geometry":{"type":"Point","coordinates":[10.9096067,59.9620728]}},{"type":"Feature","properties":{"station_id":"n5487374937","station_name":"Tøyen","station_name_local":"Tøyen","network":"Ruter","network_local":"Ruter","operator":"Sporveien T-banen","city":"Oslo","country":"Norway","lines":["1","2","3","4"],"wikidata":"Q887532"},"geometry":{"type":"Point","coordinates":[10.7757946,59.9157566]}},{"type":"Feature","properties":{"station_id":"n6184808734","station_name":"Ensjø","station_name_local":"Ensjø","network":"Ruter","network_local":"Ruter","operator":"Sporveien T-banen","city":"Oslo","country":"Norway","lines":["1","2","3","4"],"wikidata":null},"geometry":{"type":"Point","coordinates":[10.7877106,59.9137698]}},{"type":"Feature","properties":{"station_id":"n8444746218","station_name":"Carl Berners plass","station_name_local":"Carl Berners plass","network":"Ruter","network_local":"Ruter","operator":"Sporveien T-banen","city":"Oslo","country":"Norway","lines":["5"],"wikidata":"Q1772284"},"geometry":{"type":"Point","coordinates":[10.7796115,59.925774]}},{"type":"Feature","properties":{"station_id":"n9578899012","station_name":"Gjønnes","station_name_local":"Gjønnes","network":"Ruter","network_local":"Ruter","operator":"Sporveien T-banen","city":"Oslo","country":"Norway","lines":["3"],"wikidata":"Q5566059"},"geometry":{"type":"Point","coordinates":[10.5800844,59.9150676]}},{"type":"Feature","properties":{"station_id":"n9578933793","station_name":"Haslum","station_name_local":"Haslum","network":"Ruter","network_local":"Ruter","operator":"Sporveien T-banen","city":"Oslo","country":"Norway","lines":["3"],"wikidata":"Q4585231"},"geometry":{"type":"Point","coordinates":[10.5652938,59.9151601]}},{"type":"Feature","properties":{"station_id":"n9579541327","station_name":"Åsjordet","station_name_local":"Åsjordet","network":"Ruter","network_local":"Ruter","operator":"Sporveien T-banen","city":"Oslo","country":"Norway","lines":["3"],"wikidata":"Q8077251"},"geometry":{"type":"Point","coordinates":[10.6483205,59.9288612]}},{"type":"Feature","properties":{"station_id":"n9579541520","station_name":"Ullernåsen","station_name_local":"Ullernåsen","network":"Ruter","network_local":"Ruter","operator":"Sporveien T-banen","city":"Oslo","country":"Norway","lines":["3"],"wikidata":"Q7879163"},"geometry":{"type":"Point","coordinates":[10.6559774,59.9314893]}},{"type":"Feature","properties":{"station_id":"n9579541560","station_name":"Montebello","station_name_local":"Montebello","network":"Ruter","network_local":"Ruter","operator":"Sporveien T-banen","city":"Oslo","country":"Norway","lines":["3"],"wikidata":"Q6905007"},"geometry":{"type":"Point","coordinates":[10.6664078,59.9348374]}},{"type":"Feature","properties":{"station_id":"n9592809017","station_name":"Jar","station_name_local":"Jar","network":"Ruter","network_local":"Ruter","operator":"Sporveien T-banen","city":"Oslo","country":"Norway","lines":["3"],"wikidata":"Q6159423"},"geometry":{"type":"Point","coordinates":[10.6183135,59.9257716]}},{"type":"Feature","properties":{"station_id":"n9592809324","station_name":"Bjørnsletta","station_name_local":"Bjørnsletta","network":"Ruter","network_local":"Ruter","operator":null,"city":"Oslo","country":"Norway","lines":["3"],"wikidata":null},"geometry":{"type":"Point","coordinates":[10.6344657,59.9265225]}},{"type":"Feature","properties":{"station_id":"n9594258774","station_name":"Ringstabekk","station_name_local":"Ringstabekk","network":"Ruter","network_local":"Ruter","operator":"Sporveien T-banen","city":"Oslo","country":"Norway","lines":["3"],"wikidata":"Q7334989"},"geometry":{"type":"Point","coordinates":[10.6043865,59.9201271]}},{"type":"Feature","properties":{"station_id":"n9604515447","station_name":"Hauger","station_name_local":"Hauger","network":"Ruter","network_local":"Ruter","operator":"Sporveien T-banen","city":"Oslo","country":"Norway","lines":["3"],"wikidata":"Q5682402"},"geometry":{"type":"Point","coordinates":[10.5097948,59.9111688]}},{"type":"Feature","properties":{"station_id":"n9604515448","station_name":"Gjettum","station_name_local":"Gjettum","network":"Ruter","network_local":"Ruter","operator":null,"city":"Oslo","country":"Norway","lines":["3"],"wikidata":null},"geometry":{"type":"Point","coordinates":[10.5306564,59.9085257]}},{"type":"Feature","properties":{"station_id":"n9604515550","station_name":"Avløs","station_name_local":"Avløs","network":"Ruter","network_local":"Ruter","operator":"Sporveien T-banen","city":"Oslo","country":"Norway","lines":["3"],"wikidata":"Q4829069"},"geometry":{"type":"Point","coordinates":[10.5483102,59.9130935]}},{"type":"Feature","properties":{"station_id":"n9611262217","station_name":"Eiksmarka","station_name_local":"Eiksmarka","network":"Ruter","network_local":"Ruter","operator":"Sporveien T-banen","city":"Oslo","country":"Norway","lines":["2"],"wikidata":null},"geometry":{"type":"Point","coordinates":[10.6232583,59.9470588]}},{"type":"Feature","properties":{"station_id":"n9611262219","station_name":"Lijordet","station_name_local":"Lijordet","network":"Ruter","network_local":"Ruter","operator":"Sporveien T-banen","city":"Oslo","country":"Norway","lines":["2"],"wikidata":null},"geometry":{"type":"Point","coordinates":[10.6164655,59.9408418]}},{"type":"Feature","properties":{"station_id":"n9611262220","station_name":"Østerås","station_name_local":"Østerås","network":"Ruter","network_local":"Ruter","operator":"Sporveien T-banen","city":"Oslo","country":"Norway","lines":["2"],"wikidata":null},"geometry":{"type":"Point","coordinates":[10.6087648,59.9394145]}},{"type":"Feature","properties":{"station_id":"n12155430074","station_name":"Hovseter","station_name_local":"Hovseter","network":"Ruter","network_local":"Ruter","operator":"Sporveien T-banen","city":"Oslo","country":"Norway","lines":["2"],"wikidata":"Q5917297"},"geometry":{"type":"Point","coordinates":[10.6548809,59.9463688]}},{"type":"Feature","properties":{"station_id":"n12155483397","station_name":"Sognsvann","station_name_local":"Sognsvann","network":"Ruter","network_local":"Ruter","operator":"Sporveien T-banen","city":"Oslo","country":"Norway","lines":["5"],"wikidata":"Q6515864"},"geometry":{"type":"Point","coordinates":[10.7339696,59.9671378]}},{"type":"Feature","properties":{"station_id":"n12156340542","station_name":"Kringsjå","station_name_local":"Kringsjå","network":"Ruter","network_local":"Ruter","operator":"Sporveien T-banen","city":"Oslo","country":"Norway","lines":["5"],"wikidata":"Q6515495"},"geometry":{"type":"Point","coordinates":[10.7348835,59.9638324]}},{"type":"Feature","properties":{"station_id":"n12156367136","station_name":"Holstein","station_name_local":"Holstein","network":"Ruter","network_local":"Ruter","operator":"Sporveien T-banen","city":"Oslo","country":"Norway","lines":["5"],"wikidata":"Q11975723"},"geometry":{"type":"Point","coordinates":[10.7408722,59.9604561]}},{"type":"Feature","properties":{"station_id":"n12157563628","station_name":"Østhorn","station_name_local":"Østhorn","network":"Ruter","network_local":"Ruter","operator":"Sporveien T-banen","city":"Oslo","country":"Norway","lines":["5"],"wikidata":"Q8079268"},"geometry":{"type":"Point","coordinates":[10.7499126,59.9568291]}},{"type":"Feature","properties":{"station_id":"n12157596277","station_name":"Tåsen","station_name_local":"Tåsen","network":"Ruter","network_local":"Ruter","operator":"Sporveien T-banen","city":"Oslo","country":"Norway","lines":["5"],"wikidata":"Q7862180"},"geometry":{"type":"Point","coordinates":[10.7522665,59.9538576]}},{"type":"Feature","properties":{"station_id":"n12157661971","station_name":"Berg","station_name_local":"Berg","network":"Ruter","network_local":"Ruter","operator":"Sporveien T-banen","city":"Oslo","country":"Norway","lines":["5"],"wikidata":"Q4891391"},"geometry":{"type":"Point","coordinates":[10.7452558,59.9512595]}},{"type":"Feature","properties":{"station_id":"n13426267189","station_name":"Diakonhjemmet","station_name_local":"Diakonhjemmet","network":"Unknown","network_local":null,"operator":null,"city":"Oslo","country":"Norway","lines":["1"],"wikidata":null},"geometry":{"type":"Point","coordinates":[10.7073603,59.9366505]}},{"type":"Feature","properties":{"station_id":"n13817612874","station_name":"Vinderen","station_name_local":"Vinderen","network":"Ruter","network_local":"Ruter","operator":"Sporveien T-banen","city":"Oslo","country":"Norway","lines":["1"],"wikidata":"Q7932332"},"geometry":{"type":"Point","coordinates":[10.7046933,59.942434]}},{"type":"Feature","properties":{"station_id":"n13817612875","station_name":"Gaustad","station_name_local":"Gaustad","network":"Ruter","network_local":"Ruter","operator":"Sporveien T-banen","city":"Oslo","country":"Norway","lines":["1"],"wikidata":"Q5527859"},"geometry":{"type":"Point","coordinates":[10.7101747,59.945882]}},{"type":"Feature","properties":{"station_id":"n13980414461","station_name":"Frøen","station_name_local":"Frøen","network":"Ruter","network_local":"Ruter","operator":"Sporveien T-banen","city":"Oslo","country":"Norway","lines":["1"],"wikidata":"Q5506759"},"geometry":{"type":"Point","coordinates":[10.7088593,59.9346444]}},{"type":"Feature","properties":{"station_id":"n13980414462","station_name":"Steinerud","station_name_local":"Steinerud","network":"Ruter","network_local":"Ruter","operator":"Sporveien T-banen","city":"Oslo","country":"Norway","lines":["1"],"wikidata":null},"geometry":{"type":"Point","coordinates":[10.704406,59.9390025]}}]}