{"type":"FeatureCollection","metro_system":{"continent":"asia","country":"South Korea","city":"Daejeon","osm_networks":["Daejeon Metro","Unknown","대전교통공사"],"operator":"대전교통공사","official_website":null,"official_map":"https://ko.wikipedia.org/wiki/대전_도시철도_1호선","wikidata":"Q200310","line_count":1,"segment_count":1,"station_count":23,"audit":{"strategies_tried":[],"passed":true,"checks":[{"id":"system_exists","ok":true,"detail":"matched OSM system systems/asia/south-korea/asia-south-korea-daejeon.geojson","level":"error"},{"id":"has_lines","ok":true,"detail":"1 lines","level":"error"},{"id":"has_stations","ok":true,"detail":"23 stations","level":"error"},{"id":"station_ratio","ok":true,"detail":"OSM 23 vs Wikipedia 22（比值 1.05）","level":"error"},{"id":"stations_have_lines","ok":true,"detail":"23/23 站皆有所屬路線","level":"error"},{"id":"line_geometry_stations","ok":true,"detail":"25 個折點/端點皆為車站","level":"error"},{"id":"stations_named","ok":true,"detail":"22/23 站有名稱","level":"warn"},{"id":"station_order","ok":true,"detail":"所有線路站序合理","level":"warn"}],"reasons":[],"warnings":[],"audited_at":"2026-07-10T10:07:31.455Z"}},"features":[{"type":"Feature","properties":{"seg_id":"daejeon-0","routes":[{"route_id":"rm7792528","route_name":"Daejeon Metro Line 1","route_name_local":"대전 도시철도 1호선","route_ref":"1","route_color":"#007448","network":"Daejeon Metro","network_local":"대전 도시철도","operator":"대전교통공사","wikidata":"Q200310","wikipedia":"ko:대전 도시철도 1호선","osm_route_ids":[7237829,7792527],"order_suspect":0}],"route_count":1,"route_refs":["1"],"route_colors":["#007448"],"route_color":"#007448","city":"Daejeon","country":"South Korea"},"geometry":{"type":"MultiLineString","coordinates":[[[127.314817,36.3919413],[127.3194855,36.3841062],[127.3179073,36.3741117],[127.3179022,36.366828],[127.3214881,36.3594103],[127.33065690000001,36.3566509],[127.3416486,36.353704],[127.3545556,36.3545464],[127.3644581,36.3583385],[127.3727932,36.3576605],[127.3816164,36.3576058],[127.3865931,36.3514445],[127.3846726,36.3459484],[127.3932583,36.3382037],[127.4050618,36.3283959],[127.4125138,36.3223851],[127.4195775,36.3247793],[127.4259177,36.3285894],[127.433365,36.3313521],[127.4429079,36.3294086],[127.4489649,36.3195844],[127.4587072,36.3169952]],[[127.3179073,36.3741117],[127.3195384,36.384111],[127.314817,36.3919413]]]}},{"type":"Feature","properties":{"station_id":"n6638916898","station_name":"Daejeon Station","station_name_local":"대전역","network":"대전교통공사","network_local":null,"operator":"대전교통공사","city":"Daejeon","country":"South Korea","lines":["1"],"wikidata":"Q1586280"},"geometry":{"type":"Point","coordinates":[127.433365,36.3313521]}},{"type":"Feature","properties":{"station_id":"n9271804081","station_name":"Noeun","station_name_local":"노은","network":"Unknown","network_local":null,"operator":null,"city":"Daejeon","country":"South Korea","lines":["1"],"wikidata":"Q1586358"},"geometry":{"type":"Point","coordinates":[127.3179073,36.3741117]}},{"type":"Feature","properties":{"station_id":"n9271804082","station_name":"Jijok","station_name_local":"지족","network":"대전교통공사","network_local":null,"operator":"대전교통공사","city":"Daejeon","country":"South Korea","lines":["1"],"wikidata":"Q1586382"},"geometry":{"type":"Point","coordinates":[127.3195384,36.384111]}},{"type":"Feature","properties":{"station_id":"n9271804083","station_name":"Banseok","station_name_local":"반석","network":"대전교통공사","network_local":null,"operator":"대전교통공사","city":"Daejeon","country":"South Korea","lines":["1"],"wikidata":"Q1586363"},"geometry":{"type":"Point","coordinates":[127.314817,36.3919413]}},{"type":"Feature","properties":{"station_id":"n9271804084","station_name":"National Cemetery","station_name_local":"현충원","network":"대전교통공사","network_local":null,"operator":"대전교통공사","city":"Daejeon","country":"South Korea","lines":["1"],"wikidata":"Q1586391"},"geometry":{"type":"Point","coordinates":[127.3214881,36.3594103]}},{"type":"Feature","properties":{"station_id":"n9271804086","station_name":"Guam","station_name_local":"구암","network":"대전교통공사","network_local":null,"operator":"대전교통공사","city":"Daejeon","country":"South Korea","lines":["1"],"wikidata":"Q1586354","merged_from":2},"geometry":{"type":"Point","coordinates":[127.33065690000001,36.3566509]}},{"type":"Feature","properties":{"station_id":"n9271804088","station_name":"Yuseong Spa","station_name_local":"유성온천","network":"대전교통공사","network_local":null,"operator":"대전교통공사","city":"Daejeon","country":"South Korea","lines":["1"],"wikidata":"Q1586372"},"geometry":{"type":"Point","coordinates":[127.3416486,36.353704]}},{"type":"Feature","properties":{"station_id":"n9271804090","station_name":"Gapcheon","station_name_local":"갑천","network":"대전교통공사","network_local":null,"operator":"대전교통공사","city":"Daejeon","country":"South Korea","lines":["1"],"wikidata":"Q1586309"},"geometry":{"type":"Point","coordinates":[127.3545556,36.3545464]}},{"type":"Feature","properties":{"station_id":"n9271807333","station_name":"Wolpyeong","station_name_local":"월평","network":"대전교통공사","network_local":null,"operator":"대전교통공사","city":"Daejeon","country":"South Korea","lines":["1"],"wikidata":"Q1586336"},"geometry":{"type":"Point","coordinates":[127.3644581,36.3583385]}},{"type":"Feature","properties":{"station_id":"n9271807335","station_name":"Galma","station_name_local":"갈마","network":"대전교통공사","network_local":null,"operator":"대전교통공사","city":"Daejeon","country":"South Korea","lines":["1"],"wikidata":"Q1586300"},"geometry":{"type":"Point","coordinates":[127.3727932,36.3576605]}},{"type":"Feature","properties":{"station_id":"n9271807337","station_name":"Government Complex Daejeon","station_name_local":"정부청사","network":"대전교통공사","network_local":null,"operator":"대전교통공사","city":"Daejeon","country":"South Korea","lines":["1"],"wikidata":"Q1586444"},"geometry":{"type":"Point","coordinates":[127.3816164,36.3576058]}},{"type":"Feature","properties":{"station_id":"n9271807339","station_name":"City Hall","station_name_local":"시청","network":"대전교통공사","network_local":null,"operator":"대전교통공사","city":"Daejeon","country":"South Korea","lines":["1"],"wikidata":"Q1586320"},"geometry":{"type":"Point","coordinates":[127.3865931,36.3514445]}},{"type":"Feature","properties":{"station_id":"n9271807340","station_name":"Tanbang","station_name_local":"탄방","network":"대전교통공사","network_local":null,"operator":"대전교통공사","city":"Daejeon","country":"South Korea","lines":["1"],"wikidata":"Q1586349"},"geometry":{"type":"Point","coordinates":[127.3846726,36.3459484]}},{"type":"Feature","properties":{"station_id":"n9271807342","station_name":"Yongmun","station_name_local":"용문","network":"대전교통공사","network_local":null,"operator":"대전교통공사","city":"Daejeon","country":"South Korea","lines":["1"],"wikidata":"Q1586328"},"geometry":{"type":"Point","coordinates":[127.3932583,36.3382037]}},{"type":"Feature","properties":{"station_id":"n9271807344","station_name":"Oryong","station_name_local":"오룡","network":"대전교통공사","network_local":null,"operator":"대전교통공사","city":"Daejeon","country":"South Korea","lines":["1"],"wikidata":"Q1586408"},"geometry":{"type":"Point","coordinates":[127.4050618,36.3283959]}},{"type":"Feature","properties":{"station_id":"n9271807346","station_name":"Seodaejeonnegeori","station_name_local":"서대전네거리","network":"대전교통공사","network_local":null,"operator":"대전교통공사","city":"Daejeon","country":"South Korea","lines":["1"],"wikidata":"Q1586402"},"geometry":{"type":"Point","coordinates":[127.4125138,36.3223851]}},{"type":"Feature","properties":{"station_id":"n9271807349","station_name":"Jung-gu Office","station_name_local":"중구청","network":"대전교통공사","network_local":null,"operator":"대전교통공사","city":"Daejeon","country":"South Korea","lines":["1"],"wikidata":null},"geometry":{"type":"Point","coordinates":[127.4195775,36.3247793]}},{"type":"Feature","properties":{"station_id":"n9271807350","station_name":"Jungangno","station_name_local":"중앙로","network":"대전교통공사","network_local":null,"operator":"대전교통공사","city":"Daejeon","country":"South Korea","lines":["1"],"wikidata":"Q1586418"},"geometry":{"type":"Point","coordinates":[127.4259177,36.3285894]}},{"type":"Feature","properties":{"station_id":"n9271807354","station_name":"Dae-dong","station_name_local":"대동","network":"대전교통공사","network_local":null,"operator":"대전교통공사","city":"Daejeon","country":"South Korea","lines":["1"],"wikidata":"Q1586272"},"geometry":{"type":"Point","coordinates":[127.4429079,36.3294086]}},{"type":"Feature","properties":{"station_id":"n9271807356","station_name":"Sinheung","station_name_local":"신흥","network":"대전교통공사","network_local":null,"operator":"대전교통공사","city":"Daejeon","country":"South Korea","lines":["1"],"wikidata":"Q1586287"},"geometry":{"type":"Point","coordinates":[127.4489649,36.3195844]}},{"type":"Feature","properties":{"station_id":"n9271807358","station_name":"Panam","station_name_local":"판암","network":"대전교통공사","network_local":null,"operator":"대전교통공사","city":"Daejeon","country":"South Korea","lines":["1"],"wikidata":"Q1586293"},"geometry":{"type":"Point","coordinates":[127.4587072,36.3169952]}},{"type":"Feature","properties":{"station_id":"n9320604243","station_name":"World Cup Stadium","station_name_local":"월드컵경기장","network":"대전교통공사","network_local":null,"operator":"대전교통공사","city":"Daejeon","country":"South Korea","lines":["1"],"wikidata":"Q1586367"},"geometry":{"type":"Point","coordinates":[127.3179022,36.366828]}},{"type":"Feature","properties":{"station_id":"n1095594581","station_name":"n1095594581","station_name_local":null,"network":"Unknown","network_local":null,"operator":null,"city":"Daejeon","country":"South Korea","lines":["1"],"wikidata":null},"geometry":{"type":"Point","coordinates":[127.3194855,36.3841062]}}]}