{"type":"FeatureCollection","metro_system":{"continent":"asia","country":"South Korea","city":"Busan","osm_networks":["(주)부산김해경전철운영","Busan Metro","Korail","Unknown","부산 도시철도 4호선","부산교통공사","한국철도공사"],"operator":"부산교통공사","official_website":null,"official_map":"https://en.wikipedia.org/wiki/Busan_Metro_Line_2","wikidata":"Q86467","line_count":4,"station_count":119,"audit":{"strategies_tried":[],"passed":true,"checks":[{"id":"system_exists","ok":true,"detail":"matched OSM system systems/asia/south-korea/asia-south-korea-busan.geojson","level":"error"},{"id":"has_lines","ok":true,"detail":"4 lines","level":"error"},{"id":"has_stations","ok":true,"detail":"119 stations","level":"error"},{"id":"station_ratio","ok":true,"detail":"OSM 119 vs Wikipedia 125（比值 0.95）","level":"error"},{"id":"stations_have_lines","ok":true,"detail":"119/119 站皆有所屬路線","level":"error"},{"id":"stations_named","ok":true,"detail":"117/119 站有名稱","level":"warn"},{"id":"station_order","ok":true,"detail":"所有線路站序合理","level":"warn"}],"reasons":[],"warnings":[],"audited_at":"2026-07-10T07:56:59.738Z"}},"features":[{"type":"Feature","properties":{"route_id":"rm8258658","route_name":"Busan Metro Line 2 (Green Line)","route_name_local":"2호선","route_ref":"2","route_color":"#81bf48","network":"Busan Metro","network_local":"부산 도시철도","operator":"부산교통공사","city":"Busan","country":"South Korea","wikidata":"Q86467","wikipedia":"en:Busan Metro Line 2","osm_route_ids":[2194999,8258657]},"geometry":{"type":"MultiLineString","coordinates":[[[129.1759213,35.1694514],[129.1678104,35.1666518],[129.1588087,35.1636846],[129.1480904,35.161277],[129.1387511,35.1688889],[129.1311985,35.1686251],[129.121719,35.167395],[129.1146714,35.1654182],[129.11317,35.157916],[129.11097,35.149756],[129.1078416,35.1421344],[129.100531,35.137558],[129.092172,35.135148],[129.084783,35.134758],[129.074224,35.135668],[129.0673312,35.1391392],[129.0667134,35.1457278],[129.0653641,35.1528193],[129.0591028,35.1577084],[129.0505061,35.157439],[129.0426874,35.1558284],[129.0321386,35.1539803],[129.0204602,35.1532536],[129.0124257,35.1512851],[129.00315,35.150504],[128.9908801,35.1557054],[128.984509,35.1625081],[128.9839737,35.1738665],[128.985621,35.180361],[128.9884422,35.1892988],[128.9950174,35.1969455],[128.9996216,35.2028827],[129.0050608,35.2107798],[129.0091715,35.2233039],[129.0138007,35.2352534],[129.0128975,35.2464762],[129.0124334,35.2586149],[129.0168673,35.2673839],[129.0174697,35.2810803],[129.0102327,35.3083224],[129.0139796,35.3168773],[129.0193639,35.325404],[129.0263995,35.338695]]]}},{"type":"Feature","properties":{"route_id":"rm8247017","route_name":"Busan Metro Line 3 (Brown Line)","route_name_local":"부산 도시철도 3호선","route_ref":"3","route_color":"#bb8c00","network":"Busan Metro","network_local":"부산 도시철도","operator":"부산교통공사","city":"Busan","country":"South Korea","wikidata":"Q86468","wikipedia":"en:Busan Metro Line 3","osm_route_ids":[2195014,8247016]},"geometry":{"type":"MultiLineString","coordinates":[[[129.1146714,35.1654182],[129.1075159,35.1717331],[129.0957491,35.1734626],[129.0858331,35.1766388],[129.0815013,35.1859918],[129.0739981,35.1885438],[129.0674868,35.1914648],[129.0650666,35.1990904],[129.0687047,35.2065443],[129.0364611,35.2129876],[129.023926,35.2133254],[129.0127544,35.2119767],[129.0057948,35.2102272],[128.9963297,35.2067105],[128.9819597,35.2112369],[128.9693851,35.2125086],[128.9607978,35.2134159]]]}},{"type":"Feature","properties":{"route_id":"rm8255698","route_name":"Busan Metro Line 1","route_name_local":"부산 도시철도 1호선","route_ref":"1","route_color":"#f06a00","network":"Busan Metro","network_local":"부산 도시철도","operator":"부산교통공사","city":"Busan","country":"South Korea","wikidata":"Q86356","wikipedia":"en:Busan Metro Line 1","osm_route_ids":[2201600,8255697]},"geometry":{"type":"MultiLineString","coordinates":[[[129.0951591,35.2841976],[129.0926506,35.2731559],[129.0924596,35.2652441],[129.0913781,35.2570657],[129.0912488,35.2468777],[129.0881014,35.2380432],[129.0893198,35.2296942],[129.0861878,35.2200379],[129.0795385,35.2124368],[129.0784539,35.205308],[129.079929,35.1953694],[129.0813845,35.1860183],[129.0764751,35.1797724],[129.071257,35.1731933],[129.06289,35.1626326],[129.059451,35.1581948],[129.0591499,35.1472403],[129.0593296,35.1409636],[129.0543014,35.1343675],[129.0490014,35.1290461],[129.0429007,35.1212256],[129.0398644,35.1156246],[129.0362871,35.1038429],[129.0349473,35.0979243],[129.0266779,35.0973844],[129.0198883,35.1007619],[129.0178257,35.1103458],[129.0120406,35.1108608],[128.9999412,35.1031541],[128.992862,35.0999307],[128.983094,35.09984],[128.9738793,35.103632],[128.9667606,35.1062348],[128.960669,35.094938],[128.9734415,35.0897855],[128.9773868,35.0819349],[128.9768508,35.0746268],[128.9797852,35.0654404],[128.9714361,35.0578882],[128.9662322,35.0480864]],[[128.9661547,35.0480218],[128.9715201,35.057855],[128.9799002,35.0654189],[128.9769243,35.0746263],[128.9774993,35.0819307],[128.9734525,35.0898974],[128.9606935,35.0954921],[128.9667606,35.1062348],[128.9738239,35.1034464],[128.983094,35.09984],[128.992862,35.0999307],[128.9999412,35.1031541],[129.0120406,35.1108608],[129.0177594,35.1103202],[129.0197935,35.1007639],[129.0267124,35.0972845],[129.0349473,35.0979243],[129.0363694,35.103842],[129.039936,35.1155992],[129.0430303,35.121181],[129.0491175,35.1289586],[129.0543949,35.1343064],[129.0593729,35.1409639],[129.0592452,35.1472403],[129.0595263,35.1581652],[129.0629945,35.162574],[129.0713503,35.1731283],[129.0765694,35.1797266],[129.0814506,35.1860064],[129.0800097,35.1953715],[129.0784958,35.2057466],[129.0798768,35.2128453],[129.0865305,35.2205328],[129.0893584,35.2299471],[129.0881053,35.2383318],[129.0913206,35.2475747],[129.0914033,35.2570638],[129.0925789,35.2652314],[129.0927639,35.2731553],[129.095122,35.2838679]]]}},{"type":"Feature","properties":{"route_id":"rm7705740","route_name":"Busan–Gimhae Light Rail Transit","route_name_local":"부산김해경전철","route_ref":"BGL","route_color":"#8652a1","network":"Busan Metro","network_local":"부산 도시철도","operator":"부산김해경전철운영(주)","city":"Busan","country":"South Korea","wikidata":"Q87056","wikipedia":null,"osm_route_ids":[2204611,7705729]},"geometry":{"type":"MultiLineString","coordinates":[[[128.9859362,35.1622969],[128.9777255,35.1632779],[128.9549558,35.1663971],[128.9485611,35.1719342],[128.9541369,35.1819682],[128.9635275,35.196228],[128.9605168,35.213068],[128.9506178,35.2140428],[128.9382966,35.2177127],[128.9278224,35.2222403],[128.9237133,35.2276363],[128.9155819,35.2289874],[128.9017358,35.2281017],[128.8903193,35.2270991],[128.8838005,35.2264726],[128.874255,35.2273503],[128.8720656,35.2329251],[128.8718405,35.2401301],[128.8692227,35.2496565],[128.8671904,35.259556],[128.8649754,35.2668321]]]}},{"type":"Feature","properties":{"station_id":"n353255325","station_name":"n353255325","station_name_local":null,"network":"Unknown","network_local":null,"operator":null,"city":"Busan","country":"South Korea","lines":["BGL"],"wikidata":null},"geometry":{"type":"Point","coordinates":[128.9859455,35.1622916]}},{"type":"Feature","properties":{"station_id":"n530697041","station_name":"n530697041","station_name_local":null,"network":"Unknown","network_local":null,"operator":null,"city":"Busan","country":"South Korea","lines":["BGL"],"wikidata":null},"geometry":{"type":"Point","coordinates":[128.8743088,35.227169]}},{"type":"Feature","properties":{"station_id":"n289245376","station_name":"Dongnae","station_name_local":"동래","network":"부산교통공사","network_local":null,"operator":"부산교통공사","city":"Busan","country":"South Korea","lines":["1"],"wikidata":null,"merged_from":2},"geometry":{"type":"Point","coordinates":[129.07792215,35.2051636]}},{"type":"Feature","properties":{"station_id":"n289245618","station_name":"Guseo","station_name_local":"구서","network":"부산교통공사","network_local":null,"operator":"부산교통공사","city":"Busan","country":"South Korea","lines":["1"],"wikidata":"Q704977"},"geometry":{"type":"Point","coordinates":[129.091268,35.2472273]}},{"type":"Feature","properties":{"station_id":"n355173718","station_name":"City Hall","station_name_local":"시청","network":"부산교통공사","network_local":null,"operator":"부산교통공사","city":"Busan","country":"South Korea","lines":["1"],"wikidata":"Q706304"},"geometry":{"type":"Point","coordinates":[129.076521,35.1797508]}},{"type":"Feature","properties":{"station_id":"n355173720","station_name":"Yangjeong","station_name_local":"양정","network":"부산교통공사","network_local":null,"operator":"부산교통공사","city":"Busan","country":"South Korea","lines":["1"],"wikidata":"Q705625"},"geometry":{"type":"Point","coordinates":[129.0713,35.1731584]}},{"type":"Feature","properties":{"station_id":"n355173722","station_name":"Bujeon","station_name_local":"부전","network":"부산교통공사","network_local":null,"operator":"부산교통공사","city":"Busan","country":"South Korea","lines":["1"],"wikidata":null},"geometry":{"type":"Point","coordinates":[129.0629411,35.1626001]}},{"type":"Feature","properties":{"station_id":"n355173726","station_name":"Beomnaegol","station_name_local":"범내골","network":"부산교통공사","network_local":null,"operator":"부산교통공사","city":"Busan","country":"South Korea","lines":["1"],"wikidata":"Q705555"},"geometry":{"type":"Point","coordinates":[129.0592024,35.1474005]}},{"type":"Feature","properties":{"station_id":"n355173728","station_name":"Beomil","station_name_local":"범일","network":"부산교통공사","network_local":null,"operator":"부산교통공사","city":"Busan","country":"South Korea","lines":["1"],"wikidata":null},"geometry":{"type":"Point","coordinates":[129.059365,35.140947]}},{"type":"Feature","properties":{"station_id":"n355173730","station_name":"Jwacheon","station_name_local":"좌천","network":"부산교통공사","network_local":null,"operator":"부산교통공사","city":"Busan","country":"South Korea","lines":["1"],"wikidata":"Q705299"},"geometry":{"type":"Point","coordinates":[129.0543505,35.1343358]}},{"type":"Feature","properties":{"station_id":"n355173740","station_name":"Jangjeon","station_name_local":"장전","network":"부산교통공사","network_local":null,"operator":"부산교통공사","city":"Busan","country":"South Korea","lines":["1"],"wikidata":"Q626046"},"geometry":{"type":"Point","coordinates":[129.0880983,35.2382122]}},{"type":"Feature","properties":{"station_id":"n355173757","station_name":"Nopo","station_name_local":"노포","network":"부산교통공사","network_local":null,"operator":"부산교통공사","city":"Busan","country":"South Korea","lines":["1"],"wikidata":"Q705026"},"geometry":{"type":"Point","coordinates":[129.0951147,35.2839721]}},{"type":"Feature","properties":{"station_id":"n355173761","station_name":"Beomeosa","station_name_local":"범어사","network":"부산교통공사","network_local":null,"operator":"부산교통공사","city":"Busan","country":"South Korea","lines":["1"],"wikidata":"Q626128"},"geometry":{"type":"Point","coordinates":[129.092668,35.273102]}},{"type":"Feature","properties":{"station_id":"n355173787","station_name":"Deokpo","station_name_local":"덕포","network":"부산교통공사","network_local":null,"operator":"부산교통공사","city":"Busan","country":"South Korea","lines":["2"],"wikidata":"Q707068"},"geometry":{"type":"Point","coordinates":[128.9839737,35.1738665]}},{"type":"Feature","properties":{"station_id":"n355173790","station_name":"Mora","station_name_local":"모라","network":"부산교통공사","network_local":null,"operator":"부산교통공사","city":"Busan","country":"South Korea","lines":["2"],"wikidata":"Q705959"},"geometry":{"type":"Point","coordinates":[128.9884422,35.1892988]}},{"type":"Feature","properties":{"station_id":"n355173792","station_name":"Modeok","station_name_local":"모덕","network":"부산교통공사","network_local":null,"operator":"부산교통공사","city":"Busan","country":"South Korea","lines":["2"],"wikidata":"Q705940"},"geometry":{"type":"Point","coordinates":[128.985621,35.180361]}},{"type":"Feature","properties":{"station_id":"n355173793","station_name":"Gumyeong","station_name_local":"구명","network":"부산교통공사","network_local":null,"operator":"부산교통공사","city":"Busan","country":"South Korea","lines":["2"],"wikidata":"Q705690"},"geometry":{"type":"Point","coordinates":[128.9995184,35.2027962]}},{"type":"Feature","properties":{"station_id":"n355173803","station_name":"Deokcheon","station_name_local":"덕천","network":"부산교통공사","network_local":null,"operator":"부산교통공사","city":"Busan","country":"South Korea","lines":["3"],"wikidata":"Q705756"},"geometry":{"type":"Point","coordinates":[129.005332,35.2100369]}},{"type":"Feature","properties":{"station_id":"n355173805","station_name":"Yulli","station_name_local":"율리","network":"부산교통공사","network_local":null,"operator":"부산교통공사","city":"Busan","country":"South Korea","lines":["2"],"wikidata":"Q705857"},"geometry":{"type":"Point","coordinates":[129.0128975,35.2464762]}},{"type":"Feature","properties":{"station_id":"n355173809","station_name":"Geumgok","station_name_local":"금곡","network":"부산교통공사","network_local":null,"operator":"부산교통공사","city":"Busan","country":"South Korea","lines":["2"],"wikidata":"Q705718"},"geometry":{"type":"Point","coordinates":[129.0168673,35.2673839]}},{"type":"Feature","properties":{"station_id":"n355173810","station_name":"Dongwon","station_name_local":"동원","network":"부산교통공사","network_local":null,"operator":"부산교통공사","city":"Busan","country":"South Korea","lines":["2"],"wikidata":"Q705777"},"geometry":{"type":"Point","coordinates":[129.0124334,35.2586149]}},{"type":"Feature","properties":{"station_id":"n355173812","station_name":"Jeungsan","station_name_local":"증산","network":"부산교통공사","network_local":null,"operator":"부산교통공사","city":"Busan","country":"South Korea","lines":["2"],"wikidata":"Q12617791"},"geometry":{"type":"Point","coordinates":[129.0102327,35.3083224]}},{"type":"Feature","properties":{"station_id":"n355173814","station_name":"Hopo","station_name_local":"호포","network":"부산교통공사","network_local":null,"operator":"부산교통공사","city":"Busan","country":"South Korea","lines":["2"],"wikidata":"Q4864969"},"geometry":{"type":"Point","coordinates":[129.0174394,35.2811219]}},{"type":"Feature","properties":{"station_id":"n355173817","station_name":"Namyangsan","station_name_local":"남양산","network":"부산교통공사","network_local":null,"operator":"부산교통공사","city":"Busan","country":"South Korea","lines":["2"],"wikidata":"Q4865036"},"geometry":{"type":"Point","coordinates":[129.0193639,35.325404]}},{"type":"Feature","properties":{"station_id":"n355173820","station_name":"Pusan Nat'l Univ. Yangsan Campus station","station_name_local":"부산대양산캠퍼스","network":"부산교통공사","network_local":null,"operator":"부산교통공사","city":"Busan","country":"South Korea","lines":["2"],"wikidata":"Q3205787"},"geometry":{"type":"Point","coordinates":[129.0139405,35.3169214]}},{"type":"Feature","properties":{"station_id":"n355173821","station_name":"Yangsan","station_name_local":"양산","network":"부산교통공사","network_local":null,"operator":"부산교통공사","city":"Busan","country":"South Korea","lines":["2"],"wikidata":"Q4865066"},"geometry":{"type":"Point","coordinates":[129.026402,35.3387432]}},{"type":"Feature","properties":{"station_id":"n355173825","station_name":"Hadan","station_name_local":"하단","network":"부산교통공사","network_local":null,"operator":"부산교통공사","city":"Busan","country":"South Korea","lines":["1"],"wikidata":"Q706061"},"geometry":{"type":"Point","coordinates":[128.9667606,35.1062348]}},{"type":"Feature","properties":{"station_id":"n355173827","station_name":"Dangni","station_name_local":"당리","network":"부산교통공사","network_local":null,"operator":"부산교통공사","city":"Busan","country":"South Korea","lines":["1"],"wikidata":"Q624400"},"geometry":{"type":"Point","coordinates":[128.9738261,35.1034754]}},{"type":"Feature","properties":{"station_id":"n355173829","station_name":"Saha","station_name_local":"사하","network":"부산교통공사","network_local":null,"operator":"부산교통공사","city":"Busan","country":"South Korea","lines":["1"],"wikidata":"Q483119"},"geometry":{"type":"Point","coordinates":[128.983094,35.09984]}},{"type":"Feature","properties":{"station_id":"n355173831","station_name":"Goejeong","station_name_local":"괴정","network":"부산교통공사","network_local":null,"operator":"부산교통공사","city":"Busan","country":"South Korea","lines":["1"],"wikidata":"Q16161831"},"geometry":{"type":"Point","coordinates":[128.992862,35.0999307]}},{"type":"Feature","properties":{"station_id":"n355173833","station_name":"Daeti","station_name_local":"대티","network":"부산교통공사","network_local":null,"operator":"부산교통공사","city":"Busan","country":"South Korea","lines":["1"],"wikidata":"Q706026"},"geometry":{"type":"Point","coordinates":[128.9999412,35.1031541]}},{"type":"Feature","properties":{"station_id":"n355173834","station_name":"Seodaesin","station_name_local":"서대신","network":"부산교통공사","network_local":null,"operator":"부산교통공사","city":"Busan","country":"South Korea","lines":["1"],"wikidata":"Q706102"},"geometry":{"type":"Point","coordinates":[129.0120406,35.1108608]}},{"type":"Feature","properties":{"station_id":"n355173836","station_name":"Dongdaesin","station_name_local":"동대신","network":"부산교통공사","network_local":null,"operator":"부산교통공사","city":"Busan","country":"South Korea","lines":["1"],"wikidata":"Q706083"},"geometry":{"type":"Point","coordinates":[129.0177611,35.1103454]}},{"type":"Feature","properties":{"station_id":"n355173838","station_name":"Toseong","station_name_local":"토성","network":"부산교통공사","network_local":null,"operator":"부산교통공사","city":"Busan","country":"South Korea","lines":["1"],"wikidata":"Q706124"},"geometry":{"type":"Point","coordinates":[129.0198441,35.1007637]}},{"type":"Feature","properties":{"station_id":"n355173840","station_name":"Jagalchi","station_name_local":"자갈치","network":"부산교통공사","network_local":null,"operator":"부산교통공사","city":"Busan","country":"South Korea","lines":["1"],"wikidata":"Q706369"},"geometry":{"type":"Point","coordinates":[129.0267678,35.0973457]}},{"type":"Feature","properties":{"station_id":"n355173841","station_name":"Nampo","station_name_local":"남포","network":"부산교통공사","network_local":null,"operator":"부산교통공사","city":"Busan","country":"South Korea","lines":["1"],"wikidata":"Q706352"},"geometry":{"type":"Point","coordinates":[129.0349473,35.0979243]}},{"type":"Feature","properties":{"station_id":"n355173843","station_name":"Jungang","station_name_local":"중앙","network":"부산교통공사","network_local":null,"operator":"부산교통공사","city":"Busan","country":"South Korea","lines":["1"],"wikidata":"Q706386"},"geometry":{"type":"Point","coordinates":[129.0363271,35.1038431]}},{"type":"Feature","properties":{"station_id":"n355173846","station_name":"Choryang","station_name_local":"초량","network":"부산교통공사","network_local":null,"operator":"부산교통공사","city":"Busan","country":"South Korea","lines":["1"],"wikidata":null},"geometry":{"type":"Point","coordinates":[129.0429702,35.1212017]}},{"type":"Feature","properties":{"station_id":"n355173848","station_name":"Busanjin","station_name_local":"부산진","network":"부산교통공사","network_local":null,"operator":"부산교통공사","city":"Busan","country":"South Korea","lines":["1"],"wikidata":null},"geometry":{"type":"Point","coordinates":[129.0492214,35.1290282]}},{"type":"Feature","properties":{"station_id":"n355173852","station_name":"Sukdeung","station_name_local":"숙등","network":"부산교통공사","network_local":null,"operator":"부산교통공사","city":"Busan","country":"South Korea","lines":["3"],"wikidata":"Q705836"},"geometry":{"type":"Point","coordinates":[129.0127544,35.2119767]}},{"type":"Feature","properties":{"station_id":"n355173854","station_name":"Namsanjeong Station","station_name_local":"남산정","network":"부산교통공사","network_local":null,"operator":"부산교통공사","city":"Busan","country":"South Korea","lines":["3"],"wikidata":"Q705736"},"geometry":{"type":"Point","coordinates":[129.023926,35.2133254]}},{"type":"Feature","properties":{"station_id":"n355173865","station_name":"BEXCO","station_name_local":"벡스코","network":"부산교통공사","network_local":null,"operator":"부산교통공사","city":"Busan","country":"South Korea","lines":["2"],"wikidata":"Q706493"},"geometry":{"type":"Point","coordinates":[129.1387511,35.1688889]}},{"type":"Feature","properties":{"station_id":"n355173867","station_name":"Dongbaek","station_name_local":"동백","network":"부산교통공사","network_local":null,"operator":"부산교통공사","city":"Busan","country":"South Korea","lines":["2"],"wikidata":"Q706404"},"geometry":{"type":"Point","coordinates":[129.1480904,35.161277]}},{"type":"Feature","properties":{"station_id":"n355173872","station_name":"Gwangan","station_name_local":"광안","network":"부산교통공사","network_local":null,"operator":"부산교통공사","city":"Busan","country":"South Korea","lines":["2"],"wikidata":"Q706140"},"geometry":{"type":"Point","coordinates":[129.11317,35.157916]}},{"type":"Feature","properties":{"station_id":"n355173875","station_name":"Millak","station_name_local":"민락","network":"부산교통공사","network_local":null,"operator":"부산교통공사","city":"Busan","country":"South Korea","lines":["2"],"wikidata":"Q706207"},"geometry":{"type":"Point","coordinates":[129.121719,35.167395]}},{"type":"Feature","properties":{"station_id":"n355173882","station_name":"Kyungsung Univ. · Pukyong Nat'l Univ.","station_name_local":"경성대·부경대","network":"부산교통공사","network_local":null,"operator":"부산교통공사","city":"Busan","country":"South Korea","lines":["2"],"wikidata":"Q705146"},"geometry":{"type":"Point","coordinates":[129.100531,35.137558]}},{"type":"Feature","properties":{"station_id":"n355173884","station_name":"Daeyeon","station_name_local":"대연","network":"부산교통공사","network_local":null,"operator":"부산교통공사","city":"Busan","country":"South Korea","lines":["2"],"wikidata":"Q705159"},"geometry":{"type":"Point","coordinates":[129.092172,35.135148]}},{"type":"Feature","properties":{"station_id":"n355173886","station_name":"Geumryeonsan","station_name_local":"금련산","network":"부산교통공사","network_local":null,"operator":"부산교통공사","city":"Busan","country":"South Korea","lines":["2"],"wikidata":"Q107399"},"geometry":{"type":"Point","coordinates":[129.11097,35.149756]}},{"type":"Feature","properties":{"station_id":"n355173889","station_name":"Munhyeon","station_name_local":"문현","network":"부산교통공사","network_local":null,"operator":"부산교통공사","city":"Busan","country":"South Korea","lines":["2"],"wikidata":"Q705215"},"geometry":{"type":"Point","coordinates":[129.0673312,35.1391392]}},{"type":"Feature","properties":{"station_id":"n355173891","station_name":"Busan International Finance Center·Busan Bank","station_name_local":"국제금융센터·부산은행","network":"부산교통공사","network_local":null,"operator":"부산교통공사","city":"Busan","country":"South Korea","lines":["2"],"wikidata":"Q705195"},"geometry":{"type":"Point","coordinates":[129.0667134,35.1457278]}},{"type":"Feature","properties":{"station_id":"n355173893","station_name":"Motgol","station_name_local":"못골","network":"부산교통공사","network_local":null,"operator":"부산교통공사","city":"Busan","country":"South Korea","lines":["2"],"wikidata":"Q705177"},"geometry":{"type":"Point","coordinates":[129.084783,35.134758]}},{"type":"Feature","properties":{"station_id":"n355173894","station_name":"Jigegol","station_name_local":"지게골","network":"부산교통공사","network_local":null,"operator":"부산교통공사","city":"Busan","country":"South Korea","lines":["2"],"wikidata":"Q705233"},"geometry":{"type":"Point","coordinates":[129.074224,35.135668]}},{"type":"Feature","properties":{"station_id":"n355173896","station_name":"Gaya","station_name_local":"가야","network":"부산교통공사","network_local":null,"operator":"부산교통공사","city":"Busan","country":"South Korea","lines":["2"],"wikidata":null},"geometry":{"type":"Point","coordinates":[129.0426874,35.1558284]}},{"type":"Feature","properties":{"station_id":"n355173898","station_name":"Dong-Eui Univ.","station_name_local":"동의대","network":"부산교통공사","network_local":null,"operator":"부산교통공사","city":"Busan","country":"South Korea","lines":["2"],"wikidata":"Q705536"},"geometry":{"type":"Point","coordinates":[129.0321386,35.1539803]}},{"type":"Feature","properties":{"station_id":"n355173900","station_name":"Jeonpo","station_name_local":"전포","network":"부산교통공사","network_local":null,"operator":"부산교통공사","city":"Busan","country":"South Korea","lines":["2"],"wikidata":"Q705646"},"geometry":{"type":"Point","coordinates":[129.0653641,35.1528193]}},{"type":"Feature","properties":{"station_id":"n355173902","station_name":"Buam","station_name_local":"부암","network":"부산교통공사","network_local":null,"operator":"부산교통공사","city":"Busan","country":"South Korea","lines":["2"],"wikidata":"Q705576"},"geometry":{"type":"Point","coordinates":[129.0505061,35.157439]}},{"type":"Feature","properties":{"station_id":"n355173904","station_name":"Jurye","station_name_local":"주례","network":"부산교통공사","network_local":null,"operator":"부산교통공사","city":"Busan","country":"South Korea","lines":["2"],"wikidata":"Q1598428"},"geometry":{"type":"Point","coordinates":[129.00315,35.150504]}},{"type":"Feature","properties":{"station_id":"n355173906","station_name":"Gamjeon","station_name_local":"감전","network":"부산교통공사","network_local":null,"operator":"부산교통공사","city":"Busan","country":"South Korea","lines":["2"],"wikidata":"Q705881"},"geometry":{"type":"Point","coordinates":[128.9908801,35.1557054]}},{"type":"Feature","properties":{"station_id":"n355173908","station_name":"Gaegeum","station_name_local":"개금","network":"부산교통공사","network_local":null,"operator":"부산교통공사","city":"Busan","country":"South Korea","lines":["2"],"wikidata":null},"geometry":{"type":"Point","coordinates":[129.0204602,35.1532536]}},{"type":"Feature","properties":{"station_id":"n355173909","station_name":"Naengjeong","station_name_local":"냉정","network":"부산교통공사","network_local":null,"operator":"부산교통공사","city":"Busan","country":"South Korea","lines":["2"],"wikidata":"Q705912"},"geometry":{"type":"Point","coordinates":[129.0124257,35.1512851]}},{"type":"Feature","properties":{"station_id":"n355173971","station_name":"Mulmangol","station_name_local":"물만골","network":"부산교통공사","network_local":null,"operator":"부산교통공사","city":"Busan","country":"South Korea","lines":["3"],"wikidata":"Q706270"},"geometry":{"type":"Point","coordinates":[129.0858394,35.1766404]}},{"type":"Feature","properties":{"station_id":"n355173972","station_name":"Baesan","station_name_local":"배산","network":"부산교통공사","network_local":null,"operator":"부산교통공사","city":"Busan","country":"South Korea","lines":["3"],"wikidata":"Q706290"},"geometry":{"type":"Point","coordinates":[129.095751,35.173473]}},{"type":"Feature","properties":{"station_id":"n355173973","station_name":"Mangmi","station_name_local":"망미","network":"부산교통공사","network_local":null,"operator":"부산교통공사","city":"Busan","country":"South Korea","lines":["3"],"wikidata":"Q706187"},"geometry":{"type":"Point","coordinates":[129.1075228,35.1717526]}},{"type":"Feature","properties":{"station_id":"n355173979","station_name":"Sajik","station_name_local":"사직","network":"부산교통공사","network_local":null,"operator":"부산교통공사","city":"Busan","country":"South Korea","lines":["3"],"wikidata":"Q705428"},"geometry":{"type":"Point","coordinates":[129.0650666,35.1990904]}},{"type":"Feature","properties":{"station_id":"n1446033913","station_name":"Daejeo","station_name_local":"대저","network":"부산교통공사","network_local":null,"operator":"부산교통공사","city":"Busan","country":"South Korea","lines":["3","BGL"],"wikidata":null,"merged_from":2},"geometry":{"type":"Point","coordinates":[128.96077935,35.2131947]}},{"type":"Feature","properties":{"station_id":"n1446033914","station_name":"Gangseo Office","station_name_local":"강서구청","network":"부산교통공사","network_local":null,"operator":"부산교통공사","city":"Busan","country":"South Korea","lines":["3"],"wikidata":"Q704815","merged_from":3},"geometry":{"type":"Point","coordinates":[128.9819529,35.2112257]}},{"type":"Feature","properties":{"station_id":"n1446033915","station_name":"Gupo","station_name_local":"구포","network":"부산교통공사","network_local":null,"operator":"부산교통공사","city":"Busan","country":"South Korea","lines":["3"],"wikidata":"Q4865427"},"geometry":{"type":"Point","coordinates":[128.996352,35.2066938]}},{"type":"Feature","properties":{"station_id":"n1708284979","station_name":"Suan","station_name_local":"수안","network":"부산교통공사","network_local":null,"operator":"부산교통공사","city":"Busan","country":"South Korea","lines":["1"],"wikidata":"Q705451"},"geometry":{"type":"Point","coordinates":[129.0839158,35.201804]}},{"type":"Feature","properties":{"station_id":"n1763810759","station_name":"Hwamyeong","station_name_local":"화명","network":"부산교통공사","network_local":null,"operator":"부산교통공사","city":"Busan","country":"South Korea","lines":["2"],"wikidata":"Q626177"},"geometry":{"type":"Point","coordinates":[129.0138007,35.2352534]}},{"type":"Feature","properties":{"station_id":"n1763825051","station_name":"Namcheon","station_name_local":"남천","network":"부산교통공사","network_local":null,"operator":"부산교통공사","city":"Busan","country":"South Korea","lines":["2"],"wikidata":"Q706163"},"geometry":{"type":"Point","coordinates":[129.1078416,35.1421344]}},{"type":"Feature","properties":{"station_id":"n1768537544","station_name":"Busan Station","station_name_local":"부산역","network":"부산교통공사","network_local":null,"operator":"부산교통공사","city":"Busan","country":"South Korea","lines":["1"],"wikidata":"Q705273"},"geometry":{"type":"Point","coordinates":[129.0399028,35.1157262]}},{"type":"Feature","properties":{"station_id":"n4115279791","station_name":"Myeongnyun","station_name_local":"명륜","network":"부산교통공사","network_local":null,"operator":"부산교통공사","city":"Busan","country":"South Korea","lines":["1"],"wikidata":"Q705376"},"geometry":{"type":"Point","coordinates":[129.0797207,35.2126465]}},{"type":"Feature","properties":{"station_id":"n4632583162","station_name":"Oncheonjan","station_name_local":"온천장","network":"부산교통공사","network_local":null,"operator":"부산교통공사","city":"Busan","country":"South Korea","lines":["1"],"wikidata":"Q624165"},"geometry":{"type":"Point","coordinates":[129.0864268,35.2202436]}},{"type":"Feature","properties":{"station_id":"n4680300344","station_name":"Mandeok","station_name_local":"만덕","network":"부산교통공사","network_local":null,"operator":"부산교통공사","city":"Busan","country":"South Korea","lines":["3"],"wikidata":"Q705798"},"geometry":{"type":"Point","coordinates":[129.0364611,35.2129876]}},{"type":"Feature","properties":{"station_id":"n5194520289","station_name":"Gwaebeop Renecite","station_name_local":"괘법르네시떼","network":"Unknown","network_local":null,"operator":null,"city":"Busan","country":"South Korea","lines":["BGL"],"wikidata":"Q705895"},"geometry":{"type":"Point","coordinates":[128.977588,35.1632816]}},{"type":"Feature","properties":{"station_id":"n5194520291","station_name":"Buwon","station_name_local":"부원","network":"(주)부산김해경전철운영","network_local":null,"operator":"(주)부산김해경전철운영","city":"Busan","country":"South Korea","lines":["BGL"],"wikidata":"Q4869297"},"geometry":{"type":"Point","coordinates":[128.8838834,35.2264639]}},{"type":"Feature","properties":{"station_id":"n5194520292","station_name":"Presbyterian University","station_name_local":"장신대","network":"Unknown","network_local":null,"operator":null,"city":"Busan","country":"South Korea","lines":["BGL"],"wikidata":"Q4869328"},"geometry":{"type":"Point","coordinates":[128.8672492,35.2593885]}},{"type":"Feature","properties":{"station_id":"n5197043949","station_name":"Deunggu","station_name_local":"등구","network":"Unknown","network_local":null,"operator":null,"city":"Busan","country":"South Korea","lines":["BGL"],"wikidata":null},"geometry":{"type":"Point","coordinates":[128.9634997,35.1961591]}},{"type":"Feature","properties":{"station_id":"n5197043950","station_name":"Seobusan Yutongjigu","station_name_local":"서부산유통지구","network":"(주)부산김해경전철운영","network_local":null,"operator":"(주)부산김해경전철운영","city":"Busan","country":"South Korea","lines":["BGL"],"wikidata":null,"merged_from":2},"geometry":{"type":"Point","coordinates":[128.95492285,35.16637795]}},{"type":"Feature","properties":{"station_id":"n5208433886","station_name":"Gimhae College","station_name_local":"김해대학","network":"(주)부산김해경전철운영","network_local":null,"operator":"(주)부산김해경전철운영","city":"Busan","country":"South Korea","lines":["BGL"],"wikidata":"Q4866006"},"geometry":{"type":"Point","coordinates":[128.9155466,35.2289971]}},{"type":"Feature","properties":{"station_id":"n5208433887","station_name":"Jinae","station_name_local":"지내","network":"(주)부산김해경전철운영","network_local":null,"operator":"(주)부산김해경전철운영","city":"Busan","country":"South Korea","lines":["BGL"],"wikidata":"Q4865974"},"geometry":{"type":"Point","coordinates":[128.9237872,35.2275145]}},{"type":"Feature","properties":{"station_id":"n5208433888","station_name":"Buram","station_name_local":"불암","network":"(주)부산김해경전철운영","network_local":null,"operator":"(주)부산김해경전철운영","city":"Busan","country":"South Korea","lines":["BGL"],"wikidata":"Q4865939"},"geometry":{"type":"Point","coordinates":[128.9278476,35.2221749]}},{"type":"Feature","properties":{"station_id":"n5208433889","station_name":"Daesa","station_name_local":"대사","network":"(주)부산김해경전철운영","network_local":null,"operator":"(주)부산김해경전철운영","city":"Busan","country":"South Korea","lines":["BGL"],"wikidata":"Q704848"},"geometry":{"type":"Point","coordinates":[128.9383852,35.2177753]}},{"type":"Feature","properties":{"station_id":"n5208433890","station_name":"Pyeonggang","station_name_local":"평강","network":"(주)부산김해경전철운영","network_local":null,"operator":"(주)부산김해경전철운영","city":"Busan","country":"South Korea","lines":["BGL"],"wikidata":"Q704958"},"geometry":{"type":"Point","coordinates":[128.9506383,35.2140223]}},{"type":"Feature","properties":{"station_id":"n5208433891","station_name":"Kaya University","station_name_local":"가야대","network":"Unknown","network_local":null,"operator":null,"city":"Busan","country":"South Korea","lines":["BGL"],"wikidata":"Q4869332"},"geometry":{"type":"Point","coordinates":[128.8649491,35.2668299]}},{"type":"Feature","properties":{"station_id":"n5208433892","station_name":"Inje University","station_name_local":"인제대","network":"(주)부산김해경전철운영","network_local":null,"operator":"(주)부산김해경전철운영","city":"Busan","country":"South Korea","lines":["BGL"],"wikidata":"Q4869289"},"geometry":{"type":"Point","coordinates":[128.9017745,35.2280744]}},{"type":"Feature","properties":{"station_id":"n5208433893","station_name":"Gimhae City Hall","station_name_local":"김해시청","network":"(주)부산김해경전철운영","network_local":null,"operator":"(주)부산김해경전철운영","city":"Busan","country":"South Korea","lines":["BGL"],"wikidata":"Q4869292"},"geometry":{"type":"Point","coordinates":[128.8903754,35.2270823]}},{"type":"Feature","properties":{"station_id":"n5208433894","station_name":"Gimhae National Museum","station_name_local":"박물관","network":"Unknown","network_local":null,"operator":null,"city":"Busan","country":"South Korea","lines":["BGL"],"wikidata":"Q4869316"},"geometry":{"type":"Point","coordinates":[128.8718193,35.2400038]}},{"type":"Feature","properties":{"station_id":"n5208433895","station_name":"Royal Tomb of King Suro","station_name_local":"수로왕릉","network":"Unknown","network_local":null,"operator":null,"city":"Busan","country":"South Korea","lines":["BGL"],"wikidata":"Q4869309"},"geometry":{"type":"Point","coordinates":[128.8720995,35.2328426]}},{"type":"Feature","properties":{"station_id":"n5208433896","station_name":"Yeonji Park","station_name_local":"연지공원","network":"(주)부산김해경전철운영","network_local":null,"operator":"(주)부산김해경전철운영","city":"Busan","country":"South Korea","lines":["BGL"],"wikidata":"Q4869324"},"geometry":{"type":"Point","coordinates":[128.8692143,35.2496698]}},{"type":"Feature","properties":{"station_id":"n5208433897","station_name":"Gimhae International Airport","station_name_local":"공항","network":"(주)부산김해경전철운영","network_local":null,"operator":"(주)부산김해경전철운영","city":"Busan","country":"South Korea","lines":["BGL"],"wikidata":null,"merged_from":2},"geometry":{"type":"Point","coordinates":[128.94857555,35.17188855]}},{"type":"Feature","properties":{"station_id":"n5208433898","station_name":"Deokdu","station_name_local":"덕두","network":"(주)부산김해경전철운영","network_local":null,"operator":"(주)부산김해경전철운영","city":"Busan","country":"South Korea","lines":["BGL"],"wikidata":"Q704891"},"geometry":{"type":"Point","coordinates":[128.9540604,35.1819535]}},{"type":"Feature","properties":{"station_id":"n5208472150","station_name":"Haeundae","station_name_local":"해운대","network":"부산교통공사","network_local":null,"operator":"부산교통공사","city":"Busan","country":"South Korea","lines":["2"],"wikidata":"Q706557"},"geometry":{"type":"Point","coordinates":[129.1587469,35.1637531]}},{"type":"Feature","properties":{"station_id":"n5208472151","station_name":"Jung-dong","station_name_local":"중동","network":"부산교통공사","network_local":null,"operator":"부산교통공사","city":"Busan","country":"South Korea","lines":["2"],"wikidata":"Q706536"},"geometry":{"type":"Point","coordinates":[129.1678074,35.1666759]}},{"type":"Feature","properties":{"station_id":"n5208472152","station_name":"Jangsan","station_name_local":"장산","network":"부산교통공사","network_local":null,"operator":"부산교통공사","city":"Busan","country":"South Korea","lines":["2"],"wikidata":"Q625055"},"geometry":{"type":"Point","coordinates":[129.175858,35.1694748]}},{"type":"Feature","properties":{"station_id":"n5277755939","station_name":"Suyeong","station_name_local":"수영","network":"부산교통공사","network_local":null,"operator":"부산교통공사","city":"Busan","country":"South Korea","lines":["2","3"],"wikidata":"Q706225"},"geometry":{"type":"Point","coordinates":[129.114705,35.1654141]}},{"type":"Feature","properties":{"station_id":"n5277767273","station_name":"Yeonsan","station_name_local":"연산","network":"부산교통공사","network_local":null,"operator":"부산교통공사","city":"Busan","country":"South Korea","lines":["1","3"],"wikidata":"Q706322","merged_from":2},"geometry":{"type":"Point","coordinates":[129.0816411,35.1860048]}},{"type":"Feature","properties":{"station_id":"n5323513159","station_name":"Sujeong","station_name_local":"수정","network":"부산교통공사","network_local":null,"operator":"부산교통공사","city":"Busan","country":"South Korea","lines":["2"],"wikidata":"Q705814"},"geometry":{"type":"Point","coordinates":[129.0091715,35.2233039]}},{"type":"Feature","properties":{"station_id":"n5421140316","station_name":"Centum City","station_name_local":"센텀시티","network":"부산교통공사","network_local":null,"operator":"부산교통공사","city":"Busan","country":"South Korea","lines":["2"],"wikidata":"Q706473"},"geometry":{"type":"Point","coordinates":[129.1312167,35.1685922]}},{"type":"Feature","properties":{"station_id":"n5425835737","station_name":"Dusil","station_name_local":"두실","network":"부산교통공사","network_local":null,"operator":"부산교통공사","city":"Busan","country":"South Korea","lines":["1"],"wikidata":"Q705046"},"geometry":{"type":"Point","coordinates":[129.0913933,35.25703]}},{"type":"Feature","properties":{"station_id":"n5425853202","station_name":"Namsan","station_name_local":"남산","network":"부산교통공사","network_local":null,"operator":"부산교통공사","city":"Busan","country":"South Korea","lines":["1"],"wikidata":"Q705005"},"geometry":{"type":"Point","coordinates":[129.0925658,35.2654258]}},{"type":"Feature","properties":{"station_id":"n5581116350","station_name":"Jangnim","station_name_local":"장림","network":"부산교통공사","network_local":null,"operator":"부산교통공사","city":"Busan","country":"South Korea","lines":["1"],"wikidata":"Q22329179"},"geometry":{"type":"Point","coordinates":[128.977383,35.0818645]}},{"type":"Feature","properties":{"station_id":"n5581117238","station_name":"Dongmae","station_name_local":"동매","network":"부산교통공사","network_local":null,"operator":"부산교통공사","city":"Busan","country":"South Korea","lines":["1"],"wikidata":"Q22329180"},"geometry":{"type":"Point","coordinates":[128.9732678,35.0897702]}},{"type":"Feature","properties":{"station_id":"n5584656519","station_name":"Pusan Nat'l Univ.","station_name_local":"부산대","network":"부산교통공사","network_local":null,"operator":"부산교통공사","city":"Busan","country":"South Korea","lines":["1"],"wikidata":"Q624204"},"geometry":{"type":"Point","coordinates":[129.0893608,35.2296377]}},{"type":"Feature","properties":{"station_id":"n5585724252","station_name":"Dadaepo Beach","station_name_local":"다대포해수욕장","network":"부산교통공사","network_local":null,"operator":"부산교통공사","city":"Busan","country":"South Korea","lines":["1"],"wikidata":"Q22329176"},"geometry":{"type":"Point","coordinates":[128.9660188,35.0481953]}},{"type":"Feature","properties":{"station_id":"n5585871601","station_name":"Sinpyeong","station_name_local":"신평","network":"부산교통공사","network_local":null,"operator":"부산교통공사","city":"Busan","country":"South Korea","lines":["1"],"wikidata":"Q482935"},"geometry":{"type":"Point","coordinates":[128.9606813,35.0952151]}},{"type":"Feature","properties":{"station_id":"n5757147572","station_name":"Geoje","station_name_local":"거제","network":"한국철도공사","network_local":null,"operator":"한국철도공사","city":"Busan","country":"South Korea","lines":["3"],"wikidata":null},"geometry":{"type":"Point","coordinates":[129.0739899,35.1888685]}},{"type":"Feature","properties":{"station_id":"n5773426737","station_name":"Sinjangnim","station_name_local":"신장림","network":"부산교통공사","network_local":null,"operator":"부산교통공사","city":"Busan","country":"South Korea","lines":["1"],"wikidata":"Q22329178"},"geometry":{"type":"Point","coordinates":[128.9768092,35.0745502]}},{"type":"Feature","properties":{"station_id":"n5773428961","station_name":"Natgae","station_name_local":"낫개","network":"부산교통공사","network_local":null,"operator":"부산교통공사","city":"Busan","country":"South Korea","lines":["1"],"wikidata":"Q22329177"},"geometry":{"type":"Point","coordinates":[128.979733,35.0652983]}},{"type":"Feature","properties":{"station_id":"n5773432737","station_name":"Dadaepo Harbor","station_name_local":"다대포항","network":"부산교통공사","network_local":null,"operator":"부산교통공사","city":"Busan","country":"South Korea","lines":["1"],"wikidata":"Q22329181"},"geometry":{"type":"Point","coordinates":[128.9713277,35.0577578]}},{"type":"Feature","properties":{"station_id":"n5782717000","station_name":"Seomyeon","station_name_local":"서면","network":"부산교통공사","network_local":null,"operator":"부산교통공사","city":"Busan","country":"South Korea","lines":["2"],"wikidata":"Q483212"},"geometry":{"type":"Point","coordinates":[129.0592588,35.1577739]}},{"type":"Feature","properties":{"station_id":"n5784625565","station_name":"Minam","station_name_local":"미남","network":"부산교통공사","network_local":null,"operator":"부산교통공사","city":"Busan","country":"South Korea","lines":["3"],"wikidata":"Q705415"},"geometry":{"type":"Point","coordinates":[129.0687474,35.206533]}},{"type":"Feature","properties":{"station_id":"n6503510663","station_name":"Sasang","station_name_local":"사상","network":"(주)부산김해경전철운영","network_local":null,"operator":"(주)부산김해경전철운영","city":"Busan","country":"South Korea","lines":["2","BGL"],"wikidata":null,"merged_from":2},"geometry":{"type":"Point","coordinates":[128.98526275,35.162374299999996]}},{"type":"Feature","properties":{"station_id":"n8185768821","station_name":"Gunam","station_name_local":"구남","network":"부산교통공사","network_local":null,"operator":"부산교통공사","city":"Busan","country":"South Korea","lines":["2"],"wikidata":"Q705667"},"geometry":{"type":"Point","coordinates":[128.9949483,35.1968242]}},{"type":"Feature","properties":{"station_id":"n8276545363","station_name":"Bonghwang","station_name_local":"봉황","network":"(주)부산김해경전철운영","network_local":null,"operator":"(주)부산김해경전철운영","city":"Busan","country":"South Korea","lines":["BGL"],"wikidata":"Q4869302"},"geometry":{"type":"Point","coordinates":[128.8742798,35.227204]}},{"type":"Feature","properties":{"station_id":"n8724477916","station_name":"Busan National University of Education","station_name_local":"교대","network":"부산교통공사","network_local":null,"operator":"부산교통공사","city":"Busan","country":"South Korea","lines":["1"],"wikidata":"Q706257"},"geometry":{"type":"Point","coordinates":[129.0800325,35.1952181]}},{"type":"Feature","properties":{"station_id":"n8850172482","station_name":"Sports Complex","station_name_local":"종합운동장","network":"부산교통공사","network_local":null,"operator":"부산교통공사","city":"Busan","country":"South Korea","lines":["3"],"wikidata":"Q706337"},"geometry":{"type":"Point","coordinates":[129.0675707,35.1908882]}},{"type":"Feature","properties":{"station_id":"n12786895760","station_name":"Cheyuk Park","station_name_local":"체육공원","network":"부산교통공사","network_local":null,"operator":"부산교통공사","city":"Busan","country":"South Korea","lines":["3"],"wikidata":"Q704940"},"geometry":{"type":"Point","coordinates":[128.9693787,35.2124864]}},{"type":"Feature","properties":{"station_id":"n464990387","station_name":"연지공원","station_name_local":"연지공원","network":"Unknown","network_local":null,"operator":null,"city":"Busan","country":"South Korea","lines":["BGL"],"wikidata":null},"geometry":{"type":"Point","coordinates":[128.8692448,35.2496904]}}]}