{"type":"FeatureCollection","metro_system":{"continent":"asia","country":"South Korea","city":"Gwangju","osm_networks":["Unknown","광주 도시철도","광주교통공사"],"operator":"광주교통공사","official_website":null,"official_map":"https://en.wikipedia.org/wiki/Gwangju_Metro_Line_1","wikidata":"Q626996","line_count":1,"station_count":21,"audit":{"strategies_tried":[],"passed":true,"checks":[{"id":"system_exists","ok":true,"detail":"matched OSM system systems/asia/south-korea/asia-south-korea-gwangju.geojson","level":"error"},{"id":"has_lines","ok":true,"detail":"1 lines","level":"error"},{"id":"has_stations","ok":true,"detail":"21 stations","level":"error"},{"id":"station_ratio","ok":true,"detail":"OSM 21 vs Wikipedia 20（比值 1.05）","level":"error"},{"id":"stations_have_lines","ok":true,"detail":"21/21 站皆有所屬路線","level":"error"},{"id":"stations_named","ok":true,"detail":"21/21 站有名稱","level":"warn"},{"id":"station_order","ok":true,"detail":"所有線路站序合理","level":"warn"}],"reasons":[],"warnings":[],"audited_at":"2026-07-10T07:56:59.741Z"}},"features":[{"type":"Feature","properties":{"route_id":"rm13538911","route_name":"Gwangju Metro Line 1","route_name_local":"광주 도시철도 1호선","route_ref":"1","route_color":"#009088","network":"광주 도시철도","network_local":"광주 도시철도","operator":"광주교통공사","city":"Gwangju","country":"South Korea","wikidata":"Q626996","wikipedia":"en:Gwangju Metro Line 1","osm_route_ids":[13463724,13463725]},"geometry":{"type":"MultiLineString","coordinates":[[[126.7704005,35.1248349],[126.787612,35.1315728],[126.7916837,35.1376262],[126.7995247,35.1435501],[126.8117005,35.1440716],[126.8413624,35.1431752],[126.848662,35.1467166],[126.8587106,35.1503629],[126.8695762,35.1514261],[126.8768625,35.1518868],[126.8841355,35.1531873],[126.8955605,35.1516709],[126.9018197,35.1544713],[126.9099927,35.1537362],[126.9145376,35.150688],[126.9197904,35.1466707],[126.9228161,35.1393636],[126.928124,35.1331119],[126.9321661,35.1236243],[126.9340426,35.1068152]]]}},{"type":"Feature","properties":{"station_id":"n2382904318","station_name":"Sangmu","station_name_local":"상무","network":"Unknown","network_local":null,"operator":null,"city":"Gwangju","country":"South Korea","lines":["1"],"wikidata":"Q1583312"},"geometry":{"type":"Point","coordinates":[126.848655,35.1467308]}},{"type":"Feature","properties":{"station_id":"n5190977743","station_name":"Nokdong","station_name_local":"녹동","network":"Unknown","network_local":null,"operator":null,"city":"Gwangju","country":"South Korea","lines":["1"],"wikidata":"Q623583"},"geometry":{"type":"Point","coordinates":[126.9339897,35.1068236]}},{"type":"Feature","properties":{"station_id":"n5277694777","station_name":"Pyeongdong","station_name_local":"평동","network":"Unknown","network_local":null,"operator":null,"city":"Gwangju","country":"South Korea","lines":["1"],"wikidata":"Q1583223"},"geometry":{"type":"Point","coordinates":[126.7695968,35.1248086]}},{"type":"Feature","properties":{"station_id":"n8277380186","station_name":"Dosan","station_name_local":"도산","network":"Unknown","network_local":null,"operator":null,"city":"Gwangju","country":"South Korea","lines":["1"],"wikidata":"Q1583193"},"geometry":{"type":"Point","coordinates":[126.787266,35.1313781]}},{"type":"Feature","properties":{"station_id":"n8298442813","station_name":"Namgwangju","station_name_local":"남광주","network":"Unknown","network_local":null,"operator":null,"city":"Gwangju","country":"South Korea","lines":["1"],"wikidata":"Q624382"},"geometry":{"type":"Point","coordinates":[126.9227716,35.1394416]}},{"type":"Feature","properties":{"station_id":"n8308335240","station_name":"Gwangju Songjeong","station_name_local":"광주송정","network":"Unknown","network_local":null,"operator":null,"city":"Gwangju","country":"South Korea","lines":["1"],"wikidata":"Q1583211"},"geometry":{"type":"Point","coordinates":[126.791568,35.1375544]}},{"type":"Feature","properties":{"station_id":"n9252650042","station_name":"Songjeong Park","station_name_local":"송정공원","network":"Unknown","network_local":null,"operator":null,"city":"Gwangju","country":"South Korea","lines":["1"],"wikidata":"Q1583203"},"geometry":{"type":"Point","coordinates":[126.799536,35.1435714]}},{"type":"Feature","properties":{"station_id":"n9252650044","station_name":"Airport","station_name_local":"공항","network":"Unknown","network_local":null,"operator":null,"city":"Gwangju","country":"South Korea","lines":["1"],"wikidata":"Q1583121"},"geometry":{"type":"Point","coordinates":[126.8117129,35.144104]}},{"type":"Feature","properties":{"station_id":"n9252650046","station_name":"Kimdaejung Convention Center","station_name_local":"김대중컨벤션센터","network":"Unknown","network_local":null,"operator":null,"city":"Gwangju","country":"South Korea","lines":["1"],"wikidata":"Q1583283"},"geometry":{"type":"Point","coordinates":[126.841324,35.1431981]}},{"type":"Feature","properties":{"station_id":"n9252650049","station_name":"Uncheon","station_name_local":"운천","network":"Unknown","network_local":null,"operator":null,"city":"Gwangju","country":"South Korea","lines":["1"],"wikidata":"Q1583331"},"geometry":{"type":"Point","coordinates":[126.8586977,35.1504006]}},{"type":"Feature","properties":{"station_id":"n9252650051","station_name":"Ssangchon","station_name_local":"쌍촌","network":"Unknown","network_local":null,"operator":null,"city":"Gwangju","country":"South Korea","lines":["1"],"wikidata":"Q1583320"},"geometry":{"type":"Point","coordinates":[126.8695709,35.1514904]}},{"type":"Feature","properties":{"station_id":"n9252650053","station_name":"Hwajeong","station_name_local":"화정","network":"Unknown","network_local":null,"operator":null,"city":"Gwangju","country":"South Korea","lines":["1"],"wikidata":"Q1583340"},"geometry":{"type":"Point","coordinates":[126.8767655,35.1519029]}},{"type":"Feature","properties":{"station_id":"n9252650055","station_name":"Nongseong","station_name_local":"농성","network":"Unknown","network_local":null,"operator":null,"city":"Gwangju","country":"South Korea","lines":["1"],"wikidata":"Q1583292"},"geometry":{"type":"Point","coordinates":[126.8840429,35.1532154]}},{"type":"Feature","properties":{"station_id":"n9252650057","station_name":"Dolgogae","station_name_local":"돌고개","network":"Unknown","network_local":null,"operator":null,"city":"Gwangju","country":"South Korea","lines":["1"],"wikidata":"Q1583303"},"geometry":{"type":"Point","coordinates":[126.8955645,35.1517154]}},{"type":"Feature","properties":{"station_id":"n9252650059","station_name":"Yangdong Market","station_name_local":"양동시장","network":"Unknown","network_local":null,"operator":null,"city":"Gwangju","country":"South Korea","lines":["1"],"wikidata":"Q1583325"},"geometry":{"type":"Point","coordinates":[126.901769,35.1545129]}},{"type":"Feature","properties":{"station_id":"n9252650061","station_name":"Geumnamro 5-ga","station_name_local":"금남로5가","network":"Unknown","network_local":null,"operator":null,"city":"Gwangju","country":"South Korea","lines":["1"],"wikidata":"Q1583245"},"geometry":{"type":"Point","coordinates":[126.9100714,35.1537076]}},{"type":"Feature","properties":{"station_id":"n9252650063","station_name":"Geumnamno 4(sa)-ga","station_name_local":"금남로4가","network":"Unknown","network_local":null,"operator":null,"city":"Gwangju","country":"South Korea","lines":["1"],"wikidata":"Q1583235"},"geometry":{"type":"Point","coordinates":[126.9145807,35.1507055]}},{"type":"Feature","properties":{"station_id":"n9252650065","station_name":"Asia Culture Center","station_name_local":"문화전당","network":"Unknown","network_local":null,"operator":null,"city":"Gwangju","country":"South Korea","lines":["1"],"wikidata":"Q1583261"},"geometry":{"type":"Point","coordinates":[126.9198143,35.1466782]}},{"type":"Feature","properties":{"station_id":"n9252650068","station_name":"Hakdong·Jeungsimsa","station_name_local":"학동·증심사입구","network":"Unknown","network_local":null,"operator":null,"city":"Gwangju","country":"South Korea","lines":["1"],"wikidata":"Q626197"},"geometry":{"type":"Point","coordinates":[126.9281659,35.1331095]}},{"type":"Feature","properties":{"station_id":"n9252650070","station_name":"Sotae","station_name_local":"소태","network":"Unknown","network_local":null,"operator":null,"city":"Gwangju","country":"South Korea","lines":["1"],"wikidata":"Q623953"},"geometry":{"type":"Point","coordinates":[126.9322262,35.1236091]}},{"type":"Feature","properties":{"station_id":"n1442542051","station_name":"상무역","station_name_local":"상무역","network":"광주교통공사","network_local":null,"operator":"광주교통공사","city":"Gwangju","country":"South Korea","lines":["1"],"wikidata":null},"geometry":{"type":"Point","coordinates":[126.848518,35.1466723]}}]}